time (s), accel_x (m/s^2), accel_y (m/s^2), accel_z (m/s^2), gyro_x (rad/s), gyro_y (rad/s), gyro_z (rad/s), x (m), y (m), z (m), yaw (rad), pitch (rad), roll (rad), mocap_counter, counter, desired x, desired y, desired z, desired yaw
0.0000, 0.0000, 0.0000, 0.0000, 0.0000, 0.0000, 0.0000, 0.0570, -0.0045, -0.0857, -0.1798, 0.0192, 0.0019, 338, 0, 0.0000, 0.0000, 0.0000, 0.0000
0.0200, 0.0000, 0.0000, 0.0000, 0.0000, 0.0000, 0.0000, 0.0570, -0.0043, -0.0856, -0.1800, 0.0183, 0.0023, 339, 0, 0.0000, 0.0000, 0.0000, 0.0000
0.0390, 0.0000, 0.0000, 0.0000, 0.0000, 0.0000, 0.0000, 0.0569, -0.0044, -0.0855, -0.1798, 0.0178, 0.0020, 340, 0, 0.0000, 0.0000, 0.0000, 0.0000
0.0600, 0.0000, 0.0000, 0.0000, 0.0000, 0.0000, 0.0000, 0.0570, -0.0045, -0.0857, -0.1800, 0.0191, 0.0016, 341, 0, 0.0000, 0.0000, 0.0000, 0.0000
0.0800, 0.0000, 0.0000, 0.0000, 0.0000, 0.0000, 0.0000, 0.0568, -0.0044, -0.0852, -0.1803, 0.0165, 0.0012, 342, 0, 0.0000, 0.0000, 0.0000, 0.0000
0.1000, 0.0000, 0.0000, 0.0000, 0.0000, 0.0000, 0.0000, 0.0569, -0.0044, -0.0856, -0.1800, 0.0183, 0.0019, 343, 0, 0.0000, 0.0000, 0.0000, 0.0000
0.1200, 0.0000, 0.0000, 0.0000, 0.0000, 0.0000, 0.0000, 0.0569, -0.0044, -0.0854, -0.1800, 0.0169, 0.0025, 344, 0, 0.0000, 0.0000, 0.0000, 0.0000
0.1400, 0.0000, 0.0000, 0.0000, 0.0000, 0.0000, 0.0000, 0.0569, -0.0045, -0.0855, -0.1798, 0.0180, 0.0024, 345, 0, 0.0000, 0.0000, 0.0000, 0.0000
0.1600, 0.0000, 0.0000, 0.0000, 0.0000, 0.0000, 0.0000, 0.0570, -0.0044, -0.0856, -0.1800, 0.0190, 0.0017, 346, 0, 0.0000, 0.0000, 0.0000, 0.0000
0.1800, 0.0000, 0.0000, 0.0000, 0.0000, 0.0000, 0.0000, 0.0570, -0.0044, -0.0855, -0.1800, 0.0182, 0.0017, 347, 0, 0.0000, 0.0000, 0.0000, 0.0000
0.2000, 0.0000, 0.0000, 0.0000, 0.0000, 0.0000, 0.0000, 0.0570, -0.0045, -0.0856, -0.1799, 0.0180, 0.0022, 348, 0, 0.0000, 0.0000, 0.0000, 0.0000
0.2200, 0.0000, 0.0000, 0.0000, 0.0000, 0.0000, 0.0000, 0.0568, -0.0044, -0.0855, -0.1800, 0.0168, 0.0025, 349, 0, 0.0000, 0.0000, 0.0000, 0.0000
0.2400, 0.0000, 0.0000, 0.0000, 0.0000, 0.0000, 0.0000, 0.0570, -0.0044, -0.0855, -0.1798, 0.0181, 0.0022, 350, 0, 0.0000, 0.0000, 0.0000, 0.0000
0.2600, 0.0000, 0.0000, 0.0000, 0.0000, 0.0000, 0.0000, 0.0571, -0.0044, -0.0856, -0.1798, 0.0190, 0.0016, 351, 0, 0.0000, 0.0000, 0.0000, 0.0000
0.2800, 0.0000, 0.0000, 0.0000, 0.0000, 0.0000, 0.0000, 0.0568, -0.0045, -0.0854, -0.1800, 0.0168, 0.0024, 352, 0, 0.0000, 0.0000, 0.0000, 0.0000
0.3000, 0.0000, 0.0000, 0.0000, 0.0000, 0.0000, 0.0000, 0.0570, -0.0044, -0.0856, -0.1799, 0.0182, 0.0020, 353, 0, 0.0000, 0.0000, 0.0000, 0.0000
0.3200, 0.0000, 0.0000, 0.0000, 0.0000, 0.0000, 0.0000, 0.0570, -0.0043, -0.0856, -0.1801, 0.0191, 0.0017, 354, 0, 0.0000, 0.0000, 0.0000, 0.0000
0.3400, 0.0000, 0.0000, 0.0000, 0.0000, 0.0000, 0.0000, 0.0569, -0.0044, -0.0856, -0.1799, 0.0180, 0.0020, 355, 0, 0.0000, 0.0000, 0.0000, 0.0000
0.3600, 0.0000, 0.0000, 0.0000, 0.0000, 0.0000, 0.0000, 0.0570, -0.0045, -0.0857, -0.1800, 0.0191, 0.0018, 356, 0, 0.0000, 0.0000, 0.0000, 0.0000
0.3800, 0.0000, 0.0000, 0.0000, 0.0000, 0.0000, 0.0000, 0.0569, -0.0044, -0.0856, -0.1801, 0.0184, 0.0019, 357, 0, 0.0000, 0.0000, 0.0000, 0.0000
0.4000, 0.0000, 0.0000, 0.0000, 0.0000, 0.0000, 0.0000, 0.0569, -0.0044, -0.0855, -0.1799, 0.0181, 0.0021, 358, 0, 0.0000, 0.0000, 0.0000, 0.0000
0.4200, 0.0000, 0.0000, 0.0000, 0.0000, 0.0000, 0.0000, 0.0570, -0.0044, -0.0857, -0.1801, 0.0192, 0.0019, 359, 0, 0.0000, 0.0000, 0.0000, 0.0000
0.4400, 0.0000, 0.0000, 0.0000, 0.0000, 0.0000, 0.0000, 0.0570, -0.0045, -0.0855, -0.1797, 0.0179, 0.0020, 360, 0, 0.0000, 0.0000, 0.0000, 0.0000
0.4600, 0.0000, 0.0000, 0.0000, 0.0000, 0.0000, 0.0000, 0.0570, -0.0044, -0.0856, -0.1800, 0.0184, 0.0020, 361, 0, 0.0000, 0.0000, 0.0000, 0.0000
0.4800, 0.0000, 0.0000, 0.0000, 0.0000, 0.0000, 0.0000, 0.0569, -0.0044, -0.0856, -0.1800, 0.0184, 0.0020, 362, 0, 0.0000, 0.0000, 0.0000, 0.0000
0.4990, 0.0000, 0.0000, 0.0000, 0.0000, 0.0000, 0.0000, 0.0568, -0.0045, -0.0855, -0.1800, 0.0166, 0.0028, 363, 0, 0.0000, 0.0000, 0.0000, 0.0000
0.5200, 0.0000, 0.0000, 0.0000, 0.0000, 0.0000, 0.0000, 0.0570, -0.0044, -0.0856, -0.1800, 0.0190, 0.0017, 364, 0, 0.0000, 0.0000, 0.0000, 0.0000
0.5400, 0.0000, 0.0000, 0.0000, 0.0000, 0.0000, 0.0000, 0.0571, -0.0044, -0.0856, -0.1798, 0.0177, 0.0022, 365, 0, 0.0000, 0.0000, 0.0000, 0.0000
0.5600, 0.0000, 0.0000, 0.0000, 0.0000, 0.0000, 0.0000, 0.0569, -0.0044, -0.0855, -0.1797, 0.0181, 0.0018, 366, 0, 0.0000, 0.0000, 0.0000, 0.0000
0.5800, 0.0000, 0.0000, 0.0000, 0.0000, 0.0000, 0.0000, 0.0571, -0.0045, -0.0858, -0.1790, 0.0186, 0.0013, 367, 0, 0.0000, 0.0000, 0.0000, 0.0000
0.6000, 0.0000, 0.0000, 0.0000, 0.0000, 0.0000, 0.0000, 0.0570, -0.0045, -0.0858, -0.1790, 0.0177, 0.0008, 368, 0, 0.0000, 0.0000, 0.0000, 0.0000
0.6200, 0.0000, 0.0000, 0.0000, 0.0000, 0.0000, 0.0000, 0.0572, -0.0046, -0.0860, -0.1783, 0.0179, -0.0014, 369, 0, 0.0000, 0.0000, 0.0000, 0.0000
0.6400, 0.0000, 0.0000, 0.0000, 0.0000, 0.0000, 0.0000, 0.0572, -0.0050, -0.0863, -0.1770, 0.0170, -0.0056, 370, 0, 0.0000, 0.0000, 0.0000, 0.0000
0.6600, 0.0000, 0.0000, 0.0000, 0.0000, 0.0000, 0.0000, 0.0573, -0.0054, -0.0863, -0.1737, 0.0162, -0.0129, 371, 0, 0.0000, 0.0000, 0.0000, 0.0000
0.6800, 0.0000, 0.0000, 0.0000, 0.0000, 0.0000, 0.0000, 0.0574, -0.0053, -0.0864, -0.1702, 0.0188, -0.0180, 372, 0, 0.0000, 0.0000, 0.0000, 0.0000
0.7000, 0.0000, 0.0000, 0.0000, 0.0000, 0.0000, 0.0000, 0.0578, -0.0048, -0.0864, -0.1666, 0.0210, -0.0215, 373, 0, 0.0000, 0.0000, 0.0000, 0.0000
0.7200, 0.0000, 0.0000, 0.0000, 0.0000, 0.0000, 0.0000, 0.0583, -0.0043, -0.0866, -0.1622, 0.0246, -0.0236, 374, 0, 0.0000, 0.0000, 0.0000, 0.0000
0.7400, 0.0000, 0.0000, 0.0000, 0.0000, 0.0000, 0.0000, 0.0591, -0.0033, -0.0871, -0.1581, 0.0296, -0.0273, 375, 0, 0.0000, 0.0000, 0.0000, 0.0000
0.7600, 0.0000, 0.0000, 0.0000, 0.0000, 0.0000, 0.0000, 0.0598, -0.0021, -0.0872, -0.1537, 0.0302, -0.0296, 376, 0, 0.0000, 0.0000, 0.0000, 0.0000
0.7800, 0.0000, 0.0000, 0.0000, 0.0000, 0.0000, 0.0000, 0.0608, -0.0009, -0.0874, -0.1490, 0.0314, -0.0321, 377, 0, 0.0000, 0.0000, 0.0000, 0.0000
0.8000, 0.0000, 0.0000, 0.0000, 0.0000, 0.0000, 0.0000, 0.0620, 0.0002, -0.0880, -0.1446, 0.0339, -0.0348, 378, 0, 0.0000, 0.0000, 0.0000, 0.0000
0.8200, 0.0000, 0.0000, 0.0000, 0.0000, 0.0000, 0.0000, 0.0632, 0.0018, -0.0884, -0.1395, 0.0354, -0.0372, 379, 0, 0.0000, 0.0000, 0.0000, 0.0000
0.8400, 0.0000, 0.0000, 0.0000, 0.0000, 0.0000, 0.0000, 0.0646, 0.0032, -0.0889, -0.1345, 0.0362, -0.0410, 380, 0, 0.0000, 0.0000, 0.0000, 0.0000
0.8600, 0.0000, 0.0000, 0.0000, 0.0000, 0.0000, 0.0000, 0.0659, 0.0047, -0.0892, -0.1289, 0.0368, -0.0445, 381, 0, 0.0000, 0.0000, 0.0000, 0.0000
0.8800, 0.0000, 0.0000, 0.0000, 0.0000, 0.0000, 0.0000, 0.0673, 0.0063, -0.0899, -0.1242, 0.0392, -0.0494, 382, 0, 0.0000, 0.0000, 0.0000, 0.0000
0.9000, 0.0000, 0.0000, 0.0000, 0.0000, 0.0000, 0.0000, 0.0686, 0.0082, -0.0902, -0.1188, 0.0404, -0.0535, 383, 0, 0.0000, 0.0000, 0.0000, 0.0000
0.9190, 0.0000, 0.0000, 0.0000, 0.0000, 0.0000, 0.0000, 0.0700, 0.0099, -0.0909, -0.1135, 0.0435, -0.0566, 384, 0, 0.0000, 0.0000, 0.0000, 0.0000
0.9400, 0.0000, 0.0000, 0.0000, 0.0000, 0.0000, 0.0000, 0.0713, 0.0117, -0.0914, -0.1081, 0.0460, -0.0590, 385, 0, 0.0000, 0.0000, 0.0000, 0.0000
0.9600, 0.0000, 0.0000, 0.0000, 0.0000, 0.0000, 0.0000, 0.0727, 0.0136, -0.0918, -0.1028, 0.0475, -0.0613, 386, 0, 0.0000, 0.0000, 0.0000, 0.0000
0.9800, 0.0000, 0.0000, 0.0000, 0.0000, 0.0000, 0.0000, 0.0741, 0.0156, -0.0926, -0.0978, 0.0498, -0.0630, 387, 0, 0.0000, 0.0000, 0.0000, 0.0000
1.0000, 0.0000, 0.0000, 0.0000, 0.0000, 0.0000, 0.0000, 0.0756, 0.0177, -0.0930, -0.0920, 0.0506, -0.0652, 388, 0, 0.0000, 0.0000, 0.0000, 0.0000
1.0200, 0.0000, 0.0000, 0.0000, 0.0000, 0.0000, 0.0000, 0.0769, 0.0193, -0.0937, -0.0869, 0.0509, -0.0675, 389, 0, 0.0000, 0.0000, 0.0000, 0.0000
1.0400, 0.0000, 0.0000, 0.0000, 0.0000, 0.0000, 0.0000, 0.0783, 0.0215, -0.0942, -0.0811, 0.0530, -0.0697, 390, 0, 0.0000, 0.0000, 0.0000, 0.0000
1.0600, 0.0000, 0.0000, 0.0000, 0.0000, 0.0000, 0.0000, 0.0796, 0.0235, -0.0947, -0.0763, 0.0536, -0.0707, 391, 0, 0.0000, 0.0000, 0.0000, 0.0000
1.0800, 0.0000, 0.0000, 0.0000, 0.0000, 0.0000, 0.0000, 0.0809, 0.0255, -0.0950, -0.0705, 0.0539, -0.0717, 392, 0, 0.0000, 0.0000, 0.0000, 0.0000
1.1000, 0.0000, 0.0000, 0.0000, 0.0000, 0.0000, 0.0000, 0.0821, 0.0275, -0.0953, -0.0660, 0.0540, -0.0739, 393, 0, 0.0000, 0.0000, 0.0000, 0.0000
1.1200, 0.0000, 0.0000, 0.0000, 0.0000, 0.0000, 0.0000, 0.0834, 0.0292, -0.0953, -0.0608, 0.0534, -0.0767, 394, 0, 0.0000, 0.0000, 0.0000, 0.0000
1.1400, 0.0000, 0.0000, 0.0000, 0.0000, 0.0000, 0.0000, 0.0846, 0.0313, -0.0952, -0.0564, 0.0533, -0.0787, 395, 0, 0.0000, 0.0000, 0.0000, 0.0000
1.1600, 0.0000, 0.0000, 0.0000, 0.0000, 0.0000, 0.0000, 0.0858, 0.0329, -0.0952, -0.0514, 0.0533, -0.0816, 396, 0, 0.0000, 0.0000, 0.0000, 0.0000
1.1800, 0.0000, 0.0000, 0.0000, 0.0000, 0.0000, 0.0000, 0.0869, 0.0346, -0.0949, -0.0468, 0.0530, -0.0838, 397, 0, 0.0000, 0.0000, 0.0000, 0.0000
1.2000, 0.0000, 0.0000, 0.0000, 0.0000, 0.0000, 0.0000, 0.0882, 0.0364, -0.0946, -0.0419, 0.0525, -0.0854, 398, 0, 0.0000, 0.0000, 0.0000, 0.0000
1.2200, 0.0000, 0.0000, 0.0000, 0.0000, 0.0000, 0.0000, 0.0892, 0.0378, -0.0944, -0.0376, 0.0527, -0.0866, 399, 0, 0.0000, 0.0000, 0.0000, 0.0000
1.2400, 0.0000, 0.0000, 0.0000, 0.0000, 0.0000, 0.0000, 0.0903, 0.0393, -0.0941, -0.0327, 0.0539, -0.0877, 400, 0, 0.0000, 0.0000, 0.0000, 0.0000
1.2600, 0.0000, 0.0000, 0.0000, 0.0000, 0.0000, 0.0000, 0.0913, 0.0408, -0.0939, -0.0287, 0.0555, -0.0883, 401, 0, 0.0000, 0.0000, 0.0000, 0.0000
1.2800, 0.0000, 0.0000, 0.0000, 0.0000, 0.0000, 0.0000, 0.0924, 0.0421, -0.0936, -0.0246, 0.0572, -0.0891, 402, 0, 0.0000, 0.0000, 0.0000, 0.0000
1.3000, 0.0000, 0.0000, 0.0000, 0.0000, 0.0000, 0.0000, 0.0933, 0.0433, -0.0934, -0.0205, 0.0591, -0.0907, 403, 0, 0.0000, 0.0000, 0.0000, 0.0000
1.3200, 0.0000, 0.0000, 0.0000, 0.0000, 0.0000, 0.0000, 0.0940, 0.0442, -0.0931, -0.0168, 0.0610, -0.0916, 404, 0, 0.0000, 0.0000, 0.0000, 0.0000
1.3400, 0.0000, 0.0000, 0.0000, 0.0000, 0.0000, 0.0000, 0.0950, 0.0455, -0.0929, -0.0133, 0.0627, -0.0913, 405, 0, 0.0000, 0.0000, 0.0000, 0.0000
1.3600, 0.0000, 0.0000, 0.0000, 0.0000, 0.0000, 0.0000, 0.0959, 0.0465, -0.0929, -0.0097, 0.0642, -0.0907, 406, 0, 0.0000, 0.0000, 0.0000, 0.0000
1.3800, 0.0000, 0.0000, 0.0000, 0.0000, 0.0000, 0.0000, 0.0966, 0.0472, -0.0929, -0.0066, 0.0643, -0.0900, 407, 0, 0.0000, 0.0000, 0.0000, 0.0000
1.4000, 0.0000, 0.0000, 0.0000, 0.0000, 0.0000, 0.0000, 0.0974, 0.0480, -0.0930, -0.0036, 0.0636, -0.0889, 408, 0, 0.0000, 0.0000, 0.0000, 0.0000
1.4200, 0.0000, 0.0000, 0.0000, 0.0000, 0.0000, 0.0000, 0.0982, 0.0487, -0.0932, -0.0007, 0.0637, -0.0879, 409, 0, 0.0000, 0.0000, 0.0000, 0.0000
1.4400, 0.0000, 0.0000, 0.0000, 0.0000, 0.0000, 0.0000, 0.0988, 0.0494, -0.0934, 0.0023, 0.0622, -0.0868, 410, 0, 0.0000, 0.0000, 0.0000, 0.0000
1.4600, 0.0000, 0.0000, 0.0000, 0.0000, 0.0000, 0.0000, 0.0992, 0.0497, -0.0937, 0.0044, 0.0622, -0.0870, 411, 0, 0.0000, 0.0000, 0.0000, 0.0000
1.4800, 0.0000, 0.0000, 0.0000, 0.0000, 0.0000, 0.0000, 0.0997, 0.0502, -0.0938, 0.0069, 0.0620, -0.0868, 412, 0, 0.0000, 0.0000, 0.0000, 0.0000
1.5000, 0.0000, 0.0000, 0.0000, 0.0000, 0.0000, 0.0000, 0.1000, 0.0505, -0.0940, 0.0092, 0.0608, -0.0859, 413, 0, 0.0000, 0.0000, 0.0000, 0.0000
1.5190, 0.0000, 0.0000, 0.0000, 0.0000, 0.0000, 0.0000, 0.1003, 0.0508, -0.0940, 0.0117, 0.0597, -0.0855, 414, 0, 0.0000, 0.0000, 0.0000, 0.0000
1.5400, 0.0000, 0.0000, 0.0000, 0.0000, 0.0000, 0.0000, 0.1004, 0.0507, -0.0940, 0.0140, 0.0572, -0.0839, 415, 0, 0.0000, 0.0000, 0.0000, 0.0000
1.5600, 0.0000, 0.0000, 0.0000, 0.0000, 0.0000, 0.0000, 0.1007, 0.0511, -0.0940, 0.0160, 0.0562, -0.0833, 416, 0, 0.0000, 0.0000, 0.0000, 0.0000
1.5800, 0.0000, 0.0000, 0.0000, 0.0000, 0.0000, 0.0000, 0.1008, 0.0511, -0.0940, 0.0176, 0.0552, -0.0815, 417, 0, 0.0000, 0.0000, 0.0000, 0.0000
1.6000, 0.0000, 0.0000, 0.0000, 0.0000, 0.0000, 0.0000, 0.1010, 0.0509, -0.0939, 0.0195, 0.0536, -0.0812, 418, 0, 0.0000, 0.0000, 0.0000, 0.0000
1.6200, 0.0000, 0.0000, 0.0000, 0.0000, 0.0000, 0.0000, 0.1011, 0.0507, -0.0936, 0.0214, 0.0528, -0.0807, 419, 0, 0.0000, 0.0000, 0.0000, 0.0000
1.6400, 0.0000, 0.0000, 0.0000, 0.0000, 0.0000, 0.0000, 0.1012, 0.0506, -0.0934, 0.0229, 0.0524, -0.0798, 420, 0, 0.0000, 0.0000, 0.0000, 0.0000
1.6600, 0.0000, 0.0000, 0.0000, 0.0000, 0.0000, 0.0000, 0.1011, 0.0504, -0.0932, 0.0242, 0.0522, -0.0771, 421, 0, 0.0000, 0.0000, 0.0000, 0.0000
1.6800, 0.0000, 0.0000, 0.0000, 0.0000, 0.0000, 0.0000, 0.1011, 0.0501, -0.0930, 0.0257, 0.0515, -0.0759, 422, 0, 0.0000, 0.0000, 0.0000, 0.0000
1.7000, 0.0000, 0.0000, 0.0000, 0.0000, 0.0000, 0.0000, 0.1012, 0.0497, -0.0929, 0.0271, 0.0501, -0.0741, 423, 0, 0.0000, 0.0000, 0.0000, 0.0000
1.7200, 0.0000, 0.0000, 0.0000, 0.0000, 0.0000, 0.0000, 0.1011, 0.0495, -0.0926, 0.0283, 0.0491, -0.0733, 424, 0, 0.0000, 0.0000, 0.0000, 0.0000
1.7400, 0.0000, 0.0000, 0.0000, 0.0000, 0.0000, 0.0000, 0.1012, 0.0490, -0.0924, 0.0296, 0.0489, -0.0723, 425, 0, 0.0000, 0.0000, 0.0000, 0.0000
1.7600, 0.0000, 0.0000, 0.0000, 0.0000, 0.0000, 0.0000, 0.1011, 0.0485, -0.0923, 0.0308, 0.0492, -0.0701, 426, 0, 0.0000, 0.0000, 0.0000, 0.0000
1.7800, 0.0000, 0.0000, 0.0000, 0.0000, 0.0000, 0.0000, 0.1010, 0.0483, -0.0921, 0.0325, 0.0500, -0.0686, 427, 0, 0.0000, 0.0000, 0.0000, 0.0000
1.8000, 0.0000, 0.0000, 0.0000, 0.0000, 0.0000, 0.0000, 0.1006, 0.0478, -0.0919, 0.0332, 0.0495, -0.0674, 428, 0, 0.0000, 0.0000, 0.0000, 0.0000
1.8200, 0.0000, 0.0000, 0.0000, 0.0000, 0.0000, 0.0000, 0.1007, 0.0473, -0.0919, 0.0348, 0.0487, -0.0663, 429, 0, 0.0000, 0.0000, 0.0000, 0.0000
1.8400, 0.0000, 0.0000, 0.0000, 0.0000, 0.0000, 0.0000, 0.1008, 0.0469, -0.0919, 0.0355, 0.0472, -0.0650, 430, 0, 0.0000, 0.0000, 0.0000, 0.0000
1.8600, 0.0000, 0.0000, 0.0000, 0.0000, 0.0000, 0.0000, 0.1006, 0.0467, -0.0920, 0.0369, 0.0465, -0.0639, 431, 0, 0.0000, 0.0000, 0.0000, 0.0000
1.8800, 0.0000, 0.0000, 0.0000, 0.0000, 0.0000, 0.0000, 0.1005, 0.0462, -0.0920, 0.0376, 0.0462, -0.0634, 432, 0, 0.0000, 0.0000, 0.0000, 0.0000
1.9000, 0.0000, 0.0000, 0.0000, 0.0000, 0.0000, 0.0000, 0.1004, 0.0457, -0.0921, 0.0387, 0.0453, -0.0639, 433, 0, 0.0000, 0.0000, 0.0000, 0.0000
1.9200, 0.0000, 0.0000, 0.0000, 0.0000, 0.0000, 0.0000, 0.1003, 0.0453, -0.0924, 0.0393, 0.0440, -0.0633, 434, 0, 0.0000, 0.0000, 0.0000, 0.0000
1.9400, 0.0000, 0.0000, 0.0000, 0.0000, 0.0000, 0.0000, 0.1003, 0.0451, -0.0926, 0.0402, 0.0436, -0.0637, 435, 0, 0.0000, 0.0000, 0.0000, 0.0000
1.9600, 0.0000, 0.0000, 0.0000, 0.0000, 0.0000, 0.0000, 0.1002, 0.0444, -0.0930, 0.0405, 0.0430, -0.0630, 436, 0, 0.0000, 0.0000, 0.0000, 0.0000
1.9800, 0.0000, 0.0000, 0.0000, 0.0000, 0.0000, 0.0000, 0.1003, 0.0442, -0.0933, 0.0417, 0.0414, -0.0631, 437, 0, 0.0000, 0.0000, 0.0000, 0.0000
2.0000, 0.0000, 0.0000, 0.0000, 0.0000, 0.0000, 0.0000, 0.1003, 0.0436, -0.0935, 0.0424, 0.0395, -0.0627, 438, 0, 0.0000, 0.0000, 0.0000, 0.0000
2.0200, 0.0000, 0.0000, 0.0000, 0.0000, 0.0000, 0.0000, 0.1005, 0.0435, -0.0941, 0.0432, 0.0389, -0.0622, 439, 0, 0.0000, 0.0000, 0.0000, 0.0000
2.0400, 0.0000, 0.0000, 0.0000, 0.0000, 0.0000, 0.0000, 0.1006, 0.0428, -0.0946, 0.0436, 0.0381, -0.0628, 440, 0, 0.0000, 0.0000, 0.0000, 0.0000
2.0600, 0.0000, 0.0000, 0.0000, 0.0000, 0.0000, 0.0000, 0.1006, 0.0425, -0.0947, 0.0439, 0.0365, -0.0635, 441, 0, 0.0000, 0.0000, 0.0000, 0.0000
2.0800, 0.0000, 0.0000, 0.0000, 0.0000, 0.0000, 0.0000, 0.1009, 0.0422, -0.0950, 0.0442, 0.0360, -0.0640, 442, 0, 0.0000, 0.0000, 0.0000, 0.0000
2.1000, 0.0000, 0.0000, 0.0000, 0.0000, 0.0000, 0.0000, 0.1010, 0.0419, -0.0953, 0.0445, 0.0362, -0.0639, 443, 0, 0.0000, 0.0000, 0.0000, 0.0000
2.1200, 0.0000, 0.0000, 0.0000, 0.0000, 0.0000, 0.0000, 0.1011, 0.0415, -0.0954, 0.0448, 0.0366, -0.0629, 444, 0, 0.0000, 0.0000, 0.0000, 0.0000
2.1400, 0.0000, 0.0000, 0.0000, 0.0000, 0.0000, 0.0000, 0.1013, 0.0414, -0.0955, 0.0453, 0.0383, -0.0622, 445, 0, 0.0000, 0.0000, 0.0000, 0.0000
2.1600, 0.0000, 0.0000, 0.0000, 0.0000, 0.0000, 0.0000, 0.1015, 0.0412, -0.0956, 0.0458, 0.0403, -0.0600, 446, 0, 0.0000, 0.0000, 0.0000, 0.0000
2.1800, 0.0000, 0.0000, 0.0000, 0.0000, 0.0000, 0.0000, 0.1015, 0.0410, -0.0955, 0.0461, 0.0409, -0.0586, 447, 0, 0.0000, 0.0000, 0.0000, 0.0000
2.2000, 0.0000, 0.0000, 0.0000, 0.0000, 0.0000, 0.0000, 0.1017, 0.0406, -0.0953, 0.0462, 0.0414, -0.0585, 448, 0, 0.0000, 0.0000, 0.0000, 0.0000
2.2200, 0.0000, 0.0000, 0.0000, 0.0000, 0.0000, 0.0000, 0.1019, 0.0404, -0.0950, 0.0464, 0.0412, -0.0590, 449, 0, 0.0000, 0.0000, 0.0000, 0.0000
2.2400, 0.0000, 0.0000, 0.0000, 0.0000, 0.0000, 0.0000, 0.1025, 0.0403, -0.0948, 0.0470, 0.0410, -0.0589, 450, 0, 0.0000, 0.0000, 0.0000, 0.0000
2.2600, 0.0000, 0.0000, 0.0000, 0.0000, 0.0000, 0.0000, 0.1027, 0.0400, -0.0944, 0.0470, 0.0396, -0.0583, 451, 0, 0.0000, 0.0000, 0.0000, 0.0000
2.2800, 0.0000, 0.0000, 0.0000, 0.0000, 0.0000, 0.0000, 0.1030, 0.0399, -0.0941, 0.0474, 0.0414, -0.0584, 452, 0, 0.0000, 0.0000, 0.0000, 0.0000
2.3000, 0.0000, 0.0000, 0.0000, 0.0000, 0.0000, 0.0000, 0.1035, 0.0399, -0.0937, 0.0475, 0.0414, -0.0599, 453, 0, 0.0000, 0.0000, 0.0000, 0.0000
2.3200, 0.0000, 0.0000, 0.0000, 0.0000, 0.0000, 0.0000, 0.1039, 0.0396, -0.0933, 0.0478, 0.0416, -0.0621, 454, 0, 0.0000, 0.0000, 0.0000, 0.0000
2.3400, 0.0000, 0.0000, 0.0000, 0.0000, 0.0000, 0.0000, 0.1045, 0.0395, -0.0931, 0.0480, 0.0422, -0.0638, 455, 0, 0.0000, 0.0000, 0.0000, 0.0000
2.3600, 0.0000, 0.0000, 0.0000, 0.0000, 0.0000, 0.0000, 0.1050, 0.0393, -0.0929, 0.0482, 0.0423, -0.0648, 456, 0, 0.0000, 0.0000, 0.0000, 0.0000
2.3800, 0.0000, 0.0000, 0.0000, 0.0000, 0.0000, 0.0000, 0.1056, 0.0393, -0.0929, 0.0484, 0.0425, -0.0639, 457, 0, 0.0000, 0.0000, 0.0000, 0.0000
2.4000, 0.0000, 0.0000, 0.0000, 0.0000, 0.0000, 0.0000, 0.1062, 0.0392, -0.0928, 0.0488, 0.0430, -0.0641, 458, 0, 0.0000, 0.0000, 0.0000, 0.0000
2.4200, 0.0000, 0.0000, 0.0000, 0.0000, 0.0000, 0.0000, 0.1067, 0.0391, -0.0926, 0.0488, 0.0430, -0.0640, 459, 0, 0.0000, 0.0000, 0.0000, 0.0000
2.4400, 0.0000, 0.0000, 0.0000, 0.0000, 0.0000, 0.0000, 0.1075, 0.0392, -0.0927, 0.0495, 0.0441, -0.0639, 460, 0, 0.0000, 0.0000, 0.0000, 0.0000
2.4600, 0.0000, 0.0000, 0.0000, 0.0000, 0.0000, 0.0000, 0.1079, 0.0393, -0.0927, 0.0492, 0.0436, -0.0635, 461, 0, 0.0000, 0.0000, 0.0000, 0.0000
2.4800, 0.0000, 0.0000, 0.0000, 0.0000, 0.0000, 0.0000, 0.1085, 0.0392, -0.0928, 0.0497, 0.0439, -0.0635, 462, 0, 0.0000, 0.0000, 0.0000, 0.0000
2.5000, 0.0000, 0.0000, 0.0000, 0.0000, 0.0000, 0.0000, 0.1090, 0.0393, -0.0929, 0.0499, 0.0446, -0.0638, 463, 0, 0.0000, 0.0000, 0.0000, 0.0000
2.5200, 0.0000, 0.0000, 0.0000, 0.0000, 0.0000, 0.0000, 0.1095, 0.0393, -0.0928, 0.0503, 0.0462, -0.0647, 464, 0, 0.0000, 0.0000, 0.0000, 0.0000
2.5400, 0.0000, 0.0000, 0.0000, 0.0000, 0.0000, 0.0000, 0.1101, 0.0393, -0.0930, 0.0503, 0.0470, -0.0663, 465, 0, 0.0000, 0.0000, 0.0000, 0.0000
2.5600, 0.0000, 0.0000, 0.0000, 0.0000, 0.0000, 0.0000, 0.1106, 0.0392, -0.0929, 0.0505, 0.0463, -0.0674, 466, 0, 0.0000, 0.0000, 0.0000, 0.0000
2.5800, 0.0000, 0.0000, 0.0000, 0.0000, 0.0000, 0.0000, 0.1111, 0.0394, -0.0931, 0.0507, 0.0466, -0.0675, 467, 0, 0.0000, 0.0000, 0.0000, 0.0000
2.6000, 0.0000, 0.0000, 0.0000, 0.0000, 0.0000, 0.0000, 0.1119, 0.0396, -0.0931, 0.0508, 0.0478, -0.0689, 468, 0, 0.0000, 0.0000, 0.0000, 0.0000
2.6200, 0.0000, 0.0000, 0.0000, 0.0000, 0.0000, 0.0000, 0.1123, 0.0395, -0.0932, 0.0507, 0.0475, -0.0692, 469, 0, 0.0000, 0.0000, 0.0000, 0.0000
2.6400, 0.0000, 0.0000, 0.0000, 0.0000, 0.0000, 0.0000, 0.1131, 0.0396, -0.0932, 0.0510, 0.0481, -0.0688, 470, 0, 0.0000, 0.0000, 0.0000, 0.0000
2.6600, 0.0000, 0.0000, 0.0000, 0.0000, 0.0000, 0.0000, 0.1136, 0.0399, -0.0932, 0.0509, 0.0478, -0.0683, 471, 0, 0.0000, 0.0000, 0.0000, 0.0000
2.6800, 0.0000, 0.0000, 0.0000, 0.0000, 0.0000, 0.0000, 0.1143, 0.0399, -0.0931, 0.0512, 0.0470, -0.0672, 472, 0, 0.0000, 0.0000, 0.0000, 0.0000
2.7000, 0.0000, 0.0000, 0.0000, 0.0000, 0.0000, 0.0000, 0.1151, 0.0400, -0.0930, 0.0511, 0.0455, -0.0671, 473, 0, 0.0000, 0.0000, 0.0000, 0.0000
2.7200, 0.0000, 0.0000, 0.0000, 0.0000, 0.0000, 0.0000, 0.1159, 0.0400, -0.0927, 0.0516, 0.0438, -0.0668, 474, 0, 0.0000, 0.0000, 0.0000, 0.0000
2.7400, 0.0000, 0.0000, 0.0000, 0.0000, 0.0000, 0.0000, 0.1167, 0.0401, -0.0926, 0.0514, 0.0443, -0.0670, 475, 0, 0.0000, 0.0000, 0.0000, 0.0000
2.7600, 0.0000, 0.0000, 0.0000, 0.0000, 0.0000, 0.0000, 0.1173, 0.0402, -0.0922, 0.0514, 0.0441, -0.0665, 476, 0, 0.0000, 0.0000, 0.0000, 0.0000
2.7800, 0.0000, 0.0000, 0.0000, 0.0000, 0.0000, 0.0000, 0.1180, 0.0402, -0.0920, 0.0515, 0.0437, -0.0663, 477, 0, 0.0000, 0.0000, 0.0000, 0.0000
2.8000, 0.0000, 0.0000, 0.0000, 0.0000, 0.0000, 0.0000, 0.1187, 0.0402, -0.0916, 0.0516, 0.0441, -0.0658, 478, 0, 0.0000, 0.0000, 0.0000, 0.0000
2.8200, 0.0000, 0.0000, 0.0000, 0.0000, 0.0000, 0.0000, 0.1194, 0.0403, -0.0913, 0.0516, 0.0443, -0.0653, 479, 0, 0.0000, 0.0000, 0.0000, 0.0000
2.8400, 0.0000, 0.0000, 0.0000, 0.0000, 0.0000, 0.0000, 0.1201, 0.0403, -0.0910, 0.0516, 0.0445, -0.0626, 480, 0, 0.0000, 0.0000, 0.0000, 0.0000
2.8600, 0.0000, 0.0000, 0.0000, 0.0000, 0.0000, 0.0000, 0.1207, 0.0405, -0.0906, 0.0514, 0.0451, -0.0613, 481, 0, 0.0000, 0.0000, 0.0000, 0.0000
2.8800, 0.0000, 0.0000, 0.0000, 0.0000, 0.0000, 0.0000, 0.1214, 0.0406, -0.0902, 0.0518, 0.0451, -0.0594, 482, 0, 0.0000, 0.0000, 0.0000, 0.0000
2.9000, 0.0000, 0.0000, 0.0000, 0.0000, 0.0000, 0.0000, 0.1220, 0.0409, -0.0897, 0.0518, 0.0444, -0.0592, 483, 0, 0.0000, 0.0000, 0.0000, 0.0000
2.9200, 0.0000, 0.0000, 0.0000, 0.0000, 0.0000, 0.0000, 0.1226, 0.0408, -0.0893, 0.0519, 0.0460, -0.0594, 484, 0, 0.0000, 0.0000, 0.0000, 0.0000
2.9400, 0.0000, 0.0000, 0.0000, 0.0000, 0.0000, 0.0000, 0.1232, 0.0410, -0.0889, 0.0518, 0.0469, -0.0600, 485, 0, 0.0000, 0.0000, 0.0000, 0.0000
2.9600, 0.0000, 0.0000, 0.0000, 0.0000, 0.0000, 0.0000, 0.1239, 0.0413, -0.0886, 0.0517, 0.0480, -0.0613, 486, 0, 0.0000, 0.0000, 0.0000, 0.0000
2.9800, 0.0000, 0.0000, 0.0000, 0.0000, 0.0000, 0.0000, 0.1243, 0.0412, -0.0885, 0.0514, 0.0489, -0.0622, 487, 0, 0.0000, 0.0000, 0.0000, 0.0000
3.0000, 0.0000, 0.0000, 0.0000, 0.0000, 0.0000, 0.0000, 0.1248, 0.0415, -0.0884, 0.0513, 0.0491, -0.0623, 488, 0, 0.0000, 0.0000, 0.0000, 0.0000
3.0200, 0.0000, 0.0000, 0.0000, 0.0000, 0.0000, 0.0000, 0.1254, 0.0415, -0.0886, 0.0511, 0.0492, -0.0618, 489, 0, 0.0000, 0.0000, 0.0000, 0.0000
3.0400, 0.0000, 0.0000, 0.0000, 0.0000, 0.0000, 0.0000, 0.1260, 0.0419, -0.0886, 0.0508, 0.0487, -0.0621, 490, 0, 0.0000, 0.0000, 0.0000, 0.0000
3.0600, 0.0000, 0.0000, 0.0000, 0.0000, 0.0000, 0.0000, 0.1264, 0.0420, -0.0887, 0.0506, 0.0483, -0.0618, 491, 0, 0.0000, 0.0000, 0.0000, 0.0000
3.0800, 0.0000, 0.0000, 0.0000, 0.0000, 0.0000, 0.0000, 0.1270, 0.0420, -0.0890, 0.0509, 0.0486, -0.0609, 492, 0, 0.0000, 0.0000, 0.0000, 0.0000
3.1000, 0.0000, 0.0000, 0.0000, 0.0000, 0.0000, 0.0000, 0.1273, 0.0425, -0.0891, 0.0509, 0.0488, -0.0592, 493, 0, 0.0000, 0.0000, 0.0000, 0.0000
3.1200, 0.0000, 0.0000, 0.0000, 0.0000, 0.0000, 0.0000, 0.1279, 0.0428, -0.0895, 0.0512, 0.0491, -0.0579, 494, 0, 0.0000, 0.0000, 0.0000, 0.0000
3.1400, 0.0000, 0.0000, 0.0000, 0.0000, 0.0000, 0.0000, 0.1282, 0.0429, -0.0897, 0.0510, 0.0493, -0.0576, 495, 0, 0.0000, 0.0000, 0.0000, 0.0000
3.1600, 0.0000, 0.0000, 0.0000, 0.0000, 0.0000, 0.0000, 0.1286, 0.0431, -0.0898, 0.0514, 0.0483, -0.0572, 496, 0, 0.0000, 0.0000, 0.0000, 0.0000
3.1800, 0.0000, 0.0000, 0.0000, 0.0000, 0.0000, 0.0000, 0.1289, 0.0433, -0.0900, 0.0514, 0.0468, -0.0568, 497, 0, 0.0000, 0.0000, 0.0000, 0.0000
3.2000, 0.0000, 0.0000, 0.0000, 0.0000, 0.0000, 0.0000, 0.1293, 0.0438, -0.0901, 0.0516, 0.0472, -0.0568, 498, 0, 0.0000, 0.0000, 0.0000, 0.0000
3.2200, 0.0000, 0.0000, 0.0000, 0.0000, 0.0000, 0.0000, 0.1294, 0.0439, -0.0903, 0.0513, 0.0477, -0.0567, 499, 0, 0.0000, 0.0000, 0.0000, 0.0000
3.2400, 0.0000, 0.0000, 0.0000, 0.0000, 0.0000, 0.0000, 0.1297, 0.0444, -0.0904, 0.0516, 0.0492, -0.0569, 500, 0, 0.0000, 0.0000, 0.0000, 0.0000
3.2600, 0.0000, 0.0000, 0.0000, 0.0000, 0.0000, 0.0000, 0.1298, 0.0447, -0.0906, 0.0514, 0.0498, -0.0573, 501, 0, 0.0000, 0.0000, 0.0000, 0.0000
3.2800, 0.0000, 0.0000, 0.0000, 0.0000, 0.0000, 0.0000, 0.1300, 0.0451, -0.0907, 0.0510, 0.0495, -0.0598, 502, 0, 0.0000, 0.0000, 0.0000, 0.0000
3.3000, 0.0000, 0.0000, 0.0000, 0.0000, 0.0000, 0.0000, 0.1302, 0.0454, -0.0907, 0.0509, 0.0490, -0.0610, 503, 0, 0.0000, 0.0000, 0.0000, 0.0000
3.3190, 0.0000, 0.0000, 0.0000, 0.0000, 0.0000, 0.0000, 0.1303, 0.0459, -0.0910, 0.0510, 0.0479, -0.0626, 504, 0, 0.0000, 0.0000, 0.0000, 0.0000
3.3400, 0.0000, 0.0000, 0.0000, 0.0000, 0.0000, 0.0000, 0.1304, 0.0461, -0.0913, 0.0504, 0.0467, -0.0630, 505, 0, 0.0000, 0.0000, 0.0000, 0.0000
3.3600, 0.0000, 0.0000, 0.0000, 0.0000, 0.0000, 0.0000, 0.1308, 0.0466, -0.0917, 0.0506, 0.0457, -0.0637, 506, 0, 0.0000, 0.0000, 0.0000, 0.0000
3.3800, 0.0000, 0.0000, 0.0000, 0.0000, 0.0000, 0.0000, 0.1308, 0.0469, -0.0920, 0.0505, 0.0452, -0.0633, 507, 0, 0.0000, 0.0000, 0.0000, 0.0000
3.4000, 0.0000, 0.0000, 0.0000, 0.0000, 0.0000, 0.0000, 0.1311, 0.0476, -0.0923, 0.0509, 0.0459, -0.0636, 508, 0, 0.0000, 0.0000, 0.0000, 0.0000
3.4200, 0.0000, 0.0000, 0.0000, 0.0000, 0.0000, 0.0000, 0.1311, 0.0478, -0.0926, 0.0506, 0.0453, -0.0643, 509, 0, 0.0000, 0.0000, 0.0000, 0.0000
3.4400, 0.0000, 0.0000, 0.0000, 0.0000, 0.0000, 0.0000, 0.1312, 0.0483, -0.0927, 0.0511, 0.0456, -0.0680, 510, 0, 0.0000, 0.0000, 0.0000, 0.0000
3.4600, 0.0000, 0.0000, 0.0000, 0.0000, 0.0000, 0.0000, 0.1313, 0.0484, -0.0929, 0.0507, 0.0461, -0.0708, 511, 0, 0.0000, 0.0000, 0.0000, 0.0000
3.4800, 0.0000, 0.0000, 0.0000, 0.0000, 0.0000, 0.0000, 0.1314, 0.0490, -0.0930, 0.0513, 0.0468, -0.0723, 512, 0, 0.0000, 0.0000, 0.0000, 0.0000
3.5000, 0.0000, 0.0000, 0.0000, 0.0000, 0.0000, 0.0000, 0.1314, 0.0494, -0.0933, 0.0513, 0.0475, -0.0714, 513, 0, 0.0000, 0.0000, 0.0000, 0.0000
3.5200, 0.0000, 0.0000, 0.0000, 0.0000, 0.0000, 0.0000, 0.1315, 0.0497, -0.0936, 0.0514, 0.0484, -0.0697, 514, 0, 0.0000, 0.0000, 0.0000, 0.0000
3.5400, 0.0000, 0.0000, 0.0000, 0.0000, 0.0000, 0.0000, 0.1315, 0.0502, -0.0940, 0.0514, 0.0497, -0.0680, 515, 0, 0.0000, 0.0000, 0.0000, 0.0000
3.5600, 0.0000, 0.0000, 0.0000, 0.0000, 0.0000, 0.0000, 0.1314, 0.0507, -0.0941, 0.0511, 0.0497, -0.0671, 516, 0, 0.0000, 0.0000, 0.0000, 0.0000
3.5800, 0.0000, 0.0000, 0.0000, 0.0000, 0.0000, 0.0000, 0.1312, 0.0508, -0.0946, 0.0505, 0.0497, -0.0658, 517, 0, 0.0000, 0.0000, 0.0000, 0.0000
3.6000, 0.0000, 0.0000, 0.0000, 0.0000, 0.0000, 0.0000, 0.1312, 0.0512, -0.0950, 0.0511, 0.0506, -0.0651, 518, 0, 0.0000, 0.0000, 0.0000, 0.0000
3.6200, 0.0000, 0.0000, 0.0000, 0.0000, 0.0000, 0.0000, 0.1309, 0.0516, -0.0954, 0.0501, 0.0497, -0.0648, 519, 0, 0.0000, 0.0000, 0.0000, 0.0000
3.6400, 0.0000, 0.0000, 0.0000, 0.0000, 0.0000, 0.0000, 0.1309, 0.0520, -0.0956, 0.0500, 0.0484, -0.0658, 520, 0, 0.0000, 0.0000, 0.0000, 0.0000
3.6600, 0.0000, 0.0000, 0.0000, 0.0000, 0.0000, 0.0000, 0.1307, 0.0520, -0.0959, 0.0492, 0.0476, -0.0669, 521, 0, 0.0000, 0.0000, 0.0000, 0.0000
3.6800, 0.0000, 0.0000, 0.0000, 0.0000, 0.0000, 0.0000, 0.1306, 0.0523, -0.0962, 0.0496, 0.0477, -0.0658, 522, 0, 0.0000, 0.0000, 0.0000, 0.0000
3.7000, 0.0000, 0.0000, 0.0000, 0.0000, 0.0000, 0.0000, 0.1305, 0.0528, -0.0964, 0.0496, 0.0477, -0.0645, 523, 0, 0.0000, 0.0000, 0.0000, 0.0000
3.7200, 0.0000, 0.0000, 0.0000, 0.0000, 0.0000, 0.0000, 0.1304, 0.0531, -0.0965, 0.0494, 0.0471, -0.0645, 524, 0, 0.0000, 0.0000, 0.0000, 0.0000
3.7400, 0.0000, 0.0000, 0.0000, 0.0000, 0.0000, 0.0000, 0.1302, 0.0532, -0.0966, 0.0492, 0.0454, -0.0641, 525, 0, 0.0000, 0.0000, 0.0000, 0.0000
3.7600, 0.0000, 0.0000, 0.0000, 0.0000, 0.0000, 0.0000, 0.1302, 0.0536, -0.0965, 0.0492, 0.0453, -0.0651, 526, 0, 0.0000, 0.0000, 0.0000, 0.0000
3.7800, 0.0000, 0.0000, 0.0000, 0.0000, 0.0000, 0.0000, 0.1299, 0.0540, -0.0964, 0.0486, 0.0443, -0.0640, 527, 0, 0.0000, 0.0000, 0.0000, 0.0000
3.8000, 0.0000, 0.0000, 0.0000, 0.0000, 0.0000, 0.0000, 0.1298, 0.0543, -0.0962, 0.0484, 0.0443, -0.0659, 528, 0, 0.0000, 0.0000, 0.0000, 0.0000
3.8200, 0.0000, 0.0000, 0.0000, 0.0000, 0.0000, 0.0000, 0.1297, 0.0546, -0.0959, 0.0482, 0.0427, -0.0665, 529, 0, 0.0000, 0.0000, 0.0000, 0.0000
3.8400, 0.0000, 0.0000, 0.0000, 0.0000, 0.0000, 0.0000, 0.1298, 0.0552, -0.0957, 0.0483, 0.0430, -0.0661, 530, 0, 0.0000, 0.0000, 0.0000, 0.0000
3.8600, 0.0000, 0.0000, 0.0000, 0.0000, 0.0000, 0.0000, 0.1296, 0.0556, -0.0954, 0.0480, 0.0419, -0.0658, 531, 0, 0.0000, 0.0000, 0.0000, 0.0000
3.8800, 0.0000, 0.0000, 0.0000, 0.0000, 0.0000, 0.0000, 0.1295, 0.0559, -0.0951, 0.0480, 0.0409, -0.0656, 532, 0, 0.0000, 0.0000, 0.0000, 0.0000
3.9000, 0.0000, 0.0000, 0.0000, 0.0000, 0.0000, 0.0000, 0.1296, 0.0563, -0.0950, 0.0480, 0.0410, -0.0656, 533, 0, 0.0000, 0.0000, 0.0000, 0.0000
3.9200, 0.0000, 0.0000, 0.0000, 0.0000, 0.0000, 0.0000, 0.1296, 0.0569, -0.0946, 0.0477, 0.0402, -0.0652, 534, 0, 0.0000, 0.0000, 0.0000, 0.0000
3.9400, 0.0000, 0.0000, 0.0000, 0.0000, 0.0000, 0.0000, 0.1297, 0.0572, -0.0944, 0.0475, 0.0400, -0.0659, 535, 0, 0.0000, 0.0000, 0.0000, 0.0000
3.9600, 0.0000, 0.0000, 0.0000, 0.0000, 0.0000, 0.0000, 0.1297, 0.0575, -0.0941, 0.0472, 0.0401, -0.0670, 536, 0, 0.0000, 0.0000, 0.0000, 0.0000
3.9800, 0.0000, 0.0000, 0.0000, 0.0000, 0.0000, 0.0000, 0.1299, 0.0580, -0.0937, 0.0470, 0.0387, -0.0677, 537, 0, 0.0000, 0.0000, 0.0000, 0.0000
4.0000, 0.0000, 0.0000, 0.0000, 0.0000, 0.0000, 0.0000, 0.1300, 0.0585, -0.0934, 0.0470, 0.0409, -0.0679, 538, 0, 0.0000, 0.0000, 0.0000, 0.0000
4.0200, 0.0000, 0.0000, 0.0000, 0.0000, 0.0000, 0.0000, 0.1300, 0.0589, -0.0931, 0.0468, 0.0428, -0.0681, 539, 0, 0.0000, 0.0000, 0.0000, 0.0000
4.0400, 0.0000, 0.0000, 0.0000, 0.0000, 0.0000, 0.0000, 0.1301, 0.0592, -0.0928, 0.0468, 0.0445, -0.0684, 540, 0, 0.0000, 0.0000, 0.0000, 0.0000
4.0600, 0.0000, 0.0000, 0.0000, 0.0000, 0.0000, 0.0000, 0.1304, 0.0598, -0.0922, 0.0467, 0.0460, -0.0703, 541, 0, 0.0000, 0.0000, 0.0000, 0.0000
4.0800, 0.0000, 0.0000, 0.0000, 0.0000, 0.0000, 0.0000, 0.1307, 0.0601, -0.0918, 0.0469, 0.0457, -0.0717, 542, 0, 0.0000, 0.0000, 0.0000, 0.0000
4.1000, 0.0000, 0.0000, 0.0000, 0.0000, 0.0000, 0.0000, 0.1309, 0.0603, -0.0915, 0.0467, 0.0465, -0.0730, 543, 0, 0.0000, 0.0000, 0.0000, 0.0000
4.1200, 0.0000, 0.0000, 0.0000, 0.0000, 0.0000, 0.0000, 0.1311, 0.0607, -0.0910, 0.0468, 0.0466, -0.0735, 544, 0, 0.0000, 0.0000, 0.0000, 0.0000
4.1400, 0.0000, 0.0000, 0.0000, 0.0000, 0.0000, 0.0000, 0.1314, 0.0611, -0.0906, 0.0466, 0.0470, -0.0725, 545, 0, 0.0000, 0.0000, 0.0000, 0.0000
4.1600, 0.0000, 0.0000, 0.0000, 0.0000, 0.0000, 0.0000, 0.1317, 0.0615, -0.0903, 0.0465, 0.0479, -0.0718, 546, 0, 0.0000, 0.0000, 0.0000, 0.0000
4.1800, 0.0000, 0.0000, 0.0000, 0.0000, 0.0000, 0.0000, 0.1318, 0.0617, -0.0901, 0.0465, 0.0492, -0.0716, 547, 0, 0.0000, 0.0000, 0.0000, 0.0000
4.2000, 0.0000, 0.0000, 0.0000, 0.0000, 0.0000, 0.0000, 0.1321, 0.0620, -0.0900, 0.0468, 0.0496, -0.0698, 548, 0, 0.0000, 0.0000, 0.0000, 0.0000
4.2200, 0.0000, 0.0000, 0.0000, 0.0000, 0.0000, 0.0000, 0.1324, 0.0625, -0.0899, 0.0467, 0.0499, -0.0698, 549, 0, 0.0000, 0.0000, 0.0000, 0.0000
4.2400, 0.0000, 0.0000, 0.0000, 0.0000, 0.0000, 0.0000, 0.1326, 0.0627, -0.0901, 0.0461, 0.0485, -0.0692, 550, 0, 0.0000, 0.0000, 0.0000, 0.0000
4.2600, 0.0000, 0.0000, 0.0000, 0.0000, 0.0000, 0.0000, 0.1329, 0.0631, -0.0902, 0.0464, 0.0476, -0.0687, 551, 0, 0.0000, 0.0000, 0.0000, 0.0000
4.2800, 0.0000, 0.0000, 0.0000, 0.0000, 0.0000, 0.0000, 0.1329, 0.0635, -0.0904, 0.0464, 0.0478, -0.0693, 552, 0, 0.0000, 0.0000, 0.0000, 0.0000
4.3000, 0.0000, 0.0000, 0.0000, 0.0000, 0.0000, 0.0000, 0.1330, 0.0638, -0.0905, 0.0468, 0.0482, -0.0701, 553, 0, 0.0000, 0.0000, 0.0000, 0.0000
4.3200, 0.0000, 0.0000, 0.0000, 0.0000, 0.0000, 0.0000, 0.1331, 0.0638, -0.0907, 0.0466, 0.0487, -0.0711, 554, 0, 0.0000, 0.0000, 0.0000, 0.0000
4.3400, 0.0000, 0.0000, 0.0000, 0.0000, 0.0000, 0.0000, 0.1332, 0.0639, -0.0907, 0.0469, 0.0483, -0.0723, 555, 0, 0.0000, 0.0000, 0.0000, 0.0000
4.3600, 0.0000, 0.0000, 0.0000, 0.0000, 0.0000, 0.0000, 0.1333, 0.0643, -0.0908, 0.0472, 0.0497, -0.0729, 556, 0, 0.0000, 0.0000, 0.0000, 0.0000
4.3800, 0.0000, 0.0000, 0.0000, 0.0000, 0.0000, 0.0000, 0.1333, 0.0644, -0.0909, 0.0471, 0.0496, -0.0729, 557, 0, 0.0000, 0.0000, 0.0000, 0.0000
4.4000, 0.0000, 0.0000, 0.0000, 0.0000, 0.0000, 0.0000, 0.1332, 0.0644, -0.0910, 0.0471, 0.0489, -0.0720, 558, 0, 0.0000, 0.0000, 0.0000, 0.0000
4.4200, 0.0000, 0.0000, 0.0000, 0.0000, 0.0000, 0.0000, 0.1333, 0.0647, -0.0910, 0.0473, 0.0490, -0.0725, 559, 0, 0.0000, 0.0000, 0.0000, 0.0000
4.4400, 0.0000, 0.0000, 0.0000, 0.0000, 0.0000, 0.0000, 0.1333, 0.0648, -0.0911, 0.0469, 0.0473, -0.0721, 560, 0, 0.0000, 0.0000, 0.0000, 0.0000
4.4600, 0.0000, 0.0000, 0.0000, 0.0000, 0.0000, 0.0000, 0.1333, 0.0648, -0.0914, 0.0470, 0.0464, -0.0714, 561, 0, 0.0000, 0.0000, 0.0000, 0.0000
4.4800, 0.0000, 0.0000, 0.0000, 0.0000, 0.0000, 0.0000, 0.1332, 0.0648, -0.0915, 0.0466, 0.0462, -0.0725, 562, 0, 0.0000, 0.0000, 0.0000, 0.0000
4.5000, 0.0000, 0.0000, 0.0000, 0.0000, 0.0000, 0.0000, 0.1332, 0.0650, -0.0916, 0.0470, 0.0454, -0.0725, 563, 0, 0.0000, 0.0000, 0.0000, 0.0000
4.5200, 0.0000, 0.0000, 0.0000, 0.0000, 0.0000, 0.0000, 0.1331, 0.0651, -0.0919, 0.0468, 0.0453, -0.0717, 564, 0, 0.0000, 0.0000, 0.0000, 0.0000
4.5400, 0.0000, 0.0000, 0.0000, 0.0000, 0.0000, 0.0000, 0.1331, 0.0650, -0.0923, 0.0468, 0.0450, -0.0702, 565, 0, 0.0000, 0.0000, 0.0000, 0.0000
4.5600, 0.0000, 0.0000, 0.0000, 0.0000, 0.0000, 0.0000, 0.1330, 0.0649, -0.0923, 0.0466, 0.0455, -0.0692, 566, 0, 0.0000, 0.0000, 0.0000, 0.0000
4.5800, 0.0000, 0.0000, 0.0000, 0.0000, 0.0000, 0.0000, 0.1330, 0.0649, -0.0924, 0.0467, 0.0461, -0.0691, 567, 0, 0.0000, 0.0000, 0.0000, 0.0000
4.6000, 0.0000, 0.0000, 0.0000, 0.0000, 0.0000, 0.0000, 0.1327, 0.0649, -0.0922, 0.0468, 0.0455, -0.0690, 568, 0, 0.0000, 0.0000, 0.0000, 0.0000
4.6200, 0.0000, 0.0000, 0.0000, 0.0000, 0.0000, 0.0000, 0.1328, 0.0647, -0.0924, 0.0469, 0.0457, -0.0692, 569, 0, 0.0000, 0.0000, 0.0000, 0.0000
4.6400, 0.0000, 0.0000, 0.0000, 0.0000, 0.0000, 0.0000, 0.1326, 0.0646, -0.0921, 0.0465, 0.0446, -0.0682, 570, 0, 0.0000, 0.0000, 0.0000, 0.0000
4.6600, 0.0000, 0.0000, 0.0000, 0.0000, 0.0000, 0.0000, 0.1326, 0.0647, -0.0919, 0.0464, 0.0443, -0.0671, 571, 0, 0.0000, 0.0000, 0.0000, 0.0000
4.6790, 0.0000, 0.0000, 0.0000, 0.0000, 0.0000, 0.0000, 0.1324, 0.0646, -0.0917, 0.0461, 0.0440, -0.0659, 572, 0, 0.0000, 0.0000, 0.0000, 0.0000
4.7000, 0.0000, 0.0000, 0.0000, 0.0000, 0.0000, 0.0000, 0.1324, 0.0645, -0.0913, 0.0462, 0.0424, -0.0643, 573, 0, 0.0000, 0.0000, 0.0000, 0.0000
4.7200, 0.0000, 0.0000, 0.0000, 0.0000, 0.0000, 0.0000, 0.1323, 0.0645, -0.0908, 0.0462, 0.0413, -0.0635, 574, 0, 0.0000, 0.0000, 0.0000, 0.0000
4.7400, 0.0000, 0.0000, 0.0000, 0.0000, 0.0000, 0.0000, 0.1322, 0.0644, -0.0903, 0.0462, 0.0405, -0.0623, 575, 0, 0.0000, 0.0000, 0.0000, 0.0000
4.7600, 0.0000, 0.0000, 0.0000, 0.0000, 0.0000, 0.0000, 0.1321, 0.0642, -0.0898, 0.0462, 0.0402, -0.0614, 576, 0, 0.0000, 0.0000, 0.0000, 0.0000
4.7800, 0.0000, 0.0000, 0.0000, 0.0000, 0.0000, 0.0000, 0.1319, 0.0641, -0.0893, 0.0466, 0.0399, -0.0617, 577, 0, 0.0000, 0.0000, 0.0000, 0.0000
4.7990, 0.0000, 0.0000, 0.0000, 0.0000, 0.0000, 0.0000, 0.1318, 0.0640, -0.0885, 0.0468, 0.0401, -0.0628, 578, 0, 0.0000, 0.0000, 0.0000, 0.0000
4.8200, 0.0000, 0.0000, 0.0000, 0.0000, 0.0000, 0.0000, 0.1317, 0.0640, -0.0882, 0.0471, 0.0412, -0.0631, 579, 0, 0.0000, 0.0000, 0.0000, 0.0000
4.8400, 0.0000, 0.0000, 0.0000, 0.0000, 0.0000, 0.0000, 0.1316, 0.0637, -0.0876, 0.0469, 0.0416, -0.0650, 580, 0, 0.0000, 0.0000, 0.0000, 0.0000
4.8600, 0.0000, 0.0000, 0.0000, 0.0000, 0.0000, 0.0000, 0.1316, 0.0637, -0.0874, 0.0473, 0.0417, -0.0649, 581, 0, 0.0000, 0.0000, 0.0000, 0.0000
4.8800, 0.0000, 0.0000, 0.0000, 0.0000, 0.0000, 0.0000, 0.1316, 0.0637, -0.0873, 0.0472, 0.0401, -0.0651, 582, 0, 0.0000, 0.0000, 0.0000, 0.0000
4.9000, 0.0000, 0.0000, 0.0000, 0.0000, 0.0000, 0.0000, 0.1315, 0.0638, -0.0870, 0.0475, 0.0389, -0.0646, 583, 0, 0.0000, 0.0000, 0.0000, 0.0000
4.9200, 0.0000, 0.0000, 0.0000, 0.0000, 0.0000, 0.0000, 0.1317, 0.0638, -0.0871, 0.0474, 0.0392, -0.0652, 584, 0, 0.0000, 0.0000, 0.0000, 0.0000
4.9400, 0.0000, 0.0000, 0.0000, 0.0000, 0.0000, 0.0000, 0.1317, 0.0640, -0.0871, 0.0475, 0.0398, -0.0662, 585, 0, 0.0000, 0.0000, 0.0000, 0.0000
4.9600, 0.0000, 0.0000, 0.0000, 0.0000, 0.0000, 0.0000, 0.1318, 0.0641, -0.0873, 0.0473, 0.0413, -0.0664, 586, 0, 0.0000, 0.0000, 0.0000, 0.0000
4.9800, 0.0000, 0.0000, 0.0000, 0.0000, 0.0000, 0.0000, 0.1317, 0.0642, -0.0876, 0.0475, 0.0422, -0.0651, 587, 0, 0.0000, 0.0000, 0.0000, 0.0000
5.0000, 0.0000, 0.0000, 0.0000, 0.0000, 0.0000, 0.0000, 0.1317, 0.0644, -0.0877, 0.0476, 0.0438, -0.0642, 588, 0, 0.0000, 0.0000, 0.0000, 0.0000
5.0200, 0.0000, 0.0000, 0.0000, 0.0000, 0.0000, 0.0000, 0.1319, 0.0648, -0.0880, 0.0479, 0.0444, -0.0635, 589, 0, 0.0000, 0.0000, 0.0000, 0.0000
5.0400, 0.0000, 0.0000, 0.0000, 0.0000, 0.0000, 0.0000, 0.1319, 0.0649, -0.0881, 0.0477, 0.0448, -0.0644, 590, 0, 0.0000, 0.0000, -0.0067, 0.0000
5.0600, 0.0000, 0.0000, 0.0000, 0.0000, 0.0000, 0.0000, 0.1319, 0.0651, -0.0884, 0.0480, 0.0462, -0.0648, 591, 0, 0.0000, 0.0000, -0.0133, 0.0000
5.0800, 0.0000, 0.0000, 0.0000, 0.0000, 0.0000, 0.0000, 0.1319, 0.0652, -0.0888, 0.0481, 0.0469, -0.0646, 592, 0, 0.0000, 0.0000, -0.0200, 0.0000
5.1000, 0.0000, 0.0000, 0.0000, 0.0000, 0.0000, 0.0000, 0.1319, 0.0656, -0.0890, 0.0483, 0.0467, -0.0645, 593, 0, 0.0000, 0.0000, -0.0267, 0.0000
5.1200, 0.0000, 0.0000, 0.0000, 0.0000, 0.0000, 0.0000, 0.1320, 0.0657, -0.0892, 0.0485, 0.0466, -0.0645, 594, 0, 0.0000, 0.0000, -0.0333, 0.0000
5.1400, 0.0000, 0.0000, 0.0000, 0.0000, 0.0000, 0.0000, 0.1319, 0.0659, -0.0894, 0.0483, 0.0462, -0.0649, 595, 0, 0.0000, 0.0000, -0.0400, 0.0000
5.1600, 0.0000, 0.0000, 0.0000, 0.0000, 0.0000, 0.0000, 0.1319, 0.0664, -0.0894, 0.0483, 0.0461, -0.0652, 596, 0, 0.0000, 0.0000, -0.0467, 0.0000
5.1800, 0.0000, 0.0000, 0.0000, 0.0000, 0.0000, 0.0000, 0.1320, 0.0667, -0.0898, 0.0486, 0.0457, -0.0649, 597, 0, 0.0000, 0.0000, -0.0533, 0.0000
5.2000, 0.0000, 0.0000, 0.0000, 0.0000, 0.0000, 0.0000, 0.1319, 0.0668, -0.0898, 0.0487, 0.0459, -0.0660, 598, 0, 0.0000, 0.0000, -0.0600, 0.0000
5.2200, 0.0000, 0.0000, 0.0000, 0.0000, 0.0000, 0.0000, 0.1319, 0.0672, -0.0898, 0.0492, 0.0457, -0.0667, 599, 0, 0.0000, 0.0000, -0.0667, 0.0000
5.2400, 0.0000, 0.0000, 0.0000, 0.0000, 0.0000, 0.0000, 0.1319, 0.0674, -0.0900, 0.0494, 0.0454, -0.0671, 600, 0, 0.0000, 0.0000, -0.0733, 0.0000
5.2600, 0.0000, 0.0000, 0.0000, 0.0000, 0.0000, 0.0000, 0.1318, 0.0678, -0.0899, 0.0496, 0.0442, -0.0687, 601, 0, 0.0000, 0.0000, -0.0800, 0.0000
5.2800, 0.0000, 0.0000, 0.0000, 0.0000, 0.0000, 0.0000, 0.1318, 0.0678, -0.0900, 0.0496, 0.0435, -0.0696, 602, 0, 0.0000, 0.0000, -0.0867, 0.0000
5.3000, 0.0000, 0.0000, 0.0000, 0.0000, 0.0000, 0.0000, 0.1317, 0.0682, -0.0903, 0.0498, 0.0437, -0.0699, 603, 0, 0.0000, 0.0000, -0.0933, 0.0000
5.3200, 0.0000, 0.0000, 0.0000, 0.0000, 0.0000, 0.0000, 0.1317, 0.0685, -0.0904, 0.0498, 0.0435, -0.0693, 604, 0, 0.0000, 0.0000, -0.1000, 0.0000
5.3400, 0.0000, 0.0000, 0.0000, 0.0000, 0.0000, 0.0000, 0.1317, 0.0689, -0.0908, 0.0500, 0.0445, -0.0684, 605, 0, 0.0000, 0.0000, -0.1067, 0.0000
5.3600, 0.0000, 0.0000, 0.0000, 0.0000, 0.0000, 0.0000, 0.1315, 0.0689, -0.0911, 0.0501, 0.0457, -0.0683, 606, 0, 0.0000, 0.0000, -0.1133, 0.0000
5.3800, 0.0000, 0.0000, 0.0000, 0.0000, 0.0000, 0.0000, 0.1315, 0.0694, -0.0915, 0.0506, 0.0460, -0.0692, 607, 0, 0.0000, 0.0000, -0.1200, 0.0000
5.4000, 0.0000, 0.0000, 0.0000, 0.0000, 0.0000, 0.0000, 0.1315, 0.0696, -0.0921, 0.0502, 0.0454, -0.0700, 608, 0, 0.0000, 0.0000, -0.1267, 0.0000
5.4200, 0.0000, 0.0000, 0.0000, 0.0000, 0.0000, 0.0000, 0.1315, 0.0697, -0.0927, 0.0504, 0.0445, -0.0694, 609, 0, 0.0000, 0.0000, -0.1333, 0.0000
5.4400, 0.0000, 0.0000, 0.0000, 0.0000, 0.0000, 0.0000, 0.1317, 0.0700, -0.0934, 0.0502, 0.0437, -0.0699, 610, 0, 0.0000, 0.0000, -0.1400, 0.0000
5.4590, 0.0000, 0.0000, 0.0000, 0.0000, 0.0000, 0.0000, 0.1317, 0.0704, -0.0940, 0.0499, 0.0422, -0.0705, 611, 0, 0.0000, 0.0000, -0.1467, 0.0000
5.4800, 0.0000, 0.0000, 0.0000, 0.0000, 0.0000, 0.0000, 0.1318, 0.0707, -0.0947, 0.0495, 0.0416, -0.0713, 612, 0, 0.0000, 0.0000, -0.1530, 0.0000
5.5000, 0.0000, 0.0000, 0.0000, 0.0000, 0.0000, 0.0000, 0.1318, 0.0706, -0.0955, 0.0494, 0.0416, -0.0712, 613, 0, 0.0000, 0.0000, -0.1600, 0.0000
5.5200, 0.0000, 0.0000, 0.0000, 0.0000, 0.0000, 0.0000, 0.1320, 0.0709, -0.0962, 0.0492, 0.0410, -0.0710, 614, 0, 0.0000, 0.0000, -0.1667, 0.0000
5.5400, 0.0000, 0.0000, 0.0000, 0.0000, 0.0000, 0.0000, 0.1321, 0.0712, -0.0970, 0.0491, 0.0415, -0.0701, 615, 0, 0.0000, 0.0000, -0.1733, 0.0000
5.5600, 0.0000, 0.0000, 0.0000, 0.0000, 0.0000, 0.0000, 0.1322, 0.0712, -0.0979, 0.0488, 0.0419, -0.0698, 616, 0, 0.0000, 0.0000, -0.1800, 0.0000
5.5800, 0.0000, 0.0000, 0.0000, 0.0000, 0.0000, 0.0000, 0.1322, 0.0712, -0.0986, 0.0487, 0.0424, -0.0695, 617, 0, 0.0000, 0.0000, -0.1867, 0.0000
5.6000, 0.0000, 0.0000, 0.0000, 0.0000, 0.0000, 0.0000, 0.1324, 0.0714, -0.0995, 0.0485, 0.0426, -0.0693, 618, 0, 0.0000, 0.0000, -0.1933, 0.0000
5.6200, 0.0000, 0.0000, 0.0000, 0.0000, 0.0000, 0.0000, 0.1325, 0.0713, -0.1002, 0.0482, 0.0423, -0.0689, 619, 0, 0.0000, 0.0000, -0.2000, 0.0000
5.6400, 0.0000, 0.0000, 0.0000, 0.0000, 0.0000, 0.0000, 0.1328, 0.0716, -0.1012, 0.0482, 0.0427, -0.0690, 620, 0, 0.0000, 0.0000, -0.2067, 0.0000
5.6600, 0.0000, 0.0000, 0.0000, 0.0000, 0.0000, 0.0000, 0.1328, 0.0715, -0.1022, 0.0481, 0.0431, -0.0688, 621, 0, 0.0000, 0.0000, -0.2133, 0.0000
5.6800, 0.0000, 0.0000, 0.0000, 0.0000, 0.0000, 0.0000, 0.1329, 0.0719, -0.1030, 0.0479, 0.0441, -0.0681, 622, 0, 0.0000, 0.0000, -0.2200, 0.0000
5.7000, 0.0000, 0.0000, 0.0000, 0.0000, 0.0000, 0.0000, 0.1330, 0.0720, -0.1040, 0.0480, 0.0453, -0.0675, 623, 0, 0.0000, 0.0000, -0.2267, 0.0000
5.7200, 0.0000, 0.0000, 0.0000, 0.0000, 0.0000, 0.0000, 0.1330, 0.0718, -0.1052, 0.0479, 0.0454, -0.0660, 624, 0, 0.0000, 0.0000, -0.2333, 0.0000
5.7400, 0.0000, 0.0000, 0.0000, 0.0000, 0.0000, 0.0000, 0.1332, 0.0720, -0.1063, 0.0479, 0.0462, -0.0655, 625, 0, 0.0000, 0.0000, -0.2400, 0.0000
5.7600, 0.0000, 0.0000, 0.0000, 0.0000, 0.0000, 0.0000, 0.1334, 0.0722, -0.1077, 0.0486, 0.0472, -0.0644, 626, 0, 0.0000, 0.0000, -0.2467, 0.0000
5.7800, 0.0000, 0.0000, 0.0000, 0.0000, 0.0000, 0.0000, 0.1334, 0.0722, -0.1088, 0.0486, 0.0475, -0.0642, 627, 0, 0.0000, 0.0000, -0.2533, 0.0000
5.8000, 0.0000, 0.0000, 0.0000, 0.0000, 0.0000, 0.0000, 0.1335, 0.0723, -0.1099, 0.0488, 0.0476, -0.0640, 628, 0, 0.0000, 0.0000, -0.2600, 0.0000
5.8200, 0.0000, 0.0000, 0.0000, 0.0000, 0.0000, 0.0000, 0.1335, 0.0725, -0.1112, 0.0488, 0.0476, -0.0644, 629, 0, 0.0000, 0.0000, -0.2667, 0.0000
5.8400, 0.0000, 0.0000, 0.0000, 0.0000, 0.0000, 0.0000, 0.1336, 0.0726, -0.1128, 0.0492, 0.0483, -0.0641, 630, 0, 0.0000, 0.0000, -0.2733, 0.0000
5.8600, 0.0000, 0.0000, 0.0000, 0.0000, 0.0000, 0.0000, 0.1335, 0.0725, -0.1142, 0.0496, 0.0498, -0.0638, 631, 0, 0.0000, 0.0000, -0.2800, 0.0000
5.8800, 0.0000, 0.0000, 0.0000, 0.0000, 0.0000, 0.0000, 0.1336, 0.0726, -0.1157, 0.0502, 0.0505, -0.0644, 632, 0, 0.0000, 0.0000, -0.2867, 0.0000
5.9000, 0.0000, 0.0000, 0.0000, 0.0000, 0.0000, 0.0000, 0.1335, 0.0728, -0.1171, 0.0503, 0.0506, -0.0648, 633, 0, 0.0000, 0.0000, -0.2933, 0.0000
5.9200, 0.0000, 0.0000, 0.0000, 0.0000, 0.0000, 0.0000, 0.1338, 0.0729, -0.1186, 0.0504, 0.0495, -0.0655, 634, 0, 0.0000, 0.0000, -0.3000, 0.0000
5.9400, 0.0000, 0.0000, 0.0000, 0.0000, 0.0000, 0.0000, 0.1336, 0.0730, -0.1199, 0.0503, 0.0487, -0.0659, 635, 0, 0.0000, 0.0000, -0.3067, 0.0000
5.9600, 0.0000, 0.0000, 0.0000, 0.0000, 0.0000, 0.0000, 0.1336, 0.0731, -0.1213, 0.0504, 0.0489, -0.0664, 636, 0, 0.0000, 0.0000, -0.3133, 0.0000
5.9800, 0.0000, 0.0000, 0.0000, 0.0000, 0.0000, 0.0000, 0.1336, 0.0736, -0.1227, 0.0507, 0.0501, -0.0659, 637, 0, 0.0000, 0.0000, -0.3200, 0.0000
6.0000, 0.0000, 0.0000, 0.0000, 0.0000, 0.0000, 0.0000, 0.1336, 0.0737, -0.1240, 0.0506, 0.0501, -0.0651, 638, 0, 0.0000, 0.0000, -0.3267, 0.0000
6.0200, 0.0000, 0.0000, 0.0000, 0.0000, 0.0000, 0.0000, 0.1334, 0.0738, -0.1256, 0.0505, 0.0507, -0.0634, 639, 0, 0.0000, 0.0000, -0.3333, 0.0000
6.0400, 0.0000, 0.0000, 0.0000, 0.0000, 0.0000, 0.0000, 0.1333, 0.0743, -0.1270, 0.0505, 0.0511, -0.0623, 640, 0, 0.0000, 0.0000, -0.3400, 0.0000
6.0600, 0.0000, 0.0000, 0.0000, 0.0000, 0.0000, 0.0000, 0.1331, 0.0746, -0.1286, 0.0504, 0.0510, -0.0617, 641, 0, 0.0000, 0.0000, -0.3467, 0.0000
6.0800, 0.0000, 0.0000, 0.0000, 0.0000, 0.0000, 0.0000, 0.1327, 0.0745, -0.1303, 0.0503, 0.0506, -0.0633, 642, 0, 0.0000, 0.0000, -0.3533, 0.0000
6.1000, 0.0000, 0.0000, 0.0000, 0.0000, 0.0000, 0.0000, 0.1326, 0.0746, -0.1320, 0.0505, 0.0500, -0.0643, 643, 0, 0.0000, 0.0000, -0.3600, 0.0000
6.1200, 0.0000, 0.0000, 0.0000, 0.0000, 0.0000, 0.0000, 0.1322, 0.0753, -0.1337, 0.0502, 0.0496, -0.0649, 644, 0, 0.0000, 0.0000, -0.3667, 0.0000
6.1400, 0.0000, 0.0000, 0.0000, 0.0000, 0.0000, 0.0000, 0.1318, 0.0755, -0.1356, 0.0501, 0.0494, -0.0638, 645, 0, 0.0000, 0.0000, -0.3733, 0.0000
6.1600, 0.0000, 0.0000, 0.0000, 0.0000, 0.0000, 0.0000, 0.1312, 0.0759, -0.1373, 0.0501, 0.0503, -0.0630, 646, 0, 0.0000, 0.0000, -0.3800, 0.0000
6.1800, 0.0000, 0.0000, 0.0000, 0.0000, 0.0000, 0.0000, 0.1307, 0.0762, -0.1392, 0.0497, 0.0516, -0.0632, 647, 0, 0.0000, 0.0000, -0.3867, 0.0000
6.2000, 0.0000, 0.0000, 0.0000, 0.0000, 0.0000, 0.0000, 0.1301, 0.0769, -0.1410, 0.0500, 0.0529, -0.0618, 648, 0, 0.0000, 0.0000, -0.3933, 0.0000
6.2200, 0.0000, 0.0000, 0.0000, 0.0000, 0.0000, 0.0000, 0.1294, 0.0772, -0.1431, 0.0497, 0.0546, -0.0612, 649, 0, 0.0000, 0.0000, -0.4000, 0.0000
6.2400, 0.0000, 0.0000, 0.0000, 0.0000, 0.0000, 0.0000, 0.1286, 0.0776, -0.1448, 0.0497, 0.0553, -0.0611, 650, 0, 0.0000, 0.0000, -0.4067, 0.0000
6.2600, 0.0000, 0.0000, 0.0000, 0.0000, 0.0000, 0.0000, 0.1277, 0.0783, -0.1467, 0.0495, 0.0564, -0.0611, 651, 0, 0.0000, 0.0000, -0.4133, 0.0000
6.2800, 0.0000, 0.0000, 0.0000, 0.0000, 0.0000, 0.0000, 0.1269, 0.0788, -0.1488, 0.0493, 0.0577, -0.0613, 652, 0, 0.0000, 0.0000, -0.4200, 0.0000
6.3000, 0.0000, 0.0000, 0.0000, 0.0000, 0.0000, 0.0000, 0.1258, 0.0794, -0.1506, 0.0491, 0.0585, -0.0620, 653, 0, 0.0000, 0.0000, -0.4267, 0.0000
6.3200, 0.0000, 0.0000, 0.0000, 0.0000, 0.0000, 0.0000, 0.1246, 0.0800, -0.1527, 0.0491, 0.0579, -0.0614, 654, 0, 0.0000, 0.0000, -0.4333, 0.0000
6.3400, 0.0000, 0.0000, 0.0000, 0.0000, 0.0000, 0.0000, 0.1235, 0.0806, -0.1545, 0.0491, 0.0577, -0.0608, 655, 0, 0.0000, 0.0000, -0.4400, 0.0000
6.3600, 0.0000, 0.0000, 0.0000, 0.0000, 0.0000, 0.0000, 0.1222, 0.0813, -0.1565, 0.0491, 0.0569, -0.0599, 656, 0, 0.0000, 0.0000, -0.4467, 0.0000
6.3800, 0.0000, 0.0000, 0.0000, 0.0000, 0.0000, 0.0000, 0.1209, 0.0819, -0.1585, 0.0488, 0.0539, -0.0603, 657, 0, 0.0000, 0.0000, -0.4533, 0.0000
6.4000, 0.0000, 0.0000, 0.0000, 0.0000, 0.0000, 0.0000, 0.1196, 0.0825, -0.1606, 0.0482, 0.0500, -0.0612, 658, 0, 0.0000, 0.0000, -0.4600, 0.0000
6.4200, 0.0000, 0.0000, 0.0000, 0.0000, 0.0000, 0.0000, 0.1181, 0.0833, -0.1625, 0.0481, 0.0464, -0.0619, 659, 0, 0.0000, 0.0000, -0.4667, 0.0000
6.4400, 0.0000, 0.0000, 0.0000, 0.0000, 0.0000, 0.0000, 0.1167, 0.0839, -0.1645, 0.0476, 0.0435, -0.0629, 660, 0, 0.0000, 0.0000, -0.4733, 0.0000
6.4600, 0.0000, 0.0000, 0.0000, 0.0000, 0.0000, 0.0000, 0.1151, 0.0844, -0.1664, 0.0472, 0.0409, -0.0643, 661, 0, 0.0000, 0.0000, -0.4800, 0.0000
6.4800, 0.0000, 0.0000, 0.0000, 0.0000, 0.0000, 0.0000, 0.1135, 0.0852, -0.1682, 0.0471, 0.0411, -0.0656, 662, 0, 0.0000, 0.0000, -0.4867, 0.0000
6.5000, 0.0000, 0.0000, 0.0000, 0.0000, 0.0000, 0.0000, 0.1118, 0.0859, -0.1701, 0.0470, 0.0411, -0.0669, 663, 0, 0.0000, 0.0000, -0.4933, 0.0000
6.5200, 0.0000, 0.0000, 0.0000, 0.0000, 0.0000, 0.0000, 0.1101, 0.0864, -0.1717, 0.0474, 0.0403, -0.0679, 664, 0, 0.0000, 0.0000, -0.5000, 0.0000
6.5400, 0.0000, 0.0000, 0.0000, 0.0000, 0.0000, 0.0000, 0.1083, 0.0870, -0.1734, 0.0479, 0.0398, -0.0685, 665, 0, 0.0000, 0.0000, -0.5067, 0.0000
6.5600, 0.0000, 0.0000, 0.0000, 0.0000, 0.0000, 0.0000, 0.1066, 0.0879, -0.1748, 0.0483, 0.0395, -0.0684, 666, 0, 0.0000, 0.0000, -0.5133, 0.0000
6.5800, 0.0000, 0.0000, 0.0000, 0.0000, 0.0000, 0.0000, 0.1049, 0.0886, -0.1764, 0.0488, 0.0392, -0.0677, 667, 0, 0.0000, 0.0000, -0.5200, 0.0000
6.6000, 0.0000, 0.0000, 0.0000, 0.0000, 0.0000, 0.0000, 0.1032, 0.0891, -0.1780, 0.0493, 0.0389, -0.0666, 668, 0, 0.0000, 0.0000, -0.5267, 0.0000
6.6200, 0.0000, 0.0000, 0.0000, 0.0000, 0.0000, 0.0000, 0.1014, 0.0898, -0.1795, 0.0500, 0.0389, -0.0669, 669, 0, 0.0000, 0.0000, -0.5333, 0.0000
6.6400, 0.0000, 0.0000, 0.0000, 0.0000, 0.0000, 0.0000, 0.0996, 0.0906, -0.1809, 0.0511, 0.0400, -0.0680, 670, 0, 0.0000, 0.0000, -0.5400, 0.0000
6.6600, 0.0000, 0.0000, 0.0000, 0.0000, 0.0000, 0.0000, 0.0977, 0.0911, -0.1825, 0.0518, 0.0406, -0.0690, 671, 0, 0.0000, 0.0000, -0.5467, 0.0000
6.6800, 0.0000, 0.0000, 0.0000, 0.0000, 0.0000, 0.0000, 0.0958, 0.0916, -0.1838, 0.0527, 0.0422, -0.0691, 672, 0, 0.0000, 0.0000, -0.5533, 0.0000
6.7000, 0.0000, 0.0000, 0.0000, 0.0000, 0.0000, 0.0000, 0.0938, 0.0922, -0.1852, 0.0546, 0.0430, -0.0695, 673, 0, 0.0000, 0.0000, -0.5600, 0.0000
6.7200, 0.0000, 0.0000, 0.0000, 0.0000, 0.0000, 0.0000, 0.0917, 0.0928, -0.1867, 0.0553, 0.0430, -0.0699, 674, 0, 0.0000, 0.0000, -0.5667, 0.0000
6.7400, 0.0000, 0.0000, 0.0000, 0.0000, 0.0000, 0.0000, 0.0897, 0.0931, -0.1882, 0.0569, 0.0431, -0.0697, 675, 0, 0.0000, 0.0000, -0.5733, 0.0000
6.7600, 0.0000, 0.0000, 0.0000, 0.0000, 0.0000, 0.0000, 0.0876, 0.0935, -0.1896, 0.0578, 0.0428, -0.0696, 676, 0, 0.0000, 0.0000, -0.5800, 0.0000
6.7800, 0.0000, 0.0000, 0.0000, 0.0000, 0.0000, 0.0000, 0.0856, 0.0943, -0.1912, 0.0586, 0.0415, -0.0701, 677, 0, 0.0000, 0.0000, -0.5867, 0.0000
6.8000, 0.0000, 0.0000, 0.0000, 0.0000, 0.0000, 0.0000, 0.0834, 0.0948, -0.1927, 0.0596, 0.0408, -0.0700, 678, 0, 0.0000, 0.0000, -0.5933, 0.0000
6.8200, 0.0000, 0.0000, 0.0000, 0.0000, 0.0000, 0.0000, 0.0808, 0.0951, -0.1942, 0.0608, 0.0401, -0.0692, 679, 0, 0.0000, 0.0000, -0.6000, 0.0000
6.8400, 0.0000, 0.0000, 0.0000, 0.0000, 0.0000, 0.0000, 0.0785, 0.0957, -0.1957, 0.0603, 0.0370, -0.0712, 680, 0, 0.0000, 0.0000, -0.6067, 0.0000
6.8600, 0.0000, 0.0000, 0.0000, 0.0000, 0.0000, 0.0000, 0.0766, 0.0961, -0.1970, 0.0587, 0.0249, -0.0767, 681, 0, 0.0000, 0.0000, -0.6133, 0.0000
6.8800, 0.0000, 0.0000, 0.0000, 0.0000, 0.0000, 0.0000, 0.0749, 0.0962, -0.1987, 0.0576, 0.0088, -0.0818, 682, 0, 0.0000, 0.0000, -0.6200, 0.0000
6.9000, 0.0000, 0.0000, 0.0000, 0.0000, 0.0000, 0.0000, 0.0729, 0.0964, -0.2008, 0.0569, -0.0017, -0.0854, 683, 0, 0.0000, 0.0000, -0.6267, 0.0000
6.9200, 0.0000, 0.0000, 0.0000, 0.0000, 0.0000, 0.0000, 0.0708, 0.0968, -0.2029, 0.0578, -0.0059, -0.0877, 684, 0, 0.0000, 0.0000, -0.6333, 0.0000
6.9400, 0.0000, 0.0000, 0.0000, 0.0000, 0.0000, 0.0000, 0.0685, 0.0970, -0.2054, 0.0582, -0.0053, -0.0871, 685, 0, 0.0000, 0.0000, -0.6400, 0.0000
6.9600, 0.0000, 0.0000, 0.0000, 0.0000, 0.0000, 0.0000, 0.0663, 0.0971, -0.2081, 0.0590, -0.0035, -0.0860, 686, 0, 0.0000, 0.0000, -0.6467, 0.0000
6.9800, 0.0000, 0.0000, 0.0000, 0.0000, 0.0000, 0.0000, 0.0641, 0.0971, -0.2111, 0.0603, 0.0003, -0.0849, 687, 0, 0.0000, 0.0000, -0.6533, 0.0000
7.0000, 0.0000, 0.0000, 0.0000, 0.0000, 0.0000, 0.0000, 0.0621, 0.0972, -0.2143, 0.0616, 0.0025, -0.0817, 688, 0, 0.0000, 0.0000, -0.6600, 0.0000
7.0200, 0.0000, 0.0000, 0.0000, 0.0000, 0.0000, 0.0000, 0.0603, 0.0973, -0.2174, 0.0617, 0.0039, -0.0804, 689, 0, 0.0000, 0.0000, -0.6667, 0.0000
7.0400, 0.0000, 0.0000, 0.0000, 0.0000, 0.0000, 0.0000, 0.0583, 0.0972, -0.2208, 0.0623, 0.0032, -0.0790, 690, 0, 0.0000, 0.0000, -0.6733, 0.0000
7.0600, 0.0000, 0.0000, 0.0000, 0.0000, 0.0000, 0.0000, 0.0564, 0.0973, -0.2242, 0.0630, 0.0030, -0.0774, 691, 0, 0.0000, 0.0000, -0.6800, 0.0000
7.0800, 0.0000, 0.0000, 0.0000, 0.0000, 0.0000, 0.0000, 0.0546, 0.0974, -0.2278, 0.0631, 0.0038, -0.0755, 692, 0, 0.0000, 0.0000, -0.6867, 0.0000
7.1000, 0.0000, 0.0000, 0.0000, 0.0000, 0.0000, 0.0000, 0.0530, 0.0973, -0.2312, 0.0636, 0.0046, -0.0739, 693, 0, 0.0000, 0.0000, -0.6933, 0.0000
7.1200, 0.0000, 0.0000, 0.0000, 0.0000, 0.0000, 0.0000, 0.0512, 0.0969, -0.2348, 0.0638, 0.0060, -0.0740, 694, 0, 0.0000, 0.0000, -0.7000, 0.0000
7.1400, 0.0000, 0.0000, 0.0000, 0.0000, 0.0000, 0.0000, 0.0496, 0.0969, -0.2386, 0.0644, 0.0066, -0.0722, 695, 0, 0.0000, 0.0000, -0.7067, 0.0000
7.1600, 0.0000, 0.0000, 0.0000, 0.0000, 0.0000, 0.0000, 0.0482, 0.0968, -0.2421, 0.0639, 0.0055, -0.0719, 696, 0, 0.0000, 0.0000, -0.7133, 0.0000
7.1800, 0.0000, 0.0000, 0.0000, 0.0000, 0.0000, 0.0000, 0.0467, 0.0967, -0.2460, 0.0644, 0.0050, -0.0710, 697, 0, 0.0000, 0.0000, -0.7200, 0.0000
7.2000, 0.0000, 0.0000, 0.0000, 0.0000, 0.0000, 0.0000, 0.0453, 0.0963, -0.2498, 0.0646, 0.0043, -0.0708, 698, 0, 0.0000, 0.0000, -0.7267, 0.0000
7.2200, 0.0000, 0.0000, 0.0000, 0.0000, 0.0000, 0.0000, 0.0438, 0.0961, -0.2537, 0.0650, 0.0048, -0.0707, 699, 0, 0.0000, 0.0000, -0.7333, 0.0000
7.2400, 0.0000, 0.0000, 0.0000, 0.0000, 0.0000, 0.0000, 0.0425, 0.0960, -0.2574, 0.0652, 0.0038, -0.0700, 700, 0, 0.0000, 0.0000, -0.7400, 0.0000
7.2600, 0.0000, 0.0000, 0.0000, 0.0000, 0.0000, 0.0000, 0.0413, 0.0956, -0.2614, 0.0651, 0.0033, -0.0688, 701, 0, 0.0000, 0.0000, -0.7467, 0.0000
7.2800, 0.0000, 0.0000, 0.0000, 0.0000, 0.0000, 0.0000, 0.0402, 0.0953, -0.2652, 0.0653, 0.0025, -0.0690, 702, 0, 0.0000, 0.0000, -0.7533, 0.0000
7.3000, 0.0000, 0.0000, 0.0000, 0.0000, 0.0000, 0.0000, 0.0391, 0.0950, -0.2691, 0.0652, -0.0001, -0.0689, 703, 0, 0.0000, 0.0000, -0.7600, 0.0000
7.3200, 0.0000, 0.0000, 0.0000, 0.0000, 0.0000, 0.0000, 0.0381, 0.0946, -0.2733, 0.0656, -0.0027, -0.0690, 704, 0, 0.0000, 0.0000, -0.7667, 0.0000
7.3400, 0.0000, 0.0000, 0.0000, 0.0000, 0.0000, 0.0000, 0.0372, 0.0942, -0.2773, 0.0656, -0.0047, -0.0682, 705, 0, 0.0000, 0.0000, -0.7733, 0.0000
7.3600, 0.0000, 0.0000, 0.0000, 0.0000, 0.0000, 0.0000, 0.0362, 0.0939, -0.2813, 0.0651, -0.0063, -0.0682, 706, 0, 0.0000, 0.0000, -0.7800, 0.0000
7.3800, 0.0000, 0.0000, 0.0000, 0.0000, 0.0000, 0.0000, 0.0355, 0.0936, -0.2853, 0.0653, -0.0059, -0.0672, 707, 0, 0.0000, 0.0000, -0.7867, 0.0000
7.4000, 0.0000, 0.0000, 0.0000, 0.0000, 0.0000, 0.0000, 0.0349, 0.0931, -0.2892, 0.0653, -0.0053, -0.0671, 708, 0, 0.0000, 0.0000, -0.7933, 0.0000
7.4200, 0.0000, 0.0000, 0.0000, 0.0000, 0.0000, 0.0000, 0.0343, 0.0925, -0.2932, 0.0666, -0.0047, -0.0671, 709, 0, 0.0000, 0.0000, -0.8000, 0.0000
7.4400, 0.0000, 0.0000, 0.0000, 0.0000, 0.0000, 0.0000, 0.0335, 0.0921, -0.2967, 0.0663, -0.0030, -0.0684, 710, 0, 0.0000, 0.0000, -0.8067, 0.0000
7.4600, 0.0000, 0.0000, 0.0000, 0.0000, 0.0000, 0.0000, 0.0331, 0.0915, -0.3006, 0.0670, -0.0015, -0.0690, 711, 0, 0.0000, 0.0000, -0.8133, 0.0000
7.4800, 0.0000, 0.0000, 0.0000, 0.0000, 0.0000, 0.0000, 0.0327, 0.0908, -0.3043, 0.0673, -0.0000, -0.0728, 712, 0, 0.0000, 0.0000, -0.8200, 0.0000
7.5000, 0.0000, 0.0000, 0.0000, 0.0000, 0.0000, 0.0000, 0.0324, 0.0903, -0.3077, 0.0673, 0.0011, -0.0760, 713, 0, 0.0000, 0.0000, -0.8267, 0.0000
7.5200, 0.0000, 0.0000, 0.0000, 0.0000, 0.0000, 0.0000, 0.0323, 0.0895, -0.3114, 0.0675, 0.0004, -0.0791, 714, 0, 0.0000, 0.0000, -0.8333, 0.0000
7.5400, 0.0000, 0.0000, 0.0000, 0.0000, 0.0000, 0.0000, 0.0320, 0.0889, -0.3148, 0.0670, -0.0001, -0.0827, 715, 0, 0.0000, 0.0000, -0.8400, 0.0000
7.5600, 0.0000, 0.0000, 0.0000, 0.0000, 0.0000, 0.0000, 0.0321, 0.0880, -0.3183, 0.0670, -0.0018, -0.0849, 716, 0, 0.0000, 0.0000, -0.8467, 0.0000
7.5800, 0.0000, 0.0000, 0.0000, 0.0000, 0.0000, 0.0000, 0.0320, 0.0873, -0.3218, 0.0676, 0.0004, -0.0860, 717, 0, 0.0000, 0.0000, -0.8533, 0.0000
7.6000, 0.0000, 0.0000, 0.0000, 0.0000, 0.0000, 0.0000, 0.0320, 0.0866, -0.3252, 0.0676, 0.0020, -0.0856, 718, 0, 0.0000, 0.0000, -0.8600, 0.0000
7.6200, 0.0000, 0.0000, 0.0000, 0.0000, 0.0000, 0.0000, 0.0321, 0.0856, -0.3289, 0.0680, 0.0043, -0.0841, 719, 0, 0.0000, 0.0000, -0.8667, 0.0000
7.6400, 0.0000, 0.0000, 0.0000, 0.0000, 0.0000, 0.0000, 0.0323, 0.0845, -0.3324, 0.0681, 0.0051, -0.0836, 720, 0, 0.0000, 0.0000, -0.8733, 0.0000
7.6600, 0.0000, 0.0000, 0.0000, 0.0000, 0.0000, 0.0000, 0.0327, 0.0835, -0.3358, 0.0686, 0.0070, -0.0843, 721, 0, 0.0000, 0.0000, -0.8800, 0.0000
7.6800, 0.0000, 0.0000, 0.0000, 0.0000, 0.0000, 0.0000, 0.0330, 0.0822, -0.3393, 0.0687, 0.0092, -0.0853, 722, 0, 0.0000, 0.0000, -0.8867, 0.0000
7.7000, 0.0000, 0.0000, 0.0000, 0.0000, 0.0000, 0.0000, 0.0336, 0.0808, -0.3427, 0.0695, 0.0107, -0.0858, 723, 0, 0.0000, 0.0000, -0.8933, 0.0000
7.7200, 0.0000, 0.0000, 0.0000, 0.0000, 0.0000, 0.0000, 0.0342, 0.0792, -0.3459, 0.0701, 0.0138, -0.0869, 724, 0, 0.0000, 0.0000, -0.9000, 0.0000
7.7400, 0.0000, 0.0000, 0.0000, 0.0000, 0.0000, 0.0000, 0.0349, 0.0779, -0.3489, 0.0711, 0.0173, -0.0861, 725, 0, 0.0000, 0.0000, -0.9067, 0.0000
7.7600, 0.0000, 0.0000, 0.0000, 0.0000, 0.0000, 0.0000, 0.0357, 0.0761, -0.3519, 0.0726, 0.0211, -0.0864, 726, 0, 0.0000, 0.0000, -0.9133, 0.0000
7.7800, 0.0000, 0.0000, 0.0000, 0.0000, 0.0000, 0.0000, 0.0368, 0.0741, -0.3548, 0.0747, 0.0252, -0.0865, 727, 0, 0.0000, 0.0000, -0.9200, 0.0000
7.8000, 0.0000, 0.0000, 0.0000, 0.0000, 0.0000, 0.0000, 0.0377, 0.0721, -0.3570, 0.0765, 0.0302, -0.0877, 728, 0, 0.0000, 0.0000, -0.9267, 0.0000
7.8200, 0.0000, 0.0000, 0.0000, 0.0000, 0.0000, 0.0000, 0.0388, 0.0700, -0.3594, 0.0788, 0.0363, -0.0876, 729, 0, 0.0000, 0.0000, -0.9333, 0.0000
7.8400, 0.0000, 0.0000, 0.0000, 0.0000, 0.0000, 0.0000, 0.0401, 0.0679, -0.3614, 0.0821, 0.0428, -0.0877, 730, 0, 0.0000, 0.0000, -0.9400, 0.0000
7.8590, 0.0000, 0.0000, 0.0000, 0.0000, 0.0000, 0.0000, 0.0412, 0.0652, -0.3633, 0.0849, 0.0491, -0.0878, 731, 0, 0.0000, 0.0000, -0.9467, 0.0000
7.8800, 0.0000, 0.0000, 0.0000, 0.0000, 0.0000, 0.0000, 0.0426, 0.0630, -0.3649, 0.0875, 0.0555, -0.0857, 732, 0, 0.0000, 0.0000, -0.9530, 0.0000
7.9000, 0.0000, 0.0000, 0.0000, 0.0000, 0.0000, 0.0000, 0.0440, 0.0608, -0.3667, 0.0905, 0.0596, -0.0811, 733, 0, 0.0000, 0.0000, -0.9600, 0.0000
7.9200, 0.0000, 0.0000, 0.0000, 0.0000, 0.0000, 0.0000, 0.0449, 0.0582, -0.3684, 0.0934, 0.0651, -0.0751, 734, 0, 0.0000, 0.0000, -0.9667, 0.0000
7.9400, 0.0000, 0.0000, 0.0000, 0.0000, 0.0000, 0.0000, 0.0462, 0.0558, -0.3700, 0.0962, 0.0685, -0.0692, 735, 0, 0.0000, 0.0000, -0.9733, 0.0000
7.9600, 0.0000, 0.0000, 0.0000, 0.0000, 0.0000, 0.0000, 0.0472, 0.0533, -0.3714, 0.0990, 0.0733, -0.0641, 736, 0, 0.0000, 0.0000, -0.9800, 0.0000
7.9800, 0.0000, 0.0000, 0.0000, 0.0000, 0.0000, 0.0000, 0.0481, 0.0507, -0.3727, 0.1018, 0.0775, -0.0604, 737, 0, 0.0000, 0.0000, -0.9867, 0.0000
8.0000, 0.0000, 0.0000, 0.0000, 0.0000, 0.0000, 0.0000, 0.0487, 0.0475, -0.3740, 0.1050, 0.0831, -0.0570, 738, 0, 0.0000, 0.0000, -0.9933, 0.0000
8.0200, 0.0000, 0.0000, 0.0000, 0.0000, 0.0000, 0.0000, 0.0494, 0.0449, -0.3748, 0.1086, 0.0892, -0.0549, 739, 0, 0.0000, 0.0000, -1.0000, 0.0000
8.0400, 0.0000, 0.0000, 0.0000, 0.0000, 0.0000, 0.0000, 0.0501, 0.0423, -0.3757, 0.1116, 0.0920, -0.0516, 740, 0, 0.0000, 0.0000, -1.0000, 0.0000
8.0600, 0.0000, 0.0000, 0.0000, 0.0000, 0.0000, 0.0000, 0.0506, 0.0392, -0.3769, 0.1153, 0.0920, -0.0482, 741, 0, 0.0000, 0.0000, -1.0000, 0.0000
8.0800, 0.0000, 0.0000, 0.0000, 0.0000, 0.0000, 0.0000, 0.0509, 0.0365, -0.3781, 0.1179, 0.0908, -0.0438, 742, 0, 0.0000, 0.0000, -1.0000, 0.0000
8.1000, 0.0000, 0.0000, 0.0000, 0.0000, 0.0000, 0.0000, 0.0512, 0.0338, -0.3794, 0.1209, 0.0901, -0.0378, 743, 0, 0.0000, 0.0000, -1.0000, 0.0000
8.1200, 0.0000, 0.0000, 0.0000, 0.0000, 0.0000, 0.0000, 0.0510, 0.0313, -0.3807, 0.1230, 0.0906, -0.0301, 744, 0, 0.0000, 0.0000, -1.0000, 0.0000
8.1400, 0.0000, 0.0000, 0.0000, 0.0000, 0.0000, 0.0000, 0.0509, 0.0286, -0.3824, 0.1262, 0.0902, -0.0239, 745, 0, 0.0000, 0.0000, -1.0000, 0.0000
8.1600, 0.0000, 0.0000, 0.0000, 0.0000, 0.0000, 0.0000, 0.0503, 0.0260, -0.3836, 0.1292, 0.0896, -0.0224, 746, 0, 0.0000, 0.0000, -1.0000, 0.0000
8.1800, 0.0000, 0.0000, 0.0000, 0.0000, 0.0000, 0.0000, 0.0497, 0.0236, -0.3852, 0.1316, 0.0879, -0.0209, 747, 0, 0.0000, 0.0000, -1.0000, 0.0000
