time (s), accel_x (m/s^2), accel_y (m/s^2), accel_z (m/s^2), gyro_x (rad/s), gyro_y (rad/s), gyro_z (rad/s), x (m), y (m), z (m), yaw (rad), pitch (rad), roll (rad), mocap_counter, counter, desired x, desired y, desired z, desired yaw
0.0000, 0.0000, 0.0000, 0.0000, 0.0000, 0.0000, 0.0000, -0.0035, 0.0008, -0.0833, 0.0254, -0.0051, 0.0067, 672, 0, 0.0000, 0.0000, 0.0000, 0.0000
0.0200, 0.0000, 0.0000, 0.0000, 0.0000, 0.0000, 0.0000, -0.0037, 0.0007, -0.0834, 0.0251, -0.0052, 0.0065, 673, 0, 0.0000, 0.0000, 0.0000, 0.0000
0.0400, 0.0000, 0.0000, 0.0000, 0.0000, 0.0000, 0.0000, -0.0037, 0.0008, -0.0833, 0.0250, -0.0051, 0.0072, 674, 0, 0.0000, 0.0000, 0.0000, 0.0000
0.0600, 0.0000, 0.0000, 0.0000, 0.0000, 0.0000, 0.0000, -0.0036, 0.0009, -0.0832, 0.0252, -0.0051, 0.0067, 675, 0, 0.0000, 0.0000, 0.0000, 0.0000
0.0810, 0.0000, 0.0000, 0.0000, 0.0000, 0.0000, 0.0000, -0.0036, 0.0008, -0.0834, 0.0250, -0.0048, 0.0069, 676, 0, 0.0000, 0.0000, 0.0000, 0.0000
0.1000, 0.0000, 0.0000, 0.0000, 0.0000, 0.0000, 0.0000, -0.0037, 0.0006, -0.0834, 0.0250, -0.0051, 0.0071, 677, 0, 0.0000, 0.0000, 0.0000, 0.0000
0.1210, 0.0000, 0.0000, 0.0000, 0.0000, 0.0000, 0.0000, -0.0037, 0.0007, -0.0832, 0.0251, -0.0048, 0.0069, 678, 0, 0.0000, 0.0000, 0.0000, 0.0000
0.1410, 0.0000, 0.0000, 0.0000, 0.0000, 0.0000, 0.0000, -0.0036, 0.0009, -0.0833, 0.0253, -0.0051, 0.0063, 679, 0, 0.0000, 0.0000, 0.0000, 0.0000
0.1610, 0.0000, 0.0000, 0.0000, 0.0000, 0.0000, 0.0000, -0.0036, 0.0008, -0.0833, 0.0248, -0.0050, 0.0067, 680, 0, 0.0000, 0.0000, 0.0000, 0.0000
0.1810, 0.0000, 0.0000, 0.0000, 0.0000, 0.0000, 0.0000, -0.0037, 0.0007, -0.0833, 0.0251, -0.0050, 0.0066, 681, 0, 0.0000, 0.0000, 0.0000, 0.0000
0.2000, 0.0000, 0.0000, 0.0000, 0.0000, 0.0000, 0.0000, -0.0037, 0.0008, -0.0833, 0.0250, -0.0052, 0.0067, 682, 0, 0.0000, 0.0000, 0.0000, 0.0000
0.2210, 0.0000, 0.0000, 0.0000, 0.0000, 0.0000, 0.0000, -0.0036, 0.0008, -0.0833, 0.0251, -0.0047, 0.0072, 683, 0, 0.0000, 0.0000, 0.0000, 0.0000
0.2410, 0.0000, 0.0000, 0.0000, 0.0000, 0.0000, 0.0000, -0.0036, 0.0008, -0.0834, 0.0250, -0.0049, 0.0065, 684, 0, 0.0000, 0.0000, 0.0000, 0.0000
0.2610, 0.0000, 0.0000, 0.0000, 0.0000, 0.0000, 0.0000, -0.0037, 0.0008, -0.0833, 0.0251, -0.0050, 0.0069, 685, 0, 0.0000, 0.0000, 0.0000, 0.0000
0.2810, 0.0000, 0.0000, 0.0000, 0.0000, 0.0000, 0.0000, -0.0036, 0.0007, -0.0832, 0.0253, -0.0052, 0.0066, 686, 0, 0.0000, 0.0000, 0.0000, 0.0000
0.3000, 0.0000, 0.0000, 0.0000, 0.0000, 0.0000, 0.0000, -0.0036, 0.0008, -0.0833, 0.0251, -0.0050, 0.0066, 687, 0, 0.0000, 0.0000, 0.0000, 0.0000
0.3200, 0.0000, 0.0000, 0.0000, 0.0000, 0.0000, 0.0000, -0.0037, 0.0007, -0.0834, 0.0249, -0.0049, 0.0070, 688, 0, 0.0000, 0.0000, 0.0000, 0.0000
0.3410, 0.0000, 0.0000, 0.0000, 0.0000, 0.0000, 0.0000, -0.0037, 0.0008, -0.0833, 0.0252, -0.0049, 0.0069, 689, 0, 0.0000, 0.0000, 0.0000, 0.0000
0.3610, 0.0000, 0.0000, 0.0000, 0.0000, 0.0000, 0.0000, -0.0036, 0.0008, -0.0832, 0.0253, -0.0048, 0.0066, 690, 0, 0.0000, 0.0000, 0.0000, 0.0000
0.3810, 0.0000, 0.0000, 0.0000, 0.0000, 0.0000, 0.0000, -0.0037, 0.0007, -0.0834, 0.0251, -0.0051, 0.0070, 691, 0, 0.0000, 0.0000, 0.0000, 0.0000
0.4000, 0.0000, 0.0000, 0.0000, 0.0000, 0.0000, 0.0000, -0.0037, 0.0008, -0.0833, 0.0252, -0.0047, 0.0069, 692, 0, 0.0000, 0.0000, 0.0000, 0.0000
0.4210, 0.0000, 0.0000, 0.0000, 0.0000, 0.0000, 0.0000, -0.0037, 0.0009, -0.0832, 0.0251, -0.0049, 0.0067, 693, 0, 0.0000, 0.0000, 0.0000, 0.0000
0.4410, 0.0000, 0.0000, 0.0000, 0.0000, 0.0000, 0.0000, -0.0036, 0.0008, -0.0833, 0.0252, -0.0049, 0.0074, 694, 0, 0.0000, 0.0000, 0.0000, 0.0000
0.4610, 0.0000, 0.0000, 0.0000, 0.0000, 0.0000, 0.0000, -0.0037, 0.0007, -0.0834, 0.0250, -0.0049, 0.0062, 695, 0, 0.0000, 0.0000, 0.0000, 0.0000
0.4810, 0.0000, 0.0000, 0.0000, 0.0000, 0.0000, 0.0000, -0.0036, 0.0007, -0.0833, 0.0251, -0.0047, 0.0070, 696, 0, 0.0000, 0.0000, 0.0000, 0.0000
0.5000, 0.0000, 0.0000, 0.0000, 0.0000, 0.0000, 0.0000, -0.0037, 0.0008, -0.0832, 0.0255, -0.0052, 0.0066, 697, 0, 0.0000, 0.0000, 0.0000, 0.0000
0.5210, 0.0000, 0.0000, 0.0000, 0.0000, 0.0000, 0.0000, -0.0037, 0.0009, -0.0834, 0.0251, -0.0050, 0.0066, 698, 0, 0.0000, 0.0000, 0.0000, 0.0000
0.5410, 0.0000, 0.0000, 0.0000, 0.0000, 0.0000, 0.0000, -0.0037, 0.0007, -0.0833, 0.0250, -0.0048, 0.0068, 699, 0, 0.0000, 0.0000, 0.0000, 0.0000
0.5600, 0.0000, 0.0000, 0.0000, 0.0000, 0.0000, 0.0000, -0.0037, 0.0007, -0.0832, 0.0252, -0.0050, 0.0068, 700, 0, 0.0000, 0.0000, 0.0000, 0.0000
0.5810, 0.0000, 0.0000, 0.0000, 0.0000, 0.0000, 0.0000, -0.0036, 0.0008, -0.0834, 0.0251, -0.0046, 0.0070, 701, 0, 0.0000, 0.0000, 0.0000, 0.0000
0.6010, 0.0000, 0.0000, 0.0000, 0.0000, 0.0000, 0.0000, -0.0037, 0.0008, -0.0833, 0.0250, -0.0051, 0.0070, 702, 0, 0.0000, 0.0000, 0.0000, 0.0000
0.6210, 0.0000, 0.0000, 0.0000, 0.0000, 0.0000, 0.0000, -0.0036, 0.0007, -0.0833, 0.0253, -0.0049, 0.0069, 703, 0, 0.0000, 0.0000, 0.0000, 0.0000
0.6410, 0.0000, 0.0000, 0.0000, 0.0000, 0.0000, 0.0000, -0.0037, 0.0008, -0.0833, 0.0254, -0.0049, 0.0063, 704, 0, 0.0000, 0.0000, 0.0000, 0.0000
0.6610, 0.0000, 0.0000, 0.0000, 0.0000, 0.0000, 0.0000, -0.0036, 0.0008, -0.0833, 0.0251, -0.0049, 0.0071, 705, 0, 0.0000, 0.0000, 0.0000, 0.0000
0.6810, 0.0000, 0.0000, 0.0000, 0.0000, 0.0000, 0.0000, -0.0036, 0.0008, -0.0834, 0.0251, -0.0049, 0.0065, 706, 0, 0.0000, 0.0000, 0.0000, 0.0000
0.7000, 0.0000, 0.0000, 0.0000, 0.0000, 0.0000, 0.0000, -0.0037, 0.0008, -0.0833, 0.0251, -0.0048, 0.0068, 707, 0, 0.0000, 0.0000, 0.0000, 0.0000
0.7210, 0.0000, 0.0000, 0.0000, 0.0000, 0.0000, 0.0000, -0.0036, 0.0007, -0.0833, 0.0255, -0.0050, 0.0073, 708, 0, 0.0000, 0.0000, 0.0000, 0.0000
0.7410, 0.0000, 0.0000, 0.0000, 0.0000, 0.0000, 0.0000, -0.0037, 0.0008, -0.0834, 0.0251, -0.0050, 0.0068, 709, 0, 0.0000, 0.0000, 0.0000, 0.0000
0.7610, 0.0000, 0.0000, 0.0000, 0.0000, 0.0000, 0.0000, -0.0036, 0.0008, -0.0833, 0.0249, -0.0049, 0.0071, 710, 0, 0.0000, 0.0000, 0.0000, 0.0000
0.7810, 0.0000, 0.0000, 0.0000, 0.0000, 0.0000, 0.0000, -0.0037, 0.0008, -0.0832, 0.0251, -0.0050, 0.0069, 711, 0, 0.0000, 0.0000, 0.0000, 0.0000
0.8000, 0.0000, 0.0000, 0.0000, 0.0000, 0.0000, 0.0000, -0.0037, 0.0009, -0.0833, 0.0250, -0.0048, 0.0068, 712, 0, 0.0000, 0.0000, 0.0000, 0.0000
0.8210, 0.0000, 0.0000, 0.0000, 0.0000, 0.0000, 0.0000, -0.0037, 0.0008, -0.0833, 0.0249, -0.0050, 0.0072, 713, 0, 0.0000, 0.0000, 0.0000, 0.0000
0.8410, 0.0000, 0.0000, 0.0000, 0.0000, 0.0000, 0.0000, -0.0036, 0.0008, -0.0832, 0.0250, -0.0050, 0.0069, 714, 0, 0.0000, 0.0000, 0.0000, 0.0000
0.8610, 0.0000, 0.0000, 0.0000, 0.0000, 0.0000, 0.0000, -0.0036, 0.0008, -0.0833, 0.0253, -0.0050, 0.0068, 715, 0, 0.0000, 0.0000, 0.0000, 0.0000
0.8810, 0.0000, 0.0000, 0.0000, 0.0000, 0.0000, 0.0000, -0.0036, 0.0008, -0.0833, 0.0254, -0.0049, 0.0074, 716, 0, 0.0000, 0.0000, 0.0000, 0.0000
0.9000, 0.0000, 0.0000, 0.0000, 0.0000, 0.0000, 0.0000, -0.0036, 0.0007, -0.0835, 0.0255, -0.0054, 0.0066, 717, 0, 0.0000, 0.0000, 0.0000, 0.0000
0.9210, 0.0000, 0.0000, 0.0000, 0.0000, 0.0000, 0.0000, -0.0037, 0.0008, -0.0840, 0.0255, -0.0060, 0.0074, 718, 0, 0.0000, 0.0000, 0.0000, 0.0000
0.9410, 0.0000, 0.0000, 0.0000, 0.0000, 0.0000, 0.0000, -0.0035, 0.0010, -0.0850, 0.0257, -0.0081, 0.0069, 719, 0, 0.0000, 0.0000, 0.0000, 0.0000
0.9610, 0.0000, 0.0000, 0.0000, 0.0000, 0.0000, 0.0000, -0.0035, 0.0012, -0.0863, 0.0255, -0.0115, 0.0059, 720, 0, 0.0000, 0.0000, 0.0000, 0.0000
0.9810, 0.0000, 0.0000, 0.0000, 0.0000, 0.0000, 0.0000, -0.0030, 0.0013, -0.0869, 0.0246, -0.0151, 0.0059, 721, 0, 0.0000, 0.0000, 0.0000, 0.0000
1.0000, 0.0000, 0.0000, 0.0000, 0.0000, 0.0000, 0.0000, -0.0026, 0.0014, -0.0879, 0.0253, -0.0194, 0.0068, 722, 0, 0.0000, 0.0000, 0.0000, 0.0000
1.0210, 0.0000, 0.0000, 0.0000, 0.0000, 0.0000, 0.0000, -0.0019, 0.0019, -0.0894, 0.0251, -0.0215, 0.0095, 723, 0, 0.0000, 0.0000, 0.0000, 0.0000
1.0410, 0.0000, 0.0000, 0.0000, 0.0000, 0.0000, 0.0000, -0.0015, 0.0024, -0.0920, 0.0248, -0.0228, 0.0140, 724, 0, 0.0000, 0.0000, 0.0000, 0.0000
1.0610, 0.0000, 0.0000, 0.0000, 0.0000, 0.0000, 0.0000, -0.0006, 0.0028, -0.0950, 0.0250, -0.0252, 0.0163, 725, 0, 0.0000, 0.0000, 0.0000, 0.0000
1.0810, 0.0000, 0.0000, 0.0000, 0.0000, 0.0000, 0.0000, 0.0003, 0.0034, -0.0989, 0.0246, -0.0269, 0.0189, 726, 0, 0.0000, 0.0000, 0.0000, 0.0000
1.1000, 0.0000, 0.0000, 0.0000, 0.0000, 0.0000, 0.0000, 0.0013, 0.0039, -0.1032, 0.0248, -0.0287, 0.0204, 727, 0, 0.0000, 0.0000, 0.0000, 0.0000
1.1210, 0.0000, 0.0000, 0.0000, 0.0000, 0.0000, 0.0000, 0.0025, 0.0046, -0.1081, 0.0247, -0.0291, 0.0225, 728, 0, 0.0000, 0.0000, 0.0000, 0.0000
1.1410, 0.0000, 0.0000, 0.0000, 0.0000, 0.0000, 0.0000, 0.0040, 0.0052, -0.1136, 0.0248, -0.0297, 0.0232, 729, 0, 0.0000, 0.0000, 0.0000, 0.0000
1.1610, 0.0000, 0.0000, 0.0000, 0.0000, 0.0000, 0.0000, 0.0052, 0.0063, -0.1195, 0.0249, -0.0310, 0.0228, 730, 0, 0.0000, 0.0000, 0.0000, 0.0000
1.1810, 0.0000, 0.0000, 0.0000, 0.0000, 0.0000, 0.0000, 0.0070, 0.0074, -0.1257, 0.0248, -0.0316, 0.0234, 731, 0, 0.0000, 0.0000, 0.0000, 0.0000
1.2000, 0.0000, 0.0000, 0.0000, 0.0000, 0.0000, 0.0000, 0.0088, 0.0081, -0.1324, 0.0245, -0.0321, 0.0238, 732, 0, 0.0000, 0.0000, 0.0000, 0.0000
1.2210, 0.0000, 0.0000, 0.0000, 0.0000, 0.0000, 0.0000, 0.0104, 0.0096, -0.1394, 0.0245, -0.0323, 0.0254, 733, 0, 0.0000, 0.0000, 0.0000, 0.0000
1.2410, 0.0000, 0.0000, 0.0000, 0.0000, 0.0000, 0.0000, 0.0125, 0.0111, -0.1467, 0.0248, -0.0317, 0.0261, 734, 0, 0.0000, 0.0000, 0.0000, 0.0000
1.2610, 0.0000, 0.0000, 0.0000, 0.0000, 0.0000, 0.0000, 0.0144, 0.0125, -0.1546, 0.0246, -0.0315, 0.0252, 735, 0, 0.0000, 0.0000, 0.0000, 0.0000
1.2810, 0.0000, 0.0000, 0.0000, 0.0000, 0.0000, 0.0000, 0.0166, 0.0139, -0.1625, 0.0249, -0.0314, 0.0243, 736, 0, 0.0000, 0.0000, 0.0000, 0.0000
1.3000, 0.0000, 0.0000, 0.0000, 0.0000, 0.0000, 0.0000, 0.0190, 0.0157, -0.1702, 0.0243, -0.0308, 0.0236, 737, 0, 0.0000, 0.0000, 0.0000, 0.0000
1.3210, 0.0000, 0.0000, 0.0000, 0.0000, 0.0000, 0.0000, 0.0214, 0.0173, -0.1775, 0.0240, -0.0285, 0.0209, 738, 0, 0.0000, 0.0000, 0.0000, 0.0000
1.3410, 0.0000, 0.0000, 0.0000, 0.0000, 0.0000, 0.0000, 0.0236, 0.0190, -0.1846, 0.0237, -0.0234, 0.0171, 739, 0, 0.0000, 0.0000, 0.0000, 0.0000
1.3610, 0.0000, 0.0000, 0.0000, 0.0000, 0.0000, 0.0000, 0.0260, 0.0209, -0.1912, 0.0234, -0.0176, 0.0151, 740, 0, 0.0000, 0.0000, 0.0000, 0.0000
1.3810, 0.0000, 0.0000, 0.0000, 0.0000, 0.0000, 0.0000, 0.0287, 0.0229, -0.1971, 0.0230, -0.0132, 0.0134, 741, 0, 0.0000, 0.0000, 0.0000, 0.0000
1.4000, 0.0000, 0.0000, 0.0000, 0.0000, 0.0000, 0.0000, 0.0311, 0.0249, -0.2030, 0.0221, -0.0095, 0.0129, 742, 0, 0.0000, 0.0000, 0.0000, 0.0000
1.4200, 0.0000, 0.0000, 0.0000, 0.0000, 0.0000, 0.0000, 0.0338, 0.0270, -0.2079, 0.0213, -0.0058, 0.0121, 743, 0, 0.0000, 0.0000, 0.0000, 0.0000
1.4410, 0.0000, 0.0000, 0.0000, 0.0000, 0.0000, 0.0000, 0.0364, 0.0290, -0.2122, 0.0209, -0.0025, 0.0083, 744, 0, 0.0000, 0.0000, 0.0000, 0.0000
1.4610, 0.0000, 0.0000, 0.0000, 0.0000, 0.0000, 0.0000, 0.0392, 0.0313, -0.2163, 0.0202, 0.0004, 0.0062, 745, 0, 0.0000, 0.0000, 0.0000, 0.0000
1.4810, 0.0000, 0.0000, 0.0000, 0.0000, 0.0000, 0.0000, 0.0418, 0.0332, -0.2201, 0.0195, 0.0035, 0.0038, 746, 0, 0.0000, 0.0000, 0.0000, 0.0000
1.5000, 0.0000, 0.0000, 0.0000, 0.0000, 0.0000, 0.0000, 0.0446, 0.0355, -0.2232, 0.0189, 0.0072, 0.0006, 747, 0, 0.0000, 0.0000, 0.0000, 0.0000
1.5210, 0.0000, 0.0000, 0.0000, 0.0000, 0.0000, 0.0000, 0.0473, 0.0380, -0.2261, 0.0186, 0.0105, -0.0019, 748, 0, 0.0000, 0.0000, 0.0000, 0.0000
1.5410, 0.0000, 0.0000, 0.0000, 0.0000, 0.0000, 0.0000, 0.0500, 0.0401, -0.2286, 0.0183, 0.0138, -0.0044, 749, 0, 0.0000, 0.0000, 0.0000, 0.0000
1.5600, 0.0000, 0.0000, 0.0000, 0.0000, 0.0000, 0.0000, 0.0527, 0.0423, -0.2309, 0.0182, 0.0159, -0.0067, 750, 0, 0.0000, 0.0000, 0.0000, 0.0000
1.5810, 0.0000, 0.0000, 0.0000, 0.0000, 0.0000, 0.0000, 0.0553, 0.0445, -0.2331, 0.0175, 0.0175, -0.0094, 751, 0, 0.0000, 0.0000, 0.0000, 0.0000
1.6000, 0.0000, 0.0000, 0.0000, 0.0000, 0.0000, 0.0000, 0.0578, 0.0469, -0.2347, 0.0172, 0.0198, -0.0116, 752, 0, 0.0000, 0.0000, 0.0000, 0.0000
1.6210, 0.0000, 0.0000, 0.0000, 0.0000, 0.0000, 0.0000, 0.0604, 0.0489, -0.2365, 0.0168, 0.0218, -0.0151, 753, 0, 0.0000, 0.0000, 0.0000, 0.0000
1.6410, 0.0000, 0.0000, 0.0000, 0.0000, 0.0000, 0.0000, 0.0626, 0.0510, -0.2380, 0.0167, 0.0241, -0.0168, 754, 0, 0.0000, 0.0000, 0.0000, 0.0000
1.6610, 0.0000, 0.0000, 0.0000, 0.0000, 0.0000, 0.0000, 0.0649, 0.0530, -0.2391, 0.0164, 0.0261, -0.0192, 755, 0, 0.0000, 0.0000, 0.0000, 0.0000
1.6810, 0.0000, 0.0000, 0.0000, 0.0000, 0.0000, 0.0000, 0.0670, 0.0552, -0.2404, 0.0156, 0.0279, -0.0203, 756, 0, 0.0000, 0.0000, 0.0000, 0.0000
1.7000, 0.0000, 0.0000, 0.0000, 0.0000, 0.0000, 0.0000, 0.0692, 0.0570, -0.2414, 0.0156, 0.0289, -0.0227, 757, 0, 0.0000, 0.0000, 0.0000, 0.0000
1.7210, 0.0000, 0.0000, 0.0000, 0.0000, 0.0000, 0.0000, 0.0713, 0.0589, -0.2426, 0.0149, 0.0297, -0.0241, 758, 0, 0.0000, 0.0000, 0.0000, 0.0000
1.7410, 0.0000, 0.0000, 0.0000, 0.0000, 0.0000, 0.0000, 0.0733, 0.0608, -0.2435, 0.0144, 0.0299, -0.0265, 759, 0, 0.0000, 0.0000, 0.0000, 0.0000
1.7610, 0.0000, 0.0000, 0.0000, 0.0000, 0.0000, 0.0000, 0.0750, 0.0626, -0.2446, 0.0142, 0.0305, -0.0270, 760, 0, 0.0000, 0.0000, 0.0000, 0.0000
1.7810, 0.0000, 0.0000, 0.0000, 0.0000, 0.0000, 0.0000, 0.0768, 0.0639, -0.2459, 0.0138, 0.0309, -0.0289, 761, 0, 0.0000, 0.0000, 0.0000, 0.0000
1.8000, 0.0000, 0.0000, 0.0000, 0.0000, 0.0000, 0.0000, 0.0782, 0.0653, -0.2469, 0.0137, 0.0315, -0.0292, 762, 0, 0.0000, 0.0000, 0.0000, 0.0000
1.8210, 0.0000, 0.0000, 0.0000, 0.0000, 0.0000, 0.0000, 0.0798, 0.0668, -0.2481, 0.0135, 0.0318, -0.0303, 763, 0, 0.0000, 0.0000, 0.0000, 0.0000
1.8410, 0.0000, 0.0000, 0.0000, 0.0000, 0.0000, 0.0000, 0.0811, 0.0679, -0.2494, 0.0133, 0.0320, -0.0306, 764, 0, 0.0000, 0.0000, 0.0000, 0.0000
1.8610, 0.0000, 0.0000, 0.0000, 0.0000, 0.0000, 0.0000, 0.0824, 0.0689, -0.2509, 0.0128, 0.0318, -0.0329, 765, 0, 0.0000, 0.0000, 0.0000, 0.0000
1.8810, 0.0000, 0.0000, 0.0000, 0.0000, 0.0000, 0.0000, 0.0835, 0.0698, -0.2524, 0.0127, 0.0315, -0.0330, 766, 0, 0.0000, 0.0000, 0.0000, 0.0000
1.9000, 0.0000, 0.0000, 0.0000, 0.0000, 0.0000, 0.0000, 0.0846, 0.0708, -0.2538, 0.0120, 0.0317, -0.0330, 767, 0, 0.0000, 0.0000, 0.0000, 0.0000
1.9210, 0.0000, 0.0000, 0.0000, 0.0000, 0.0000, 0.0000, 0.0854, 0.0713, -0.2556, 0.0117, 0.0311, -0.0335, 768, 0, 0.0000, 0.0000, 0.0000, 0.0000
1.9410, 0.0000, 0.0000, 0.0000, 0.0000, 0.0000, 0.0000, 0.0863, 0.0719, -0.2574, 0.0115, 0.0313, -0.0333, 769, 0, 0.0000, 0.0000, 0.0000, 0.0000
1.9610, 0.0000, 0.0000, 0.0000, 0.0000, 0.0000, 0.0000, 0.0871, 0.0724, -0.2591, 0.0112, 0.0310, -0.0319, 770, 0, 0.0000, 0.0000, 0.0000, 0.0000
1.9810, 0.0000, 0.0000, 0.0000, 0.0000, 0.0000, 0.0000, 0.0876, 0.0727, -0.2610, 0.0108, 0.0296, -0.0318, 771, 0, 0.0000, 0.0000, 0.0000, 0.0000
2.0000, 0.0000, 0.0000, 0.0000, 0.0000, 0.0000, 0.0000, 0.0881, 0.0728, -0.2631, 0.0102, 0.0284, -0.0312, 772, 0, 0.0000, 0.0000, 0.0000, 0.0000
2.0210, 0.0000, 0.0000, 0.0000, 0.0000, 0.0000, 0.0000, 0.0885, 0.0728, -0.2651, 0.0098, 0.0261, -0.0300, 773, 0, 0.0000, 0.0000, 0.0000, 0.0000
2.0410, 0.0000, 0.0000, 0.0000, 0.0000, 0.0000, 0.0000, 0.0890, 0.0729, -0.2671, 0.0095, 0.0238, -0.0296, 774, 0, 0.0000, 0.0000, 0.0000, 0.0000
2.0610, 0.0000, 0.0000, 0.0000, 0.0000, 0.0000, 0.0000, 0.0893, 0.0727, -0.2692, 0.0091, 0.0225, -0.0280, 775, 0, 0.0000, 0.0000, 0.0000, 0.0000
2.0810, 0.0000, 0.0000, 0.0000, 0.0000, 0.0000, 0.0000, 0.0894, 0.0724, -0.2714, 0.0087, 0.0215, -0.0267, 776, 0, 0.0000, 0.0000, 0.0000, 0.0000
2.1000, 0.0000, 0.0000, 0.0000, 0.0000, 0.0000, 0.0000, 0.0895, 0.0722, -0.2735, 0.0085, 0.0200, -0.0250, 777, 0, 0.0000, 0.0000, 0.0000, 0.0000
2.1210, 0.0000, 0.0000, 0.0000, 0.0000, 0.0000, 0.0000, 0.0896, 0.0718, -0.2754, 0.0079, 0.0196, -0.0230, 778, 0, 0.0000, 0.0000, 0.0000, 0.0000
2.1410, 0.0000, 0.0000, 0.0000, 0.0000, 0.0000, 0.0000, 0.0895, 0.0711, -0.2776, 0.0075, 0.0188, -0.0202, 779, 0, 0.0000, 0.0000, 0.0000, 0.0000
2.1610, 0.0000, 0.0000, 0.0000, 0.0000, 0.0000, 0.0000, 0.0894, 0.0703, -0.2797, 0.0075, 0.0170, -0.0183, 780, 0, 0.0000, 0.0000, 0.0000, 0.0000
2.1810, 0.0000, 0.0000, 0.0000, 0.0000, 0.0000, 0.0000, 0.0893, 0.0698, -0.2817, 0.0072, 0.0160, -0.0164, 781, 0, 0.0000, 0.0000, 0.0000, 0.0000
2.2000, 0.0000, 0.0000, 0.0000, 0.0000, 0.0000, 0.0000, 0.0891, 0.0690, -0.2839, 0.0069, 0.0145, -0.0150, 782, 0, 0.0000, 0.0000, 0.0000, 0.0000
2.2210, 0.0000, 0.0000, 0.0000, 0.0000, 0.0000, 0.0000, 0.0889, 0.0681, -0.2858, 0.0067, 0.0121, -0.0131, 783, 0, 0.0000, 0.0000, 0.0000, 0.0000
2.2410, 0.0000, 0.0000, 0.0000, 0.0000, 0.0000, 0.0000, 0.0888, 0.0672, -0.2878, 0.0064, 0.0097, -0.0106, 784, 0, 0.0000, 0.0000, 0.0000, 0.0000
2.2610, 0.0000, 0.0000, 0.0000, 0.0000, 0.0000, 0.0000, 0.0886, 0.0666, -0.2895, 0.0062, 0.0078, -0.0081, 785, 0, 0.0000, 0.0000, 0.0000, 0.0000
2.2810, 0.0000, 0.0000, 0.0000, 0.0000, 0.0000, 0.0000, 0.0884, 0.0655, -0.2911, 0.0062, 0.0065, -0.0068, 786, 0, 0.0000, 0.0000, 0.0000, 0.0000
2.3000, 0.0000, 0.0000, 0.0000, 0.0000, 0.0000, 0.0000, 0.0881, 0.0645, -0.2928, 0.0055, 0.0053, -0.0052, 787, 0, 0.0000, 0.0000, 0.0000, 0.0000
2.3210, 0.0000, 0.0000, 0.0000, 0.0000, 0.0000, 0.0000, 0.0879, 0.0636, -0.2941, 0.0056, 0.0048, -0.0037, 788, 0, 0.0000, 0.0000, 0.0000, 0.0000
2.3410, 0.0000, 0.0000, 0.0000, 0.0000, 0.0000, 0.0000, 0.0878, 0.0628, -0.2955, 0.0054, 0.0037, -0.0015, 789, 0, 0.0000, 0.0000, 0.0000, 0.0000
2.3610, 0.0000, 0.0000, 0.0000, 0.0000, 0.0000, 0.0000, 0.0875, 0.0616, -0.2969, 0.0051, 0.0023, -0.0003, 790, 0, 0.0000, 0.0000, 0.0000, 0.0000
2.3810, 0.0000, 0.0000, 0.0000, 0.0000, 0.0000, 0.0000, 0.0873, 0.0606, -0.2980, 0.0051, 0.0013, 0.0009, 791, 0, 0.0000, 0.0000, 0.0000, 0.0000
2.4000, 0.0000, 0.0000, 0.0000, 0.0000, 0.0000, 0.0000, 0.0871, 0.0596, -0.2992, 0.0054, 0.0004, 0.0018, 792, 0, 0.0000, 0.0000, 0.0000, 0.0000
2.4210, 0.0000, 0.0000, 0.0000, 0.0000, 0.0000, 0.0000, 0.0868, 0.0586, -0.3002, 0.0050, 0.0002, 0.0030, 793, 0, 0.0000, 0.0000, 0.0000, 0.0000
2.4410, 0.0000, 0.0000, 0.0000, 0.0000, 0.0000, 0.0000, 0.0867, 0.0574, -0.3013, 0.0053, -0.0001, 0.0047, 794, 0, 0.0000, 0.0000, 0.0000, 0.0000
2.4610, 0.0000, 0.0000, 0.0000, 0.0000, 0.0000, 0.0000, 0.0867, 0.0566, -0.3020, 0.0054, -0.0010, 0.0063, 795, 0, 0.0000, 0.0000, 0.0000, 0.0000
2.4810, 0.0000, 0.0000, 0.0000, 0.0000, 0.0000, 0.0000, 0.0865, 0.0556, -0.3029, 0.0055, -0.0019, 0.0079, 796, 0, 0.0000, 0.0000, 0.0000, 0.0000
2.5000, 0.0000, 0.0000, 0.0000, 0.0000, 0.0000, 0.0000, 0.0864, 0.0546, -0.3038, 0.0057, -0.0030, 0.0082, 797, 0, 0.0000, 0.0000, 0.0000, 0.0000
2.5210, 0.0000, 0.0000, 0.0000, 0.0000, 0.0000, 0.0000, 0.0862, 0.0535, -0.3048, 0.0056, -0.0033, 0.0099, 798, 0, 0.0000, 0.0000, 0.0000, 0.0000
2.5410, 0.0000, 0.0000, 0.0000, 0.0000, 0.0000, 0.0000, 0.0862, 0.0527, -0.3056, 0.0057, -0.0039, 0.0104, 799, 0, 0.0000, 0.0000, 0.0000, 0.0000
2.5610, 0.0000, 0.0000, 0.0000, 0.0000, 0.0000, 0.0000, 0.0862, 0.0520, -0.3063, 0.0056, -0.0041, 0.0121, 800, 0, 0.0000, 0.0000, 0.0000, 0.0000
2.5810, 0.0000, 0.0000, 0.0000, 0.0000, 0.0000, 0.0000, 0.0862, 0.0511, -0.3071, 0.0060, -0.0052, 0.0119, 801, 0, 0.0000, 0.0000, 0.0000, 0.0000
2.6000, 0.0000, 0.0000, 0.0000, 0.0000, 0.0000, 0.0000, 0.0862, 0.0503, -0.3078, 0.0061, -0.0059, 0.0132, 802, 0, 0.0000, 0.0000, 0.0000, 0.0000
2.6210, 0.0000, 0.0000, 0.0000, 0.0000, 0.0000, 0.0000, 0.0863, 0.0495, -0.3085, 0.0063, -0.0060, 0.0144, 803, 0, 0.0000, 0.0000, 0.0000, 0.0000
2.6410, 0.0000, 0.0000, 0.0000, 0.0000, 0.0000, 0.0000, 0.0863, 0.0489, -0.3092, 0.0063, -0.0061, 0.0147, 804, 0, 0.0000, 0.0000, 0.0000, 0.0000
2.6610, 0.0000, 0.0000, 0.0000, 0.0000, 0.0000, 0.0000, 0.0865, 0.0482, -0.3099, 0.0065, -0.0060, 0.0146, 805, 0, 0.0000, 0.0000, 0.0000, 0.0000
2.6800, 0.0000, 0.0000, 0.0000, 0.0000, 0.0000, 0.0000, 0.0868, 0.0475, -0.3106, 0.0067, -0.0057, 0.0156, 806, 0, 0.0000, 0.0000, 0.0000, 0.0000
2.7010, 0.0000, 0.0000, 0.0000, 0.0000, 0.0000, 0.0000, 0.0871, 0.0470, -0.3110, 0.0068, -0.0053, 0.0150, 807, 0, 0.0000, 0.0000, 0.0000, 0.0000
2.7210, 0.0000, 0.0000, 0.0000, 0.0000, 0.0000, 0.0000, 0.0873, 0.0464, -0.3119, 0.0071, -0.0054, 0.0158, 808, 0, 0.0000, 0.0000, 0.0000, 0.0000
2.7410, 0.0000, 0.0000, 0.0000, 0.0000, 0.0000, 0.0000, 0.0876, 0.0459, -0.3125, 0.0067, -0.0054, 0.0145, 809, 0, 0.0000, 0.0000, 0.0000, 0.0000
2.7610, 0.0000, 0.0000, 0.0000, 0.0000, 0.0000, 0.0000, 0.0878, 0.0455, -0.3133, 0.0072, -0.0051, 0.0148, 810, 0, 0.0000, 0.0000, 0.0000, 0.0000
2.7800, 0.0000, 0.0000, 0.0000, 0.0000, 0.0000, 0.0000, 0.0884, 0.0453, -0.3140, 0.0073, -0.0046, 0.0148, 811, 0, 0.0000, 0.0000, 0.0000, 0.0000
2.8000, 0.0000, 0.0000, 0.0000, 0.0000, 0.0000, 0.0000, 0.0888, 0.0448, -0.3148, 0.0075, -0.0036, 0.0147, 812, 0, 0.0000, 0.0000, 0.0000, 0.0000
2.8210, 0.0000, 0.0000, 0.0000, 0.0000, 0.0000, 0.0000, 0.0893, 0.0446, -0.3156, 0.0078, -0.0031, 0.0144, 813, 0, 0.0000, 0.0000, 0.0000, 0.0000
2.8410, 0.0000, 0.0000, 0.0000, 0.0000, 0.0000, 0.0000, 0.0896, 0.0445, -0.3163, 0.0077, -0.0024, 0.0154, 814, 0, 0.0000, 0.0000, 0.0000, 0.0000
2.8610, 0.0000, 0.0000, 0.0000, 0.0000, 0.0000, 0.0000, 0.0902, 0.0443, -0.3171, 0.0076, -0.0028, 0.0147, 815, 0, 0.0000, 0.0000, 0.0000, 0.0000
2.8810, 0.0000, 0.0000, 0.0000, 0.0000, 0.0000, 0.0000, 0.0907, 0.0441, -0.3180, 0.0078, -0.0028, 0.0143, 816, 0, 0.0000, 0.0000, 0.0000, 0.0000
2.9010, 0.0000, 0.0000, 0.0000, 0.0000, 0.0000, 0.0000, 0.0913, 0.0438, -0.3187, 0.0079, -0.0023, 0.0143, 817, 0, 0.0000, 0.0000, 0.0000, 0.0000
2.9210, 0.0000, 0.0000, 0.0000, 0.0000, 0.0000, 0.0000, 0.0918, 0.0439, -0.3194, 0.0079, -0.0020, 0.0147, 818, 0, 0.0000, 0.0000, 0.0000, 0.0000
2.9410, 0.0000, 0.0000, 0.0000, 0.0000, 0.0000, 0.0000, 0.0924, 0.0438, -0.3200, 0.0081, -0.0017, 0.0145, 819, 0, 0.0000, 0.0000, 0.0000, 0.0000
2.9610, 0.0000, 0.0000, 0.0000, 0.0000, 0.0000, 0.0000, 0.0929, 0.0438, -0.3206, 0.0082, -0.0011, 0.0136, 820, 0, 0.0000, 0.0000, 0.0000, 0.0000
2.9810, 0.0000, 0.0000, 0.0000, 0.0000, 0.0000, 0.0000, 0.0936, 0.0438, -0.3210, 0.0083, -0.0006, 0.0127, 821, 0, 0.0000, 0.0000, 0.0000, 0.0000
3.0010, 0.0000, 0.0000, 0.0000, 0.0000, 0.0000, 0.0000, 0.0943, 0.0439, -0.3214, 0.0084, 0.0000, 0.0118, 822, 0, 0.0000, 0.0000, 0.0000, 0.0000
3.0210, 0.0000, 0.0000, 0.0000, 0.0000, 0.0000, 0.0000, 0.0949, 0.0440, -0.3218, 0.0085, 0.0008, 0.0105, 823, 0, 0.0000, 0.0000, 0.0000, 0.0000
3.0410, 0.0000, 0.0000, 0.0000, 0.0000, 0.0000, 0.0000, 0.0955, 0.0441, -0.3220, 0.0086, 0.0015, 0.0100, 824, 0, 0.0000, 0.0000, 0.0000, 0.0000
3.0600, 0.0000, 0.0000, 0.0000, 0.0000, 0.0000, 0.0000, 0.0962, 0.0443, -0.3222, 0.0086, 0.0022, 0.0094, 825, 0, 0.0000, 0.0000, 0.0000, 0.0000
3.0810, 0.0000, 0.0000, 0.0000, 0.0000, 0.0000, 0.0000, 0.0970, 0.0445, -0.3225, 0.0086, 0.0027, 0.0094, 826, 0, 0.0000, 0.0000, 0.0000, 0.0000
3.1000, 0.0000, 0.0000, 0.0000, 0.0000, 0.0000, 0.0000, 0.0977, 0.0446, -0.3227, 0.0091, 0.0033, 0.0091, 827, 0, 0.0000, 0.0000, 0.0000, 0.0000
3.1210, 0.0000, 0.0000, 0.0000, 0.0000, 0.0000, 0.0000, 0.0984, 0.0447, -0.3230, 0.0093, 0.0036, 0.0081, 828, 0, 0.0000, 0.0000, 0.0000, 0.0000
3.1410, 0.0000, 0.0000, 0.0000, 0.0000, 0.0000, 0.0000, 0.0992, 0.0451, -0.3231, 0.0096, 0.0038, 0.0079, 829, 0, 0.0000, 0.0000, 0.0000, 0.0000
3.1610, 0.0000, 0.0000, 0.0000, 0.0000, 0.0000, 0.0000, 0.1000, 0.0453, -0.3233, 0.0096, 0.0037, 0.0073, 830, 0, 0.0000, 0.0000, 0.0000, 0.0000
3.1810, 0.0000, 0.0000, 0.0000, 0.0000, 0.0000, 0.0000, 0.1009, 0.0455, -0.3234, 0.0097, 0.0037, 0.0069, 831, 0, 0.0000, 0.0000, 0.0000, 0.0000
3.2000, 0.0000, 0.0000, 0.0000, 0.0000, 0.0000, 0.0000, 0.1017, 0.0458, -0.3237, 0.0102, 0.0037, 0.0067, 832, 0, 0.0000, 0.0000, 0.0000, 0.0000
3.2210, 0.0000, 0.0000, 0.0000, 0.0000, 0.0000, 0.0000, 0.1023, 0.0462, -0.3237, 0.0101, 0.0038, 0.0067, 833, 0, 0.0000, 0.0000, 0.0000, 0.0000
3.2410, 0.0000, 0.0000, 0.0000, 0.0000, 0.0000, 0.0000, 0.1032, 0.0464, -0.3238, 0.0101, 0.0045, 0.0058, 834, 0, 0.0000, 0.0000, 0.0000, 0.0000
3.2610, 0.0000, 0.0000, 0.0000, 0.0000, 0.0000, 0.0000, 0.1038, 0.0465, -0.3239, 0.0104, 0.0053, 0.0047, 835, 0, 0.0000, 0.0000, 0.0000, 0.0000
3.2810, 0.0000, 0.0000, 0.0000, 0.0000, 0.0000, 0.0000, 0.1047, 0.0469, -0.3237, 0.0106, 0.0061, 0.0040, 836, 0, 0.0000, 0.0000, 0.0000, 0.0000
3.3010, 0.0000, 0.0000, 0.0000, 0.0000, 0.0000, 0.0000, 0.1053, 0.0473, -0.3238, 0.0109, 0.0069, 0.0043, 837, 0, 0.0000, 0.0000, 0.0000, 0.0000
3.3210, 0.0000, 0.0000, 0.0000, 0.0000, 0.0000, 0.0000, 0.1061, 0.0476, -0.3237, 0.0110, 0.0080, 0.0040, 838, 0, 0.0000, 0.0000, 0.0000, 0.0000
3.3410, 0.0000, 0.0000, 0.0000, 0.0000, 0.0000, 0.0000, 0.1068, 0.0477, -0.3235, 0.0111, 0.0094, 0.0042, 839, 0, 0.0000, 0.0000, 0.0000, 0.0000
3.3610, 0.0000, 0.0000, 0.0000, 0.0000, 0.0000, 0.0000, 0.1075, 0.0481, -0.3231, 0.0114, 0.0124, 0.0019, 840, 0, 0.0000, 0.0000, 0.0000, 0.0000
3.3810, 0.0000, 0.0000, 0.0000, 0.0000, 0.0000, 0.0000, 0.1079, 0.0484, -0.3231, 0.0114, 0.0150, 0.0008, 841, 0, 0.0000, 0.0000, 0.0000, 0.0000
3.4000, 0.0000, 0.0000, 0.0000, 0.0000, 0.0000, 0.0000, 0.1087, 0.0484, -0.3228, 0.0113, 0.0151, -0.0000, 842, 0, 0.0000, 0.0000, 0.0000, 0.0000
3.4210, 0.0000, 0.0000, 0.0000, 0.0000, 0.0000, 0.0000, 0.1093, 0.0488, -0.3225, 0.0117, 0.0153, 0.0010, 843, 0, 0.0000, 0.0000, 0.0000, 0.0000
3.4410, 0.0000, 0.0000, 0.0000, 0.0000, 0.0000, 0.0000, 0.1099, 0.0491, -0.3224, 0.0118, 0.0154, 0.0019, 844, 0, 0.0000, 0.0000, 0.0000, 0.0000
3.4610, 0.0000, 0.0000, 0.0000, 0.0000, 0.0000, 0.0000, 0.1103, 0.0493, -0.3221, 0.0116, 0.0153, 0.0025, 845, 0, 0.0000, 0.0000, 0.0000, 0.0000
3.4810, 0.0000, 0.0000, 0.0000, 0.0000, 0.0000, 0.0000, 0.1109, 0.0494, -0.3219, 0.0120, 0.0146, 0.0021, 846, 0, 0.0000, 0.0000, 0.0000, 0.0000
3.5010, 0.0000, 0.0000, 0.0000, 0.0000, 0.0000, 0.0000, 0.1113, 0.0499, -0.3217, 0.0116, 0.0148, 0.0027, 847, 0, 0.0000, 0.0000, 0.0000, 0.0000
3.5210, 0.0000, 0.0000, 0.0000, 0.0000, 0.0000, 0.0000, 0.1117, 0.0501, -0.3214, 0.0118, 0.0154, 0.0028, 848, 0, 0.0000, 0.0000, 0.0000, 0.0000
3.5410, 0.0000, 0.0000, 0.0000, 0.0000, 0.0000, 0.0000, 0.1121, 0.0503, -0.3214, 0.0117, 0.0157, 0.0035, 849, 0, 0.0000, 0.0000, 0.0000, 0.0000
3.5610, 0.0000, 0.0000, 0.0000, 0.0000, 0.0000, 0.0000, 0.1125, 0.0505, -0.3210, 0.0117, 0.0155, 0.0041, 850, 0, 0.0000, 0.0000, 0.0000, 0.0000
3.5810, 0.0000, 0.0000, 0.0000, 0.0000, 0.0000, 0.0000, 0.1127, 0.0509, -0.3210, 0.0116, 0.0159, 0.0052, 851, 0, 0.0000, 0.0000, 0.0000, 0.0000
3.6010, 0.0000, 0.0000, 0.0000, 0.0000, 0.0000, 0.0000, 0.1129, 0.0510, -0.3210, 0.0118, 0.0169, 0.0050, 852, 0, 0.0000, 0.0000, 0.0000, 0.0000
3.6210, 0.0000, 0.0000, 0.0000, 0.0000, 0.0000, 0.0000, 0.1128, 0.0512, -0.3213, 0.0119, 0.0189, 0.0061, 853, 0, 0.0000, 0.0000, 0.0000, 0.0000
3.6410, 0.0000, 0.0000, 0.0000, 0.0000, 0.0000, 0.0000, 0.1130, 0.0514, -0.3215, 0.0123, 0.0198, 0.0059, 854, 0, 0.0000, 0.0000, 0.0000, 0.0000
3.6610, 0.0000, 0.0000, 0.0000, 0.0000, 0.0000, 0.0000, 0.1130, 0.0518, -0.3219, 0.0123, 0.0193, 0.0057, 855, 0, 0.0000, 0.0000, 0.0000, 0.0000
3.6810, 0.0000, 0.0000, 0.0000, 0.0000, 0.0000, 0.0000, 0.1132, 0.0519, -0.3225, 0.0123, 0.0186, 0.0048, 856, 0, 0.0000, 0.0000, 0.0000, 0.0000
3.7010, 0.0000, 0.0000, 0.0000, 0.0000, 0.0000, 0.0000, 0.1131, 0.0521, -0.3232, 0.0124, 0.0180, 0.0051, 857, 0, 0.0000, 0.0000, 0.0000, 0.0000
3.7210, 0.0000, 0.0000, 0.0000, 0.0000, 0.0000, 0.0000, 0.1131, 0.0523, -0.3239, 0.0127, 0.0171, 0.0050, 858, 0, 0.0000, 0.0000, 0.0000, 0.0000
3.7410, 0.0000, 0.0000, 0.0000, 0.0000, 0.0000, 0.0000, 0.1129, 0.0525, -0.3247, 0.0133, 0.0170, 0.0051, 859, 0, 0.0000, 0.0000, 0.0000, 0.0000
3.7610, 0.0000, 0.0000, 0.0000, 0.0000, 0.0000, 0.0000, 0.1128, 0.0526, -0.3256, 0.0137, 0.0167, 0.0047, 860, 0, 0.0000, 0.0000, 0.0000, 0.0000
3.7800, 0.0000, 0.0000, 0.0000, 0.0000, 0.0000, 0.0000, 0.1126, 0.0529, -0.3264, 0.0135, 0.0172, 0.0051, 861, 0, 0.0000, 0.0000, 0.0000, 0.0000
3.8000, 0.0000, 0.0000, 0.0000, 0.0000, 0.0000, 0.0000, 0.1123, 0.0533, -0.3271, 0.0137, 0.0177, 0.0059, 862, 0, 0.0000, 0.0000, 0.0000, 0.0000
3.8210, 0.0000, 0.0000, 0.0000, 0.0000, 0.0000, 0.0000, 0.1121, 0.0536, -0.3279, 0.0136, 0.0175, 0.0071, 863, 0, 0.0000, 0.0000, 0.0000, 0.0000
3.8410, 0.0000, 0.0000, 0.0000, 0.0000, 0.0000, 0.0000, 0.1117, 0.0537, -0.3286, 0.0138, 0.0170, 0.0077, 864, 0, 0.0000, 0.0000, 0.0000, 0.0000
3.8610, 0.0000, 0.0000, 0.0000, 0.0000, 0.0000, 0.0000, 0.1115, 0.0541, -0.3290, 0.0140, 0.0163, 0.0076, 865, 0, 0.0000, 0.0000, 0.0000, 0.0000
3.8800, 0.0000, 0.0000, 0.0000, 0.0000, 0.0000, 0.0000, 0.1112, 0.0545, -0.3294, 0.0144, 0.0156, 0.0075, 866, 0, 0.0000, 0.0000, 0.0000, 0.0000
3.9000, 0.0000, 0.0000, 0.0000, 0.0000, 0.0000, 0.0000, 0.1109, 0.0547, -0.3297, 0.0145, 0.0140, 0.0069, 867, 0, 0.0000, 0.0000, 0.0000, 0.0000
3.9210, 0.0000, 0.0000, 0.0000, 0.0000, 0.0000, 0.0000, 0.1105, 0.0549, -0.3300, 0.0149, 0.0130, 0.0070, 868, 0, 0.0000, 0.0000, 0.0000, 0.0000
3.9400, 0.0000, 0.0000, 0.0000, 0.0000, 0.0000, 0.0000, 0.1103, 0.0553, -0.3300, 0.0150, 0.0119, 0.0070, 869, 0, 0.0000, 0.0000, 0.0000, 0.0000
3.9610, 0.0000, 0.0000, 0.0000, 0.0000, 0.0000, 0.0000, 0.1098, 0.0557, -0.3303, 0.0151, 0.0107, 0.0071, 870, 0, 0.0000, 0.0000, 0.0000, 0.0000
3.9810, 0.0000, 0.0000, 0.0000, 0.0000, 0.0000, 0.0000, 0.1093, 0.0560, -0.3304, 0.0154, 0.0101, 0.0061, 871, 0, 0.0000, 0.0000, 0.0000, 0.0000
4.0000, 0.0000, 0.0000, 0.0000, 0.0000, 0.0000, 0.0000, 0.1088, 0.0563, -0.3306, 0.0152, 0.0096, 0.0066, 872, 0, 0.0000, 0.0000, 0.0000, 0.0000
4.0210, 0.0000, 0.0000, 0.0000, 0.0000, 0.0000, 0.0000, 0.1085, 0.0566, -0.3306, 0.0155, 0.0087, 0.0069, 873, 0, 0.0000, 0.0000, 0.0000, 0.0000
4.0410, 0.0000, 0.0000, 0.0000, 0.0000, 0.0000, 0.0000, 0.1079, 0.0572, -0.3307, 0.0158, 0.0074, 0.0072, 874, 0, 0.0000, 0.0000, 0.0000, 0.0000
4.0610, 0.0000, 0.0000, 0.0000, 0.0000, 0.0000, 0.0000, 0.1074, 0.0575, -0.3308, 0.0159, 0.0061, 0.0074, 875, 0, 0.0000, 0.0000, 0.0000, 0.0000
4.0810, 0.0000, 0.0000, 0.0000, 0.0000, 0.0000, 0.0000, 0.1069, 0.0579, -0.3309, 0.0161, 0.0040, 0.0077, 876, 0, 0.0000, 0.0000, 0.0000, 0.0000
4.1000, 0.0000, 0.0000, 0.0000, 0.0000, 0.0000, 0.0000, 0.1067, 0.0584, -0.3309, 0.0161, 0.0026, 0.0076, 877, 0, 0.0000, 0.0000, 0.0000, 0.0000
4.1210, 0.0000, 0.0000, 0.0000, 0.0000, 0.0000, 0.0000, 0.1062, 0.0586, -0.3311, 0.0165, 0.0014, 0.0081, 878, 0, 0.0000, 0.0000, 0.0000, 0.0000
4.1410, 0.0000, 0.0000, 0.0000, 0.0000, 0.0000, 0.0000, 0.1058, 0.0591, -0.3312, 0.0168, 0.0005, 0.0080, 879, 0, 0.0000, 0.0000, 0.0000, 0.0000
4.1610, 0.0000, 0.0000, 0.0000, 0.0000, 0.0000, 0.0000, 0.1054, 0.0597, -0.3315, 0.0170, 0.0005, 0.0085, 880, 0, 0.0000, 0.0000, 0.0000, 0.0000
4.1810, 0.0000, 0.0000, 0.0000, 0.0000, 0.0000, 0.0000, 0.1051, 0.0600, -0.3317, 0.0172, 0.0008, 0.0083, 881, 0, 0.0000, 0.0000, 0.0000, 0.0000
4.2000, 0.0000, 0.0000, 0.0000, 0.0000, 0.0000, 0.0000, 0.1049, 0.0604, -0.3320, 0.0174, 0.0015, 0.0082, 882, 0, 0.0000, 0.0000, 0.0000, 0.0000
4.2210, 0.0000, 0.0000, 0.0000, 0.0000, 0.0000, 0.0000, 0.1044, 0.0607, -0.3324, 0.0178, 0.0021, 0.0089, 883, 0, 0.0000, 0.0000, 0.0000, 0.0000
4.2410, 0.0000, 0.0000, 0.0000, 0.0000, 0.0000, 0.0000, 0.1042, 0.0613, -0.3327, 0.0177, 0.0015, 0.0086, 884, 0, 0.0000, 0.0000, 0.0000, 0.0000
4.2610, 0.0000, 0.0000, 0.0000, 0.0000, 0.0000, 0.0000, 0.1039, 0.0617, -0.3332, 0.0181, 0.0007, 0.0079, 885, 0, 0.0000, 0.0000, 0.0000, 0.0000
4.2810, 0.0000, 0.0000, 0.0000, 0.0000, 0.0000, 0.0000, 0.1038, 0.0620, -0.3335, 0.0181, 0.0003, 0.0072, 886, 0, 0.0000, 0.0000, 0.0000, 0.0000
4.3000, 0.0000, 0.0000, 0.0000, 0.0000, 0.0000, 0.0000, 0.1036, 0.0625, -0.3337, 0.0183, -0.0005, 0.0071, 887, 0, 0.0000, 0.0000, 0.0000, 0.0000
4.3210, 0.0000, 0.0000, 0.0000, 0.0000, 0.0000, 0.0000, 0.1035, 0.0630, -0.3338, 0.0184, -0.0017, 0.0060, 888, 0, 0.0000, 0.0000, 0.0000, 0.0000
4.3410, 0.0000, 0.0000, 0.0000, 0.0000, 0.0000, 0.0000, 0.1035, 0.0635, -0.3339, 0.0186, -0.0021, 0.0059, 889, 0, 0.0000, 0.0000, 0.0000, 0.0000
4.3610, 0.0000, 0.0000, 0.0000, 0.0000, 0.0000, 0.0000, 0.1034, 0.0638, -0.3337, 0.0188, -0.0025, 0.0052, 890, 0, 0.0000, 0.0000, 0.0000, 0.0000
4.3810, 0.0000, 0.0000, 0.0000, 0.0000, 0.0000, 0.0000, 0.1032, 0.0643, -0.3336, 0.0191, -0.0022, 0.0054, 891, 0, 0.0000, 0.0000, 0.0000, 0.0000
4.4000, 0.0000, 0.0000, 0.0000, 0.0000, 0.0000, 0.0000, 0.1031, 0.0647, -0.3333, 0.0191, -0.0021, 0.0053, 892, 0, 0.0000, 0.0000, 0.0000, 0.0000
4.4210, 0.0000, 0.0000, 0.0000, 0.0000, 0.0000, 0.0000, 0.1029, 0.0652, -0.3329, 0.0192, -0.0013, 0.0049, 893, 0, 0.0000, 0.0000, 0.0000, 0.0000
4.4410, 0.0000, 0.0000, 0.0000, 0.0000, 0.0000, 0.0000, 0.1029, 0.0656, -0.3324, 0.0195, -0.0011, 0.0046, 894, 0, 0.0000, 0.0000, 0.0000, 0.0000
4.4610, 0.0000, 0.0000, 0.0000, 0.0000, 0.0000, 0.0000, 0.1029, 0.0662, -0.3317, 0.0191, -0.0006, 0.0044, 895, 0, 0.0000, 0.0000, 0.0000, 0.0000
4.4810, 0.0000, 0.0000, 0.0000, 0.0000, 0.0000, 0.0000, 0.1031, 0.0667, -0.3311, 0.0189, -0.0011, 0.0037, 896, 0, 0.0000, 0.0000, 0.0000, 0.0000
4.5000, 0.0000, 0.0000, 0.0000, 0.0000, 0.0000, 0.0000, 0.1030, 0.0669, -0.3304, 0.0192, -0.0014, 0.0045, 897, 0, 0.0000, 0.0000, 0.0000, 0.0000
4.5210, 0.0000, 0.0000, 0.0000, 0.0000, 0.0000, 0.0000, 0.1031, 0.0674, -0.3295, 0.0192, -0.0017, 0.0044, 898, 0, 0.0000, 0.0000, 0.0000, 0.0000
4.5410, 0.0000, 0.0000, 0.0000, 0.0000, 0.0000, 0.0000, 0.1031, 0.0680, -0.3287, 0.0192, -0.0024, 0.0038, 899, 0, 0.0000, 0.0000, 0.0000, 0.0000
4.5610, 0.0000, 0.0000, 0.0000, 0.0000, 0.0000, 0.0000, 0.1035, 0.0683, -0.3278, 0.0193, -0.0019, 0.0032, 900, 0, 0.0000, 0.0000, 0.0000, 0.0000
4.5810, 0.0000, 0.0000, 0.0000, 0.0000, 0.0000, 0.0000, 0.1035, 0.0686, -0.3272, 0.0192, -0.0009, 0.0023, 901, 0, 0.0000, 0.0000, 0.0000, 0.0000
4.6010, 0.0000, 0.0000, 0.0000, 0.0000, 0.0000, 0.0000, 0.1035, 0.0691, -0.3263, 0.0191, 0.0001, 0.0017, 902, 0, 0.0000, 0.0000, 0.0000, 0.0000
4.6210, 0.0000, 0.0000, 0.0000, 0.0000, 0.0000, 0.0000, 0.1036, 0.0695, -0.3254, 0.0194, 0.0008, 0.0027, 903, 0, 0.0000, 0.0000, 0.0000, 0.0000
4.6410, 0.0000, 0.0000, 0.0000, 0.0000, 0.0000, 0.0000, 0.1039, 0.0698, -0.3246, 0.0194, 0.0001, 0.0027, 904, 0, 0.0000, 0.0000, 0.0000, 0.0000
4.6610, 0.0000, 0.0000, 0.0000, 0.0000, 0.0000, 0.0000, 0.1041, 0.0702, -0.3237, 0.0193, -0.0005, 0.0031, 905, 0, 0.0000, 0.0000, 0.0000, 0.0000
4.6810, 0.0000, 0.0000, 0.0000, 0.0000, 0.0000, 0.0000, 0.1043, 0.0707, -0.3229, 0.0195, -0.0010, 0.0028, 906, 0, 0.0000, 0.0000, 0.0000, 0.0000
4.7010, 0.0000, 0.0000, 0.0000, 0.0000, 0.0000, 0.0000, 0.1046, 0.0711, -0.3221, 0.0193, -0.0011, 0.0032, 907, 0, 0.0000, 0.0000, 0.0000, 0.0000
4.7210, 0.0000, 0.0000, 0.0000, 0.0000, 0.0000, 0.0000, 0.1049, 0.0712, -0.3213, 0.0197, -0.0007, 0.0020, 908, 0, 0.0000, 0.0000, 0.0000, 0.0000
4.7410, 0.0000, 0.0000, 0.0000, 0.0000, 0.0000, 0.0000, 0.1050, 0.0715, -0.3205, 0.0198, -0.0000, 0.0014, 909, 0, 0.0000, 0.0000, 0.0000, 0.0000
4.7610, 0.0000, 0.0000, 0.0000, 0.0000, 0.0000, 0.0000, 0.1054, 0.0720, -0.3196, 0.0198, 0.0007, 0.0016, 910, 0, 0.0000, 0.0000, 0.0000, 0.0000
4.7810, 0.0000, 0.0000, 0.0000, 0.0000, 0.0000, 0.0000, 0.1057, 0.0724, -0.3190, 0.0199, -0.0004, 0.0037, 911, 0, 0.0000, 0.0000, 0.0000, 0.0000
4.8010, 0.0000, 0.0000, 0.0000, 0.0000, 0.0000, 0.0000, 0.1061, 0.0727, -0.3180, 0.0200, -0.0029, 0.0047, 912, 0, 0.0000, 0.0000, 0.0000, 0.0000
4.8210, 0.0000, 0.0000, 0.0000, 0.0000, 0.0000, 0.0000, 0.1065, 0.0731, -0.3172, 0.0200, -0.0048, 0.0062, 913, 0, 0.0000, 0.0000, 0.0000, 0.0000
4.8410, 0.0000, 0.0000, 0.0000, 0.0000, 0.0000, 0.0000, 0.1069, 0.0735, -0.3163, 0.0201, -0.0060, 0.0062, 914, 0, 0.0000, 0.0000, 0.0000, 0.0000
4.8610, 0.0000, 0.0000, 0.0000, 0.0000, 0.0000, 0.0000, 0.1073, 0.0738, -0.3155, 0.0201, -0.0060, 0.0055, 915, 0, 0.0000, 0.0000, 0.0000, 0.0000
4.8810, 0.0000, 0.0000, 0.0000, 0.0000, 0.0000, 0.0000, 0.1077, 0.0741, -0.3146, 0.0202, -0.0053, 0.0053, 916, 0, 0.0000, 0.0000, 0.0000, 0.0000
4.9000, 0.0000, 0.0000, 0.0000, 0.0000, 0.0000, 0.0000, 0.1083, 0.0746, -0.3136, 0.0201, -0.0058, 0.0056, 917, 0, 0.0000, 0.0000, 0.0000, 0.0000
4.9210, 0.0000, 0.0000, 0.0000, 0.0000, 0.0000, 0.0000, 0.1090, 0.0750, -0.3127, 0.0201, -0.0072, 0.0060, 918, 0, 0.0000, 0.0000, 0.0000, 0.0000
4.9410, 0.0000, 0.0000, 0.0000, 0.0000, 0.0000, 0.0000, 0.1096, 0.0752, -0.3120, 0.0201, -0.0079, 0.0051, 919, 0, 0.0000, 0.0000, 0.0000, 0.0000
4.9610, 0.0000, 0.0000, 0.0000, 0.0000, 0.0000, 0.0000, 0.1101, 0.0755, -0.3113, 0.0203, -0.0076, 0.0047, 920, 0, 0.0000, 0.0000, 0.0000, 0.0000
4.9810, 0.0000, 0.0000, 0.0000, 0.0000, 0.0000, 0.0000, 0.1108, 0.0758, -0.3104, 0.0204, -0.0071, 0.0047, 921, 0, 0.0000, 0.0000, 0.0000, 0.0000
5.0000, 0.0000, 0.0000, 0.0000, 0.0000, 0.0000, 0.0000, 0.1113, 0.0761, -0.3097, 0.0203, -0.0066, 0.0046, 922, 0, 0.0000, 0.0000, 0.0000, 0.0000
5.0210, 0.0000, 0.0000, 0.0000, 0.0000, 0.0000, 0.0000, 0.1122, 0.0764, -0.3089, 0.0203, -0.0068, 0.0054, 923, 0, 0.0000, 0.0000, 0.0000, 0.0000
5.0410, 0.0000, 0.0000, 0.0000, 0.0000, 0.0000, 0.0000, 0.1130, 0.0769, -0.3080, 0.0205, -0.0066, 0.0062, 924, 0, 0.0000, 0.0000, -0.0070, 0.0000
5.0610, 0.0000, 0.0000, 0.0000, 0.0000, 0.0000, 0.0000, 0.1137, 0.0773, -0.3073, 0.0207, -0.0057, 0.0065, 925, 0, 0.0000, 0.0000, -0.0137, 0.0000
5.0810, 0.0000, 0.0000, 0.0000, 0.0000, 0.0000, 0.0000, 0.1144, 0.0775, -0.3065, 0.0209, -0.0048, 0.0065, 926, 0, 0.0000, 0.0000, -0.0203, 0.0000
5.1000, 0.0000, 0.0000, 0.0000, 0.0000, 0.0000, 0.0000, 0.1154, 0.0778, -0.3058, 0.0208, -0.0050, 0.0061, 927, 0, 0.0000, 0.0000, -0.0270, 0.0000
5.1200, 0.0000, 0.0000, 0.0000, 0.0000, 0.0000, 0.0000, 0.1162, 0.0783, -0.3052, 0.0212, -0.0047, 0.0071, 928, 0, 0.0000, 0.0000, -0.0333, 0.0000
5.1410, 0.0000, 0.0000, 0.0000, 0.0000, 0.0000, 0.0000, 0.1171, 0.0788, -0.3047, 0.0211, -0.0032, 0.0074, 929, 0, 0.0000, 0.0000, -0.0400, 0.0000
5.1610, 0.0000, 0.0000, 0.0000, 0.0000, 0.0000, 0.0000, 0.1180, 0.0791, -0.3040, 0.0211, -0.0012, 0.0078, 930, 0, 0.0000, 0.0000, -0.0470, 0.0000
5.1810, 0.0000, 0.0000, 0.0000, 0.0000, 0.0000, 0.0000, 0.1188, 0.0795, -0.3033, 0.0215, 0.0008, 0.0077, 931, 0, 0.0000, 0.0000, -0.0537, 0.0000
5.2000, 0.0000, 0.0000, 0.0000, 0.0000, 0.0000, 0.0000, 0.1195, 0.0801, -0.3026, 0.0215, 0.0030, 0.0082, 932, 0, 0.0000, 0.0000, -0.0603, 0.0000
5.2200, 0.0000, 0.0000, 0.0000, 0.0000, 0.0000, 0.0000, 0.1203, 0.0805, -0.3019, 0.0215, 0.0055, 0.0075, 933, 0, 0.0000, 0.0000, -0.0667, 0.0000
5.2410, 0.0000, 0.0000, 0.0000, 0.0000, 0.0000, 0.0000, 0.1212, 0.0809, -0.3015, 0.0216, 0.0072, 0.0082, 934, 0, 0.0000, 0.0000, -0.0733, 0.0000
5.2610, 0.0000, 0.0000, 0.0000, 0.0000, 0.0000, 0.0000, 0.1220, 0.0815, -0.3011, 0.0216, 0.0086, 0.0086, 935, 0, 0.0000, 0.0000, -0.0803, 0.0000
5.2800, 0.0000, 0.0000, 0.0000, 0.0000, 0.0000, 0.0000, 0.1226, 0.0821, -0.3008, 0.0222, 0.0099, 0.0089, 936, 0, 0.0000, 0.0000, -0.0870, 0.0000
5.3010, 0.0000, 0.0000, 0.0000, 0.0000, 0.0000, 0.0000, 0.1233, 0.0826, -0.3009, 0.0218, 0.0111, 0.0083, 937, 0, 0.0000, 0.0000, -0.0933, 0.0000
5.3210, 0.0000, 0.0000, 0.0000, 0.0000, 0.0000, 0.0000, 0.1241, 0.0831, -0.3008, 0.0218, 0.0113, 0.0081, 938, 0, 0.0000, 0.0000, -0.1003, 0.0000
5.3410, 0.0000, 0.0000, 0.0000, 0.0000, 0.0000, 0.0000, 0.1249, 0.0839, -0.3008, 0.0219, 0.0110, 0.0075, 939, 0, 0.0000, 0.0000, -0.1070, 0.0000
5.3600, 0.0000, 0.0000, 0.0000, 0.0000, 0.0000, 0.0000, 0.1253, 0.0845, -0.3011, 0.0217, 0.0116, 0.0070, 940, 0, 0.0000, 0.0000, -0.1137, 0.0000
5.3810, 0.0000, 0.0000, 0.0000, 0.0000, 0.0000, 0.0000, 0.1258, 0.0852, -0.3012, 0.0217, 0.0123, 0.0069, 941, 0, 0.0000, 0.0000, -0.1200, 0.0000
5.4010, 0.0000, 0.0000, 0.0000, 0.0000, 0.0000, 0.0000, 0.1264, 0.0858, -0.3014, 0.0215, 0.0125, 0.0068, 942, 0, 0.0000, 0.0000, -0.1270, 0.0000
5.4200, 0.0000, 0.0000, 0.0000, 0.0000, 0.0000, 0.0000, 0.1269, 0.0867, -0.3016, 0.0216, 0.0131, 0.0060, 943, 0, 0.0000, 0.0000, -0.1337, 0.0000
5.4400, 0.0000, 0.0000, 0.0000, 0.0000, 0.0000, 0.0000, 0.1272, 0.0874, -0.3019, 0.0218, 0.0134, 0.0063, 944, 0, 0.0000, 0.0000, -0.1400, 0.0000
5.4600, 0.0000, 0.0000, 0.0000, 0.0000, 0.0000, 0.0000, 0.1276, 0.0881, -0.3023, 0.0217, 0.0143, 0.0064, 945, 0, 0.0000, 0.0000, -0.1467, 0.0000
5.4810, 0.0000, 0.0000, 0.0000, 0.0000, 0.0000, 0.0000, 0.1279, 0.0891, -0.3026, 0.0214, 0.0140, 0.0068, 946, 0, 0.0000, 0.0000, -0.1533, 0.0000
5.5010, 0.0000, 0.0000, 0.0000, 0.0000, 0.0000, 0.0000, 0.1282, 0.0900, -0.3030, 0.0217, 0.0137, 0.0064, 947, 0, 0.0000, 0.0000, -0.1603, 0.0000
5.5210, 0.0000, 0.0000, 0.0000, 0.0000, 0.0000, 0.0000, 0.1284, 0.0907, -0.3034, 0.0212, 0.0154, 0.0036, 948, 0, 0.0000, 0.0000, -0.1670, 0.0000
5.5410, 0.0000, 0.0000, 0.0000, 0.0000, 0.0000, 0.0000, 0.1285, 0.0913, -0.3039, 0.0214, 0.0186, -0.0042, 949, 0, 0.0000, 0.0000, -0.1737, 0.0000
5.5610, 0.0000, 0.0000, 0.0000, 0.0000, 0.0000, 0.0000, 0.1283, 0.0919, -0.3042, 0.0219, 0.0232, -0.0120, 950, 0, 0.0000, 0.0000, -0.1803, 0.0000
5.5810, 0.0000, 0.0000, 0.0000, 0.0000, 0.0000, 0.0000, 0.1283, 0.0924, -0.3045, 0.0218, 0.0279, -0.0192, 951, 0, 0.0000, 0.0000, -0.1870, 0.0000
5.6000, 0.0000, 0.0000, 0.0000, 0.0000, 0.0000, 0.0000, 0.1280, 0.0928, -0.3047, 0.0217, 0.0324, -0.0247, 952, 0, 0.0000, 0.0000, -0.1937, 0.0000
5.6210, 0.0000, 0.0000, 0.0000, 0.0000, 0.0000, 0.0000, 0.1278, 0.0934, -0.3048, 0.0222, 0.0354, -0.0299, 953, 0, 0.0000, 0.0000, -0.2000, 0.0000
5.6410, 0.0000, 0.0000, 0.0000, 0.0000, 0.0000, 0.0000, 0.1274, 0.0938, -0.3049, 0.0224, 0.0378, -0.0328, 954, 0, 0.0000, 0.0000, -0.2070, 0.0000
5.6610, 0.0000, 0.0000, 0.0000, 0.0000, 0.0000, 0.0000, 0.1268, 0.0941, -0.3050, 0.0224, 0.0403, -0.0366, 955, 0, 0.0000, 0.0000, -0.2137, 0.0000
5.6800, 0.0000, 0.0000, 0.0000, 0.0000, 0.0000, 0.0000, 0.1261, 0.0942, -0.3051, 0.0223, 0.0430, -0.0393, 956, 0, 0.0000, 0.0000, -0.2203, 0.0000
5.7000, 0.0000, 0.0000, 0.0000, 0.0000, 0.0000, 0.0000, 0.1253, 0.0941, -0.3049, 0.0224, 0.0461, -0.0419, 957, 0, 0.0000, 0.0000, -0.2267, 0.0000
5.7210, 0.0000, 0.0000, 0.0000, 0.0000, 0.0000, 0.0000, 0.1244, 0.0941, -0.3050, 0.0227, 0.0480, -0.0443, 958, 0, 0.0000, 0.0000, -0.2333, 0.0000
5.7410, 0.0000, 0.0000, 0.0000, 0.0000, 0.0000, 0.0000, 0.1234, 0.0938, -0.3053, 0.0227, 0.0486, -0.0470, 959, 0, 0.0000, 0.0000, -0.2403, 0.0000
5.7610, 0.0000, 0.0000, 0.0000, 0.0000, 0.0000, 0.0000, 0.1223, 0.0932, -0.3055, 0.0226, 0.0486, -0.0490, 960, 0, 0.0000, 0.0000, -0.2470, 0.0000
5.7810, 0.0000, 0.0000, 0.0000, 0.0000, 0.0000, 0.0000, 0.1209, 0.0929, -0.3058, 0.0225, 0.0496, -0.0493, 961, 0, 0.0000, 0.0000, -0.2537, 0.0000
5.8000, 0.0000, 0.0000, 0.0000, 0.0000, 0.0000, 0.0000, 0.1194, 0.0921, -0.3058, 0.0226, 0.0505, -0.0496, 962, 0, 0.0000, 0.0000, -0.2603, 0.0000
5.8210, 0.0000, 0.0000, 0.0000, 0.0000, 0.0000, 0.0000, 0.1177, 0.0912, -0.3062, 0.0224, 0.0512, -0.0492, 963, 0, 0.0000, 0.0000, -0.2667, 0.0000
5.8410, 0.0000, 0.0000, 0.0000, 0.0000, 0.0000, 0.0000, 0.1159, 0.0900, -0.3065, 0.0223, 0.0508, -0.0496, 964, 0, 0.0000, 0.0000, -0.2737, 0.0000
5.8610, 0.0000, 0.0000, 0.0000, 0.0000, 0.0000, 0.0000, 0.1140, 0.0890, -0.3068, 0.0219, 0.0507, -0.0495, 965, 0, 0.0000, 0.0000, -0.2803, 0.0000
5.8810, 0.0000, 0.0000, 0.0000, 0.0000, 0.0000, 0.0000, 0.1119, 0.0875, -0.3070, 0.0223, 0.0501, -0.0507, 966, 0, 0.0000, 0.0000, -0.2870, 0.0000
5.9000, 0.0000, 0.0000, 0.0000, 0.0000, 0.0000, 0.0000, 0.1096, 0.0859, -0.3073, 0.0222, 0.0498, -0.0520, 967, 0, 0.0000, 0.0000, -0.2937, 0.0000
5.9200, 0.0000, 0.0000, 0.0000, 0.0000, 0.0000, 0.0000, 0.1073, 0.0842, -0.3074, 0.0219, 0.0507, -0.0518, 968, 0, 0.0000, 0.0000, -0.3000, 0.0000
5.9400, 0.0000, 0.0000, 0.0000, 0.0000, 0.0000, 0.0000, 0.1045, 0.0822, -0.3075, 0.0219, 0.0516, -0.0514, 969, 0, 0.0000, 0.0000, -0.3067, 0.0000
5.9600, 0.0000, 0.0000, 0.0000, 0.0000, 0.0000, 0.0000, 0.1018, 0.0801, -0.3076, 0.0222, 0.0527, -0.0516, 970, 0, 0.0000, 0.0000, -0.3133, 0.0000
5.9800, 0.0000, 0.0000, 0.0000, 0.0000, 0.0000, 0.0000, 0.0988, 0.0777, -0.3079, 0.0218, 0.0536, -0.0514, 971, 0, 0.0000, 0.0000, -0.3200, 0.0000
6.0010, 0.0000, 0.0000, 0.0000, 0.0000, 0.0000, 0.0000, 0.0957, 0.0752, -0.3081, 0.0221, 0.0537, -0.0524, 972, 0, 0.0000, 0.0000, -0.3267, 0.0000
6.0210, 0.0000, 0.0000, 0.0000, 0.0000, 0.0000, 0.0000, 0.0927, 0.0728, -0.3084, 0.0218, 0.0534, -0.0518, 973, 0, 0.0000, 0.0000, -0.3337, 0.0000
6.0410, 0.0000, 0.0000, 0.0000, 0.0000, 0.0000, 0.0000, 0.0892, 0.0696, -0.3088, 0.0217, 0.0528, -0.0525, 974, 0, 0.0000, 0.0000, -0.3403, 0.0000
6.0600, 0.0000, 0.0000, 0.0000, 0.0000, 0.0000, 0.0000, 0.0858, 0.0671, -0.3092, 0.0217, 0.0488, -0.0491, 975, 0, 0.0000, 0.0000, -0.3470, 0.0000
6.0800, 0.0000, 0.0000, 0.0000, 0.0000, 0.0000, 0.0000, 0.0827, 0.0641, -0.3101, 0.0213, 0.0370, -0.0364, 976, 0, 0.0000, 0.0000, -0.3533, 0.0000
6.1000, 0.0000, 0.0000, 0.0000, 0.0000, 0.0000, 0.0000, 0.0795, 0.0616, -0.3112, 0.0202, 0.0222, -0.0206, 977, 0, 0.0000, 0.0000, -0.3600, 0.0000
6.1200, 0.0000, 0.0000, 0.0000, 0.0000, 0.0000, 0.0000, 0.0764, 0.0588, -0.3128, 0.0198, 0.0066, -0.0065, 978, 0, 0.0000, 0.0000, -0.3667, 0.0000
6.1400, 0.0000, 0.0000, 0.0000, 0.0000, 0.0000, 0.0000, 0.0729, 0.0558, -0.3146, 0.0201, -0.0079, 0.0056, 979, 0, 0.0000, 0.0000, -0.3733, 0.0000
6.1600, 0.0000, 0.0000, 0.0000, 0.0000, 0.0000, 0.0000, 0.0698, 0.0533, -0.3164, 0.0197, -0.0189, 0.0149, 980, 0, 0.0000, 0.0000, -0.3800, 0.0000
6.1800, 0.0000, 0.0000, 0.0000, 0.0000, 0.0000, 0.0000, 0.0666, 0.0503, -0.3187, 0.0199, -0.0276, 0.0222, 981, 0, 0.0000, 0.0000, -0.3867, 0.0000
6.2000, 0.0000, 0.0000, 0.0000, 0.0000, 0.0000, 0.0000, 0.0636, 0.0475, -0.3211, 0.0198, -0.0352, 0.0280, 982, 0, 0.0000, 0.0000, -0.3933, 0.0000
6.2200, 0.0000, 0.0000, 0.0000, 0.0000, 0.0000, 0.0000, 0.0606, 0.0449, -0.3238, 0.0200, -0.0406, 0.0329, 983, 0, 0.0000, 0.0000, -0.4000, 0.0000
6.2410, 0.0000, 0.0000, 0.0000, 0.0000, 0.0000, 0.0000, 0.0576, 0.0423, -0.3268, 0.0208, -0.0444, 0.0382, 984, 0, 0.0000, 0.0000, -0.4067, 0.0000
6.2610, 0.0000, 0.0000, 0.0000, 0.0000, 0.0000, 0.0000, 0.0551, 0.0400, -0.3298, 0.0203, -0.0485, 0.0421, 985, 0, 0.0000, 0.0000, -0.4137, 0.0000
6.2810, 0.0000, 0.0000, 0.0000, 0.0000, 0.0000, 0.0000, 0.0526, 0.0382, -0.3333, 0.0198, -0.0559, 0.0501, 986, 0, 0.0000, 0.0000, -0.4203, 0.0000
6.3010, 0.0000, 0.0000, 0.0000, 0.0000, 0.0000, 0.0000, 0.0510, 0.0368, -0.3372, 0.0209, -0.0732, 0.0681, 987, 0, 0.0000, 0.0000, -0.4270, 0.0000
6.3210, 0.0000, 0.0000, 0.0000, 0.0000, 0.0000, 0.0000, 0.0504, 0.0357, -0.3409, 0.0219, -0.0931, 0.0853, 988, 0, 0.0000, 0.0000, -0.4337, 0.0000
6.3410, 0.0000, 0.0000, 0.0000, 0.0000, 0.0000, 0.0000, 0.0492, 0.0349, -0.3461, 0.0217, -0.1067, 0.0959, 989, 0, 0.0000, 0.0000, -0.4403, 0.0000
6.3610, 0.0000, 0.0000, 0.0000, 0.0000, 0.0000, 0.0000, 0.0484, 0.0342, -0.3511, 0.0219, -0.1119, 0.0974, 990, 0, 0.0000, 0.0000, -0.4470, 0.0000
6.3810, 0.0000, 0.0000, 0.0000, 0.0000, 0.0000, 0.0000, 0.0477, 0.0335, -0.3561, 0.0216, -0.1102, 0.0926, 991, 0, 0.0000, 0.0000, -0.4537, 0.0000
6.4010, 0.0000, 0.0000, 0.0000, 0.0000, 0.0000, 0.0000, 0.0472, 0.0332, -0.3614, 0.0209, -0.1034, 0.0857, 992, 0, 0.0000, 0.0000, -0.4603, 0.0000
6.4210, 0.0000, 0.0000, 0.0000, 0.0000, 0.0000, 0.0000, 0.0471, 0.0332, -0.3661, 0.0202, -0.0930, 0.0801, 993, 0, 0.0000, 0.0000, -0.4670, 0.0000
6.4410, 0.0000, 0.0000, 0.0000, 0.0000, 0.0000, 0.0000, 0.0472, 0.0335, -0.3705, 0.0192, -0.0843, 0.0758, 994, 0, 0.0000, 0.0000, -0.4737, 0.0000
6.4610, 0.0000, 0.0000, 0.0000, 0.0000, 0.0000, 0.0000, 0.0478, 0.0342, -0.3750, 0.0193, -0.0779, 0.0709, 995, 0, 0.0000, 0.0000, -0.4803, 0.0000
6.4810, 0.0000, 0.0000, 0.0000, 0.0000, 0.0000, 0.0000, 0.0489, 0.0352, -0.3791, 0.0183, -0.0726, 0.0671, 996, 0, 0.0000, 0.0000, -0.4870, 0.0000
6.5010, 0.0000, 0.0000, 0.0000, 0.0000, 0.0000, 0.0000, 0.0501, 0.0363, -0.3832, 0.0180, -0.0672, 0.0631, 997, 0, 0.0000, 0.0000, -0.4937, 0.0000
6.5210, 0.0000, 0.0000, 0.0000, 0.0000, 0.0000, 0.0000, 0.0514, 0.0380, -0.3870, 0.0181, -0.0618, 0.0592, 998, 0, 0.0000, 0.0000, -0.5003, 0.0000
6.5410, 0.0000, 0.0000, 0.0000, 0.0000, 0.0000, 0.0000, 0.0533, 0.0396, -0.3909, 0.0176, -0.0559, 0.0546, 999, 0, 0.0000, 0.0000, -0.5070, 0.0000
6.5610, 0.0000, 0.0000, 0.0000, 0.0000, 0.0000, 0.0000, 0.0553, 0.0415, -0.3946, 0.0170, -0.0499, 0.0505, 1000, 0, 0.0000, 0.0000, -0.5137, 0.0000
6.5810, 0.0000, 0.0000, 0.0000, 0.0000, 0.0000, 0.0000, 0.0573, 0.0435, -0.3982, 0.0171, -0.0441, 0.0451, 1001, 0, 0.0000, 0.0000, -0.5203, 0.0000
6.6010, 0.0000, 0.0000, 0.0000, 0.0000, 0.0000, 0.0000, 0.0595, 0.0458, -0.4017, 0.0170, -0.0385, 0.0400, 1002, 0, 0.0000, 0.0000, -0.5270, 0.0000
6.6210, 0.0000, 0.0000, 0.0000, 0.0000, 0.0000, 0.0000, 0.0620, 0.0483, -0.4052, 0.0172, -0.0330, 0.0370, 1003, 0, 0.0000, 0.0000, -0.5337, 0.0000
6.6410, 0.0000, 0.0000, 0.0000, 0.0000, 0.0000, 0.0000, 0.0645, 0.0508, -0.4085, 0.0168, -0.0278, 0.0324, 1004, 0, 0.0000, 0.0000, -0.5403, 0.0000
6.6610, 0.0000, 0.0000, 0.0000, 0.0000, 0.0000, 0.0000, 0.0670, 0.0535, -0.4118, 0.0166, -0.0220, 0.0286, 1005, 0, 0.0000, 0.0000, -0.5470, 0.0000
6.6810, 0.0000, 0.0000, 0.0000, 0.0000, 0.0000, 0.0000, 0.0698, 0.0564, -0.4150, 0.0166, -0.0160, 0.0234, 1006, 0, 0.0000, 0.0000, -0.5537, 0.0000
6.7010, 0.0000, 0.0000, 0.0000, 0.0000, 0.0000, 0.0000, 0.0724, 0.0591, -0.4186, 0.0166, -0.0103, 0.0191, 1007, 0, 0.0000, 0.0000, -0.5603, 0.0000
6.7200, 0.0000, 0.0000, 0.0000, 0.0000, 0.0000, 0.0000, 0.0752, 0.0620, -0.4217, 0.0165, -0.0063, 0.0137, 1008, 0, 0.0000, 0.0000, -0.5670, 0.0000
6.7400, 0.0000, 0.0000, 0.0000, 0.0000, 0.0000, 0.0000, 0.0778, 0.0651, -0.4252, 0.0165, -0.0014, 0.0099, 1009, 0, 0.0000, 0.0000, -0.5733, 0.0000
6.7610, 0.0000, 0.0000, 0.0000, 0.0000, 0.0000, 0.0000, 0.0805, 0.0681, -0.4285, 0.0162, 0.0022, 0.0051, 1010, 0, 0.0000, 0.0000, -0.5800, 0.0000
6.7810, 0.0000, 0.0000, 0.0000, 0.0000, 0.0000, 0.0000, 0.0833, 0.0710, -0.4321, 0.0166, 0.0064, 0.0014, 1011, 0, 0.0000, 0.0000, -0.5870, 0.0000
6.8000, 0.0000, 0.0000, 0.0000, 0.0000, 0.0000, 0.0000, 0.0861, 0.0743, -0.4355, 0.0170, 0.0099, -0.0025, 1012, 0, 0.0000, 0.0000, -0.5937, 0.0000
6.8210, 0.0000, 0.0000, 0.0000, 0.0000, 0.0000, 0.0000, 0.0888, 0.0772, -0.4390, 0.0171, 0.0132, -0.0062, 1013, 0, 0.0000, 0.0000, -0.6000, 0.0000
6.8410, 0.0000, 0.0000, 0.0000, 0.0000, 0.0000, 0.0000, 0.0914, 0.0803, -0.4426, 0.0176, 0.0162, -0.0093, 1014, 0, 0.0000, 0.0000, -0.6070, 0.0000
6.8610, 0.0000, 0.0000, 0.0000, 0.0000, 0.0000, 0.0000, 0.0941, 0.0832, -0.4461, 0.0180, 0.0185, -0.0128, 1015, 0, 0.0000, 0.0000, -0.6137, 0.0000
6.8810, 0.0000, 0.0000, 0.0000, 0.0000, 0.0000, 0.0000, 0.0964, 0.0863, -0.4497, 0.0183, 0.0205, -0.0143, 1016, 0, 0.0000, 0.0000, -0.6203, 0.0000
6.9010, 0.0000, 0.0000, 0.0000, 0.0000, 0.0000, 0.0000, 0.0988, 0.0892, -0.4532, 0.0183, 0.0233, -0.0171, 1017, 0, 0.0000, 0.0000, -0.6270, 0.0000
6.9210, 0.0000, 0.0000, 0.0000, 0.0000, 0.0000, 0.0000, 0.1010, 0.0920, -0.4570, 0.0184, 0.0255, -0.0199, 1018, 0, 0.0000, 0.0000, -0.6337, 0.0000
6.9410, 0.0000, 0.0000, 0.0000, 0.0000, 0.0000, 0.0000, 0.1032, 0.0945, -0.4606, 0.0190, 0.0279, -0.0237, 1019, 0, 0.0000, 0.0000, -0.6403, 0.0000
6.9600, 0.0000, 0.0000, 0.0000, 0.0000, 0.0000, 0.0000, 0.1052, 0.0973, -0.4642, 0.0190, 0.0294, -0.0259, 1020, 0, 0.0000, 0.0000, -0.6470, 0.0000
6.9800, 0.0000, 0.0000, 0.0000, 0.0000, 0.0000, 0.0000, 0.1072, 0.1000, -0.4679, 0.0191, 0.0308, -0.0271, 1021, 0, 0.0000, 0.0000, -0.6533, 0.0000
7.0000, 0.0000, 0.0000, 0.0000, 0.0000, 0.0000, 0.0000, 0.1090, 0.1023, -0.4715, 0.0198, 0.0315, -0.0294, 1022, 0, 0.0000, 0.0000, -0.6600, 0.0000
7.0200, 0.0000, 0.0000, 0.0000, 0.0000, 0.0000, 0.0000, 0.1106, 0.1047, -0.4753, 0.0199, 0.0325, -0.0301, 1023, 0, 0.0000, 0.0000, -0.6667, 0.0000
7.0410, 0.0000, 0.0000, 0.0000, 0.0000, 0.0000, 0.0000, 0.1123, 0.1071, -0.4789, 0.0198, 0.0326, -0.0319, 1024, 0, 0.0000, 0.0000, -0.6733, 0.0000
7.0610, 0.0000, 0.0000, 0.0000, 0.0000, 0.0000, 0.0000, 0.1135, 0.1091, -0.4829, 0.0203, 0.0339, -0.0326, 1025, 0, 0.0000, 0.0000, -0.6803, 0.0000
7.0800, 0.0000, 0.0000, 0.0000, 0.0000, 0.0000, 0.0000, 0.1148, 0.1109, -0.4864, 0.0205, 0.0375, -0.0371, 1026, 0, 0.0000, 0.0000, -0.6870, 0.0000
7.1000, 0.0000, 0.0000, 0.0000, 0.0000, 0.0000, 0.0000, 0.1156, 0.1127, -0.4904, 0.0205, 0.0424, -0.0414, 1027, 0, 0.0000, 0.0000, -0.6933, 0.0000
7.1210, 0.0000, 0.0000, 0.0000, 0.0000, 0.0000, 0.0000, 0.1166, 0.1144, -0.4942, 0.0215, 0.0428, -0.0435, 1028, 0, 0.0000, 0.0000, -0.7000, 0.0000
7.1410, 0.0000, 0.0000, 0.0000, 0.0000, 0.0000, 0.0000, 0.1177, 0.1157, -0.4980, 0.0211, 0.0406, -0.0434, 1029, 0, 0.0000, 0.0000, -0.7070, 0.0000
7.1610, 0.0000, 0.0000, 0.0000, 0.0000, 0.0000, 0.0000, 0.1182, 0.1172, -0.5019, 0.0211, 0.0379, -0.0425, 1030, 0, 0.0000, 0.0000, -0.7137, 0.0000
7.1810, 0.0000, 0.0000, 0.0000, 0.0000, 0.0000, 0.0000, 0.1190, 0.1186, -0.5057, 0.0216, 0.0341, -0.0423, 1031, 0, 0.0000, 0.0000, -0.7203, 0.0000
7.2010, 0.0000, 0.0000, 0.0000, 0.0000, 0.0000, 0.0000, 0.1194, 0.1197, -0.5095, 0.0215, 0.0311, -0.0405, 1032, 0, 0.0000, 0.0000, -0.7270, 0.0000
7.2210, 0.0000, 0.0000, 0.0000, 0.0000, 0.0000, 0.0000, 0.1197, 0.1205, -0.5134, 0.0214, 0.0288, -0.0390, 1033, 0, 0.0000, 0.0000, -0.7337, 0.0000
7.2410, 0.0000, 0.0000, 0.0000, 0.0000, 0.0000, 0.0000, 0.1198, 0.1215, -0.5171, 0.0217, 0.0267, -0.0370, 1034, 0, 0.0000, 0.0000, -0.7403, 0.0000
7.2610, 0.0000, 0.0000, 0.0000, 0.0000, 0.0000, 0.0000, 0.1200, 0.1221, -0.5208, 0.0219, 0.0247, -0.0349, 1035, 0, 0.0000, 0.0000, -0.7470, 0.0000
7.2810, 0.0000, 0.0000, 0.0000, 0.0000, 0.0000, 0.0000, 0.1198, 0.1226, -0.5245, 0.0216, 0.0225, -0.0345, 1036, 0, 0.0000, 0.0000, -0.7537, 0.0000
7.3010, 0.0000, 0.0000, 0.0000, 0.0000, 0.0000, 0.0000, 0.1198, 0.1230, -0.5285, 0.0219, 0.0210, -0.0340, 1037, 0, 0.0000, 0.0000, -0.7603, 0.0000
7.3210, 0.0000, 0.0000, 0.0000, 0.0000, 0.0000, 0.0000, 0.1197, 0.1232, -0.5321, 0.0219, 0.0186, -0.0320, 1038, 0, 0.0000, 0.0000, -0.7670, 0.0000
7.3410, 0.0000, 0.0000, 0.0000, 0.0000, 0.0000, 0.0000, 0.1193, 0.1235, -0.5357, 0.0218, 0.0172, -0.0300, 1039, 0, 0.0000, 0.0000, -0.7737, 0.0000
7.3600, 0.0000, 0.0000, 0.0000, 0.0000, 0.0000, 0.0000, 0.1191, 0.1235, -0.5397, 0.0220, 0.0152, -0.0276, 1040, 0, 0.0000, 0.0000, -0.7803, 0.0000
7.3800, 0.0000, 0.0000, 0.0000, 0.0000, 0.0000, 0.0000, 0.1186, 0.1235, -0.5437, 0.0218, 0.0133, -0.0248, 1041, 0, 0.0000, 0.0000, -0.7867, 0.0000
7.4000, 0.0000, 0.0000, 0.0000, 0.0000, 0.0000, 0.0000, 0.1182, 0.1235, -0.5472, 0.0218, 0.0105, -0.0239, 1042, 0, 0.0000, 0.0000, -0.7933, 0.0000
7.4200, 0.0000, 0.0000, 0.0000, 0.0000, 0.0000, 0.0000, 0.1178, 0.1233, -0.5510, 0.0220, 0.0081, -0.0225, 1043, 0, 0.0000, 0.0000, -0.8000, 0.0000
7.4400, 0.0000, 0.0000, 0.0000, 0.0000, 0.0000, 0.0000, 0.1172, 0.1228, -0.5549, 0.0222, 0.0066, -0.0212, 1044, 0, 0.0000, 0.0000, -0.8067, 0.0000
7.4600, 0.0000, 0.0000, 0.0000, 0.0000, 0.0000, 0.0000, 0.1169, 0.1225, -0.5583, 0.0226, 0.0055, -0.0194, 1045, 0, 0.0000, 0.0000, -0.8133, 0.0000
7.4800, 0.0000, 0.0000, 0.0000, 0.0000, 0.0000, 0.0000, 0.1164, 0.1223, -0.5621, 0.0225, 0.0042, -0.0165, 1046, 0, 0.0000, 0.0000, -0.8200, 0.0000
7.5000, 0.0000, 0.0000, 0.0000, 0.0000, 0.0000, 0.0000, 0.1159, 0.1218, -0.5657, 0.0230, 0.0020, -0.0148, 1047, 0, 0.0000, 0.0000, -0.8267, 0.0000
7.5210, 0.0000, 0.0000, 0.0000, 0.0000, 0.0000, 0.0000, 0.1154, 0.1215, -0.5698, 0.0227, 0.0003, -0.0128, 1048, 0, 0.0000, 0.0000, -0.8333, 0.0000
7.5410, 0.0000, 0.0000, 0.0000, 0.0000, 0.0000, 0.0000, 0.1149, 0.1210, -0.5736, 0.0229, -0.0017, -0.0098, 1049, 0, 0.0000, 0.0000, -0.8403, 0.0000
7.5610, 0.0000, 0.0000, 0.0000, 0.0000, 0.0000, 0.0000, 0.1144, 0.1205, -0.5776, 0.0229, -0.0031, -0.0081, 1050, 0, 0.0000, 0.0000, -0.8470, 0.0000
7.5810, 0.0000, 0.0000, 0.0000, 0.0000, 0.0000, 0.0000, 0.1141, 0.1199, -0.5819, 0.0232, -0.0034, -0.0067, 1051, 0, 0.0000, 0.0000, -0.8537, 0.0000
7.6000, 0.0000, 0.0000, 0.0000, 0.0000, 0.0000, 0.0000, 0.1135, 0.1195, -0.5860, 0.0232, -0.0037, -0.0048, 1052, 0, 0.0000, 0.0000, -0.8603, 0.0000
7.6210, 0.0000, 0.0000, 0.0000, 0.0000, 0.0000, 0.0000, 0.1131, 0.1190, -0.5902, 0.0236, -0.0049, -0.0028, 1053, 0, 0.0000, 0.0000, -0.8667, 0.0000
7.6410, 0.0000, 0.0000, 0.0000, 0.0000, 0.0000, 0.0000, 0.1129, 0.1185, -0.5946, 0.0240, -0.0062, -0.0019, 1054, 0, 0.0000, 0.0000, -0.8737, 0.0000
7.6610, 0.0000, 0.0000, 0.0000, 0.0000, 0.0000, 0.0000, 0.1123, 0.1179, -0.5992, 0.0240, -0.0063, -0.0009, 1055, 0, 0.0000, 0.0000, -0.8803, 0.0000
7.6810, 0.0000, 0.0000, 0.0000, 0.0000, 0.0000, 0.0000, 0.1121, 0.1175, -0.6037, 0.0243, -0.0067, -0.0001, 1056, 0, 0.0000, 0.0000, -0.8870, 0.0000
7.7000, 0.0000, 0.0000, 0.0000, 0.0000, 0.0000, 0.0000, 0.1115, 0.1170, -0.6083, 0.0245, -0.0064, 0.0023, 1057, 0, 0.0000, 0.0000, -0.8937, 0.0000
7.7210, 0.0000, 0.0000, 0.0000, 0.0000, 0.0000, 0.0000, 0.1113, 0.1167, -0.6131, 0.0242, -0.0062, 0.0026, 1058, 0, 0.0000, 0.0000, -0.9000, 0.0000
7.7400, 0.0000, 0.0000, 0.0000, 0.0000, 0.0000, 0.0000, 0.1110, 0.1161, -0.6179, 0.0245, -0.0060, 0.0041, 1059, 0, 0.0000, 0.0000, -0.9070, 0.0000
7.7600, 0.0000, 0.0000, 0.0000, 0.0000, 0.0000, 0.0000, 0.1108, 0.1158, -0.6225, 0.0244, -0.0062, 0.0051, 1060, 0, 0.0000, 0.0000, -0.9133, 0.0000
7.7800, 0.0000, 0.0000, 0.0000, 0.0000, 0.0000, 0.0000, 0.1107, 0.1155, -0.6273, 0.0248, -0.0062, 0.0073, 1061, 0, 0.0000, 0.0000, -0.9200, 0.0000
7.8000, 0.0000, 0.0000, 0.0000, 0.0000, 0.0000, 0.0000, 0.1104, 0.1152, -0.6323, 0.0246, -0.0052, 0.0092, 1062, 0, 0.0000, 0.0000, -0.9267, 0.0000
7.8200, 0.0000, 0.0000, 0.0000, 0.0000, 0.0000, 0.0000, 0.1103, 0.1150, -0.6370, 0.0251, -0.0050, 0.0098, 1063, 0, 0.0000, 0.0000, -0.9333, 0.0000
7.8400, 0.0000, 0.0000, 0.0000, 0.0000, 0.0000, 0.0000, 0.1102, 0.1148, -0.6421, 0.0253, -0.0051, 0.0106, 1064, 0, 0.0000, 0.0000, -0.9400, 0.0000
7.8610, 0.0000, 0.0000, 0.0000, 0.0000, 0.0000, 0.0000, 0.1103, 0.1147, -0.6470, 0.0253, -0.0057, 0.0092, 1065, 0, 0.0000, 0.0000, -0.9467, 0.0000
7.8810, 0.0000, 0.0000, 0.0000, 0.0000, 0.0000, 0.0000, 0.1101, 0.1146, -0.6522, 0.0251, -0.0056, 0.0096, 1066, 0, 0.0000, 0.0000, -0.9537, 0.0000
7.9010, 0.0000, 0.0000, 0.0000, 0.0000, 0.0000, 0.0000, 0.1100, 0.1144, -0.6572, 0.0253, -0.0058, 0.0089, 1067, 0, 0.0000, 0.0000, -0.9603, 0.0000
7.9210, 0.0000, 0.0000, 0.0000, 0.0000, 0.0000, 0.0000, 0.1100, 0.1146, -0.6622, 0.0255, -0.0055, 0.0084, 1068, 0, 0.0000, 0.0000, -0.9670, 0.0000
7.9410, 0.0000, 0.0000, 0.0000, 0.0000, 0.0000, 0.0000, 0.1099, 0.1146, -0.6675, 0.0255, -0.0048, 0.0082, 1069, 0, 0.0000, 0.0000, -0.9737, 0.0000
7.9610, 0.0000, 0.0000, 0.0000, 0.0000, 0.0000, 0.0000, 0.1099, 0.1147, -0.6727, 0.0258, -0.0042, 0.0086, 1070, 0, 0.0000, 0.0000, -0.9803, 0.0000
7.9810, 0.0000, 0.0000, 0.0000, 0.0000, 0.0000, 0.0000, 0.1100, 0.1148, -0.6780, 0.0260, -0.0044, 0.0082, 1071, 0, 0.0000, 0.0000, -0.9870, 0.0000
8.0010, 0.0000, 0.0000, 0.0000, 0.0000, 0.0000, 0.0000, 0.1101, 0.1151, -0.6831, 0.0260, -0.0050, 0.0074, 1072, 0, 0.0000, 0.0000, -0.9937, 0.0000
8.0210, 0.0000, 0.0000, 0.0000, 0.0000, 0.0000, 0.0000, 0.1101, 0.1155, -0.6886, 0.0264, -0.0050, 0.0074, 1073, 0, 0.0000, 0.0000, -1.0000, 0.0000
8.0410, 0.0000, 0.0000, 0.0000, 0.0000, 0.0000, 0.0000, 0.1102, 0.1155, -0.6938, 0.0269, -0.0050, 0.0061, 1074, 0, 0.0000, 0.0000, -1.0000, 0.0000
8.0610, 0.0000, 0.0000, 0.0000, 0.0000, 0.0000, 0.0000, 0.1102, 0.1161, -0.6990, 0.0271, -0.0037, 0.0054, 1075, 0, 0.0000, 0.0000, -1.0000, 0.0000
8.0800, 0.0000, 0.0000, 0.0000, 0.0000, 0.0000, 0.0000, 0.1104, 0.1165, -0.7043, 0.0275, -0.0033, 0.0044, 1076, 0, 0.0000, 0.0000, -1.0000, 0.0000
8.1000, 0.0000, 0.0000, 0.0000, 0.0000, 0.0000, 0.0000, 0.1103, 0.1167, -0.7096, 0.0280, -0.0028, 0.0042, 1077, 0, 0.0000, 0.0000, -1.0000, 0.0000
8.1200, 0.0000, 0.0000, 0.0000, 0.0000, 0.0000, 0.0000, 0.1105, 0.1173, -0.7149, 0.0281, -0.0027, 0.0045, 1078, 0, 0.0000, 0.0000, -1.0000, 0.0000
8.1400, 0.0000, 0.0000, 0.0000, 0.0000, 0.0000, 0.0000, 0.1106, 0.1179, -0.7197, 0.0284, -0.0025, 0.0044, 1079, 0, 0.0000, 0.0000, -1.0000, 0.0000
8.1600, 0.0000, 0.0000, 0.0000, 0.0000, 0.0000, 0.0000, 0.1107, 0.1183, -0.7246, 0.0285, -0.0020, 0.0026, 1080, 0, 0.0000, 0.0000, -1.0000, 0.0000
8.1800, 0.0000, 0.0000, 0.0000, 0.0000, 0.0000, 0.0000, 0.1110, 0.1187, -0.7293, 0.0290, -0.0005, 0.0001, 1081, 0, 0.0000, 0.0000, -1.0000, 0.0000
