time (s), accel_x (m/s^2), accel_y (m/s^2), accel_z (m/s^2), gyro_x (rad/s), gyro_y (rad/s), gyro_z (rad/s), x (m), y (m), z (m), yaw (rad), pitch (rad), roll (rad), mocap_counter, counter, desired x, desired y, desired z, desired yaw
0.0000, 0.0000, 0.0000, 0.0000, 0.0000, 0.0000, 0.0000, -1.0694, -0.0108, -0.0663, -0.0887, 0.0225, -0.0128, 1280, 95460, -0.1948, 0.5413, -0.2814, 0.0000, 0.5552, 0.5413, -0.2814, 0.0000, 0.0000, 0.0000
0.0200, 0.0000, 0.0000, 0.0000, 0.0000, 0.0000, 0.0000, -1.0695, -0.0107, -0.0663, -0.0888, 0.0228, -0.0131, 1281, 95460, -0.1944, 0.5412, -0.2816, 0.0000, 0.5556, 0.5412, -0.2816, 0.0000, 0.0000, 0.0000
0.0400, 0.0000, 0.0000, 0.0000, 0.0000, 0.0000, 0.0000, -1.0694, -0.0106, -0.0662, -0.0885, 0.0227, -0.0128, 1282, 95460, -0.1941, 0.5412, -0.2819, 0.0000, 0.5559, 0.5412, -0.2819, 0.0000, 0.0000, 0.0000
0.0590, 0.0000, 0.0000, 0.0000, 0.0000, 0.0000, 0.0000, -1.0695, -0.0106, -0.0662, -0.0885, 0.0225, -0.0131, 1283, 95460, -0.1937, 0.5412, -0.2822, 0.0000, 0.5563, 0.5412, -0.2822, 0.0000, 0.0000, 0.0000
0.0800, 0.0000, 0.0000, 0.0000, 0.0000, 0.0000, 0.0000, -1.0695, -0.0108, -0.0663, -0.0886, 0.0226, -0.0133, 1284, 95460, -0.1934, 0.5409, -0.2826, 0.0000, 0.5566, 0.5409, -0.2826, 0.0000, 0.0000, 0.0000
0.1000, 0.0000, 0.0000, 0.0000, 0.0000, 0.0000, 0.0000, -1.0694, -0.0108, -0.0662, -0.0885, 0.0226, -0.0133, 1285, 95460, -0.1932, 0.5408, -0.2828, 0.0000, 0.5568, 0.5408, -0.2828, 0.0000, 0.0000, 0.0000
0.1200, 0.0000, 0.0000, 0.0000, 0.0000, 0.0000, 0.0000, -1.0695, -0.0107, -0.0663, -0.0888, 0.0230, -0.0131, 1286, 95460, -0.1928, 0.5407, -0.2830, 0.0000, 0.5572, 0.5407, -0.2830, 0.0000, 0.0000, 0.0000
0.1390, 0.0000, 0.0000, 0.0000, 0.0000, 0.0000, 0.0000, -1.0694, -0.0107, -0.0662, -0.0888, 0.0226, -0.0130, 1287, 95460, -0.1924, 0.5404, -0.2831, 0.0000, 0.5576, 0.5404, -0.2831, 0.0000, 0.0000, 0.0000
0.1600, 0.0000, 0.0000, 0.0000, 0.0000, 0.0000, 0.0000, -1.0694, -0.0108, -0.0662, -0.0887, 0.0228, -0.0133, 1288, 95460, -0.1922, 0.5401, -0.2834, 0.0000, 0.5578, 0.5401, -0.2834, 0.0000, 0.0000, 0.0000
0.1800, 0.0000, 0.0000, 0.0000, 0.0000, 0.0000, 0.0000, -1.0694, -0.0106, -0.0662, -0.0889, 0.0226, -0.0131, 1289, 95460, -0.1919, 0.5399, -0.2835, 0.0000, 0.5581, 0.5399, -0.2835, 0.0000, 0.0000, 0.0000
0.2000, 0.0000, 0.0000, 0.0000, 0.0000, 0.0000, 0.0000, -1.0694, -0.0107, -0.0661, -0.0886, 0.0225, -0.0131, 1290, 95460, -0.1916, 0.5400, -0.2837, 0.0000, 0.5584, 0.5400, -0.2837, 0.0000, 0.0000, 0.0000
0.2190, 0.0000, 0.0000, 0.0000, 0.0000, 0.0000, 0.0000, -1.0695, -0.0108, -0.0663, -0.0889, 0.0229, -0.0129, 1291, 95460, -0.1915, 0.5396, -0.2839, 0.0000, 0.5585, 0.5396, -0.2839, 0.0000, 0.0000, 0.0000
0.2400, 0.0000, 0.0000, 0.0000, 0.0000, 0.0000, 0.0000, -1.0694, -0.0107, -0.0662, -0.0889, 0.0224, -0.0128, 1292, 95460, -0.1913, 0.5394, -0.2840, 0.0000, 0.5587, 0.5394, -0.2840, 0.0000, 0.0000, 0.0000
0.2600, 0.0000, 0.0000, 0.0000, 0.0000, 0.0000, 0.0000, -1.0694, -0.0106, -0.0661, -0.0884, 0.0224, -0.0132, 1293, 95460, -0.1911, 0.5392, -0.2841, 0.0000, 0.5589, 0.5392, -0.2841, 0.0000, 0.0000, 0.0000
0.2800, 0.0000, 0.0000, 0.0000, 0.0000, 0.0000, 0.0000, -1.0694, -0.0107, -0.0662, -0.0886, 0.0225, -0.0134, 1294, 95460, -0.1909, 0.5391, -0.2845, 0.0000, 0.5591, 0.5391, -0.2845, 0.0000, 0.0000, 0.0000
0.3000, 0.0000, 0.0000, 0.0000, 0.0000, 0.0000, 0.0000, -1.0694, -0.0108, -0.0662, -0.0885, 0.0227, -0.0130, 1295, 95460, -0.1908, 0.5387, -0.2848, 0.0000, 0.5592, 0.5387, -0.2848, 0.0000, 0.0000, 0.0000
0.3200, 0.0000, 0.0000, 0.0000, 0.0000, 0.0000, 0.0000, -1.0695, -0.0108, -0.0663, -0.0886, 0.0231, -0.0130, 1296, 95460, -0.1907, 0.5384, -0.2851, 0.0000, 0.5593, 0.5384, -0.2851, 0.0000, 0.0000, 0.0000
0.3400, 0.0000, 0.0000, 0.0000, 0.0000, 0.0000, 0.0000, -1.0695, -0.0106, -0.0662, -0.0885, 0.0228, -0.0126, 1297, 95460, -0.1906, 0.5384, -0.2854, 0.0000, 0.5594, 0.5384, -0.2854, 0.0000, 0.0000, 0.0000
0.3600, 0.0000, 0.0000, 0.0000, 0.0000, 0.0000, 0.0000, -1.0694, -0.0106, -0.0662, -0.0885, 0.0226, -0.0123, 1298, 95460, -0.1906, 0.5381, -0.2857, 0.0000, 0.5594, 0.5381, -0.2857, 0.0000, 0.0000, 0.0000
0.3800, 0.0000, 0.0000, 0.0000, 0.0000, 0.0000, 0.0000, -1.0695, -0.0107, -0.0663, -0.0884, 0.0227, -0.0128, 1299, 95460, -0.1906, 0.5377, -0.2861, 0.0000, 0.5594, 0.5377, -0.2861, 0.0000, 0.0000, 0.0000
0.4000, 0.0000, 0.0000, 0.0000, 0.0000, 0.0000, 0.0000, -1.0695, -0.0108, -0.0662, -0.0883, 0.0226, -0.0127, 1300, 95460, -0.1906, 0.5376, -0.2863, 0.0000, 0.5594, 0.5376, -0.2863, 0.0000, 0.0000, 0.0000
0.4200, 0.0000, 0.0000, 0.0000, 0.0000, 0.0000, 0.0000, -1.0695, -0.0106, -0.0662, -0.0887, 0.0230, -0.0129, 1301, 95460, -0.1905, 0.5375, -0.2865, 0.0000, 0.5595, 0.5375, -0.2865, 0.0000, 0.0000, 0.0000
0.4400, 0.0000, 0.0000, 0.0000, 0.0000, 0.0000, 0.0000, -1.0695, -0.0107, -0.0663, -0.0888, 0.0226, -0.0126, 1302, 95460, -0.1906, 0.5371, -0.2868, 0.0000, 0.5594, 0.5371, -0.2868, 0.0000, 0.0000, 0.0000
0.4600, 0.0000, 0.0000, 0.0000, 0.0000, 0.0000, 0.0000, -1.0694, -0.0107, -0.0662, -0.0886, 0.0228, -0.0127, 1303, 95460, -0.1906, 0.5368, -0.2870, 0.0000, 0.5594, 0.5368, -0.2870, 0.0000, 0.0000, 0.0000
0.4800, 0.0000, 0.0000, 0.0000, 0.0000, 0.0000, 0.0000, -1.0695, -0.0106, -0.0663, -0.0888, 0.0229, -0.0131, 1304, 95460, -0.1907, 0.5369, -0.2871, 0.0000, 0.5593, 0.5369, -0.2871, 0.0000, 0.0000, 0.0000
0.5000, 0.0000, 0.0000, 0.0000, 0.0000, 0.0000, 0.0000, -1.0695, -0.0107, -0.0662, -0.0886, 0.0225, -0.0131, 1305, 95460, -0.1907, 0.5366, -0.2874, 0.0000, 0.5593, 0.5366, -0.2874, 0.0000, 0.0000, 0.0000
0.5200, 0.0000, 0.0000, 0.0000, 0.0000, 0.0000, 0.0000, -1.0694, -0.0108, -0.0663, -0.0887, 0.0230, -0.0121, 1306, 95460, -0.1908, 0.5363, -0.2876, 0.0000, 0.5592, 0.5363, -0.2876, 0.0000, 0.0000, 0.0000
0.5400, 0.0000, 0.0000, 0.0000, 0.0000, 0.0000, 0.0000, -1.0695, -0.0107, -0.0662, -0.0885, 0.0226, -0.0125, 1307, 95460, -0.1909, 0.5361, -0.2877, 0.0000, 0.5591, 0.5361, -0.2877, 0.0000, 0.0000, 0.0000
0.5600, 0.0000, 0.0000, 0.0000, 0.0000, 0.0000, 0.0000, -1.0695, -0.0106, -0.0662, -0.0884, 0.0227, -0.0125, 1308, 95460, -0.1910, 0.5361, -0.2877, 0.0000, 0.5590, 0.5361, -0.2877, 0.0000, 0.0000, 0.0000
0.5800, 0.0000, 0.0000, 0.0000, 0.0000, 0.0000, 0.0000, -1.0694, -0.0106, -0.0662, -0.0885, 0.0226, -0.0127, 1309, 95460, -0.1911, 0.5359, -0.2877, 0.0000, 0.5589, 0.5359, -0.2877, 0.0000, 0.0000, 0.0000
0.6000, 0.0000, 0.0000, 0.0000, 0.0000, 0.0000, 0.0000, -1.0695, -0.0108, -0.0662, -0.0885, 0.0227, -0.0128, 1310, 95460, -0.1913, 0.5356, -0.2878, 0.0000, 0.5587, 0.5356, -0.2878, 0.0000, 0.0000, 0.0000
0.6200, 0.0000, 0.0000, 0.0000, 0.0000, 0.0000, 0.0000, -1.0694, -0.0108, -0.0662, -0.0884, 0.0231, -0.0127, 1311, 95460, -0.1912, 0.5356, -0.2878, 0.0000, 0.5588, 0.5356, -0.2878, 0.0000, 0.0000, 0.0000
0.6400, 0.0000, 0.0000, 0.0000, 0.0000, 0.0000, 0.0000, -1.0695, -0.0106, -0.0663, -0.0886, 0.0231, -0.0126, 1312, 95460, -0.1914, 0.5355, -0.2878, 0.0000, 0.5586, 0.5355, -0.2878, 0.0000, 0.0000, 0.0000
0.6600, 0.0000, 0.0000, 0.0000, 0.0000, 0.0000, 0.0000, -1.0694, -0.0107, -0.0663, -0.0886, 0.0226, -0.0125, 1313, 95460, -0.1916, 0.5353, -0.2879, 0.0000, 0.5584, 0.5353, -0.2879, 0.0000, 0.0000, 0.0000
0.6800, 0.0000, 0.0000, 0.0000, 0.0000, 0.0000, 0.0000, -1.0694, -0.0106, -0.0662, -0.0886, 0.0224, -0.0126, 1314, 95460, -0.1916, 0.5353, -0.2878, 0.0000, 0.5584, 0.5353, -0.2878, 0.0000, 0.0000, 0.0000
0.7000, 0.0000, 0.0000, 0.0000, 0.0000, 0.0000, 0.0000, -1.0695, -0.0107, -0.0662, -0.0887, 0.0223, -0.0124, 1315, 95460, -0.1917, 0.5354, -0.2879, 0.0000, 0.5583, 0.5354, -0.2879, 0.0000, 0.0000, 0.0000
0.7200, 0.0000, 0.0000, 0.0000, 0.0000, 0.0000, 0.0000, -1.0694, -0.0106, -0.0662, -0.0885, 0.0224, -0.0128, 1316, 95460, -0.1919, 0.5352, -0.2878, 0.0000, 0.5581, 0.5352, -0.2878, 0.0000, 0.0000, 0.0000
0.7400, 0.0000, 0.0000, 0.0000, 0.0000, 0.0000, 0.0000, -1.0694, -0.0108, -0.0663, -0.0884, 0.0226, -0.0118, 1317, 95460, -0.1920, 0.5351, -0.2879, 0.0000, 0.5580, 0.5351, -0.2879, 0.0000, 0.0000, 0.0000
0.7600, 0.0000, 0.0000, 0.0000, 0.0000, 0.0000, 0.0000, -1.0695, -0.0107, -0.0663, -0.0887, 0.0229, -0.0123, 1318, 95460, -0.1921, 0.5351, -0.2878, 0.0000, 0.5579, 0.5351, -0.2878, 0.0000, 0.0000, 0.0000
0.7800, 0.0000, 0.0000, 0.0000, 0.0000, 0.0000, 0.0000, -1.0695, -0.0106, -0.0662, -0.0887, 0.0225, -0.0123, 1319, 95460, -0.1922, 0.5352, -0.2877, 0.0000, 0.5578, 0.5352, -0.2877, 0.0000, 0.0000, 0.0000
0.8000, 0.0000, 0.0000, 0.0000, 0.0000, 0.0000, 0.0000, -1.0695, -0.0107, -0.0663, -0.0885, 0.0227, -0.0126, 1320, 95460, -0.1923, 0.5351, -0.2878, 0.0000, 0.5577, 0.5351, -0.2878, 0.0000, 0.0000, 0.0000
0.8200, 0.0000, 0.0000, 0.0000, 0.0000, 0.0000, 0.0000, -1.0695, -0.0107, -0.0663, -0.0885, 0.0227, -0.0131, 1321, 95460, -0.1923, 0.5351, -0.2877, 0.0000, 0.5577, 0.5351, -0.2877, 0.0000, 0.0000, 0.0000
0.8400, 0.0000, 0.0000, 0.0000, 0.0000, 0.0000, 0.0000, -1.0694, -0.0108, -0.0662, -0.0884, 0.0229, -0.0124, 1322, 95460, -0.1923, 0.5352, -0.2877, 0.0000, 0.5577, 0.5352, -0.2877, 0.0000, 0.0000, 0.0000
0.8600, 0.0000, 0.0000, 0.0000, 0.0000, 0.0000, 0.0000, -1.0694, -0.0107, -0.0663, -0.0886, 0.0227, -0.0126, 1323, 95460, -0.1924, 0.5352, -0.2878, 0.0000, 0.5576, 0.5352, -0.2878, 0.0000, 0.0000, 0.0000
0.8800, 0.0000, 0.0000, 0.0000, 0.0000, 0.0000, 0.0000, -1.0695, -0.0106, -0.0663, -0.0887, 0.0227, -0.0124, 1324, 95460, -0.1924, 0.5353, -0.2878, 0.0000, 0.5576, 0.5353, -0.2878, 0.0000, 0.0000, 0.0000
0.9000, 0.0000, 0.0000, 0.0000, 0.0000, 0.0000, 0.0000, -1.0695, -0.0108, -0.0663, -0.0884, 0.0229, -0.0126, 1325, 95460, -0.1923, 0.5352, -0.2879, 0.0000, 0.5577, 0.5352, -0.2879, 0.0000, 0.0000, 0.0000
0.9200, 0.0000, 0.0000, 0.0000, 0.0000, 0.0000, 0.0000, -1.0695, -0.0106, -0.0662, -0.0885, 0.0226, -0.0127, 1326, 95460, -0.1924, 0.5355, -0.2880, 0.0000, 0.5576, 0.5355, -0.2880, 0.0000, 0.0000, 0.0000
0.9390, 0.0000, 0.0000, 0.0000, 0.0000, 0.0000, 0.0000, -1.0694, -0.0107, -0.0662, -0.0884, 0.0227, -0.0126, 1327, 95460, -0.1924, 0.5356, -0.2880, 0.0000, 0.5576, 0.5356, -0.2880, 0.0000, 0.0000, 0.0000
0.9600, 0.0000, 0.0000, 0.0000, 0.0000, 0.0000, 0.0000, -1.0694, -0.0108, -0.0663, -0.0886, 0.0229, -0.0124, 1328, 95460, -0.1923, 0.5357, -0.2881, 0.0000, 0.5577, 0.5357, -0.2881, 0.0000, 0.0000, 0.0000
0.9800, 0.0000, 0.0000, 0.0000, 0.0000, 0.0000, 0.0000, -1.0694, -0.0107, -0.0662, -0.0885, 0.0227, -0.0125, 1329, 95460, -0.1924, 0.5358, -0.2881, 0.0000, 0.5576, 0.5358, -0.2881, 0.0000, 0.0000, 0.0000
1.0000, 0.0000, 0.0000, 0.0000, 0.0000, 0.0000, 0.0000, -1.0694, -0.0107, -0.0662, -0.0885, 0.0226, -0.0127, 1330, 95460, -0.1923, 0.5360, -0.2883, 0.0000, 0.5577, 0.5360, -0.2883, 0.0000, 0.0000, 0.0000
1.0200, 0.0000, 0.0000, 0.0000, 0.0000, 0.0000, 0.0000, -1.0694, -0.0106, -0.0662, -0.0886, 0.0225, -0.0125, 1331, 95460, -0.1922, 0.5362, -0.2883, 0.0000, 0.5578, 0.5362, -0.2883, 0.0000, 0.0000, 0.0000
1.0400, 0.0000, 0.0000, 0.0000, 0.0000, 0.0000, 0.0000, -1.0694, -0.0108, -0.0662, -0.0885, 0.0226, -0.0126, 1332, 95460, -0.1921, 0.5362, -0.2886, 0.0000, 0.5579, 0.5362, -0.2886, 0.0000, 0.0000, 0.0000
1.0600, 0.0000, 0.0000, 0.0000, 0.0000, 0.0000, 0.0000, -1.0694, -0.0107, -0.0662, -0.0884, 0.0225, -0.0126, 1333, 95460, -0.1922, 0.5364, -0.2888, 0.0000, 0.5578, 0.5364, -0.2888, 0.0000, 0.0000, 0.0000
1.0790, 0.0000, 0.0000, 0.0000, 0.0000, 0.0000, 0.0000, -1.0694, -0.0106, -0.0662, -0.0887, 0.0226, -0.0119, 1334, 95460, -0.1920, 0.5366, -0.2889, 0.0000, 0.5580, 0.5366, -0.2889, 0.0000, 0.0000, 0.0000
1.0990, 0.0000, 0.0000, 0.0000, 0.0000, 0.0000, 0.0000, -1.0695, -0.0107, -0.0663, -0.0887, 0.0230, -0.0125, 1335, 95460, -0.1920, 0.5367, -0.2890, 0.0000, 0.5580, 0.5367, -0.2890, 0.0000, 0.0000, 0.0000
1.1190, 0.0000, 0.0000, 0.0000, 0.0000, 0.0000, 0.0000, -1.0695, -0.0106, -0.0663, -0.0886, 0.0229, -0.0125, 1336, 95460, -0.1920, 0.5367, -0.2892, 0.0000, 0.5580, 0.5367, -0.2892, 0.0000, 0.0000, 0.0000
1.1390, 0.0000, 0.0000, 0.0000, 0.0000, 0.0000, 0.0000, -1.0694, -0.0107, -0.0662, -0.0886, 0.0229, -0.0125, 1337, 95460, -0.1919, 0.5369, -0.2892, 0.0000, 0.5581, 0.5369, -0.2892, 0.0000, 0.0000, 0.0000
1.1590, 0.0000, 0.0000, 0.0000, 0.0000, 0.0000, 0.0000, -1.0694, -0.0106, -0.0662, -0.0885, 0.0230, -0.0132, 1338, 95460, -0.1919, 0.5370, -0.2894, 0.0000, 0.5581, 0.5370, -0.2894, 0.0000, 0.0000, 0.0000
1.1790, 0.0000, 0.0000, 0.0000, 0.0000, 0.0000, 0.0000, -1.0694, -0.0107, -0.0663, -0.0885, 0.0227, -0.0118, 1339, 95460, -0.1919, 0.5371, -0.2894, 0.0000, 0.5581, 0.5371, -0.2894, 0.0000, 0.0000, 0.0000
1.1990, 0.0000, 0.0000, 0.0000, 0.0000, 0.0000, 0.0000, -1.0695, -0.0107, -0.0662, -0.0886, 0.0231, -0.0127, 1340, 95460, -0.1919, 0.5372, -0.2894, 0.0000, 0.5581, 0.5372, -0.2894, 0.0000, 0.0000, 0.0000
1.2190, 0.0000, 0.0000, 0.0000, 0.0000, 0.0000, 0.0000, -1.0695, -0.0106, -0.0662, -0.0886, 0.0229, -0.0125, 1341, 95460, -0.1919, 0.5374, -0.2894, 0.0000, 0.5581, 0.5374, -0.2894, 0.0000, 0.0000, 0.0000
1.2390, 0.0000, 0.0000, 0.0000, 0.0000, 0.0000, 0.0000, -1.0694, -0.0106, -0.0662, -0.0885, 0.0229, -0.0125, 1342, 95460, -0.1918, 0.5376, -0.2894, 0.0000, 0.5582, 0.5376, -0.2894, 0.0000, 0.0000, 0.0000
1.2590, 0.0000, 0.0000, 0.0000, 0.0000, 0.0000, 0.0000, -1.0695, -0.0107, -0.0662, -0.0885, 0.0228, -0.0131, 1343, 95460, -0.1919, 0.5376, -0.2894, 0.0000, 0.5581, 0.5376, -0.2894, 0.0000, 0.0000, 0.0000
1.2800, 0.0000, 0.0000, 0.0000, 0.0000, 0.0000, 0.0000, -1.0694, -0.0108, -0.0662, -0.0885, 0.0228, -0.0124, 1344, 95460, -0.1920, 0.5377, -0.2893, 0.0000, 0.5580, 0.5377, -0.2893, 0.0000, 0.0000, 0.0000
1.3000, 0.0000, 0.0000, 0.0000, 0.0000, 0.0000, 0.0000, -1.0695, -0.0106, -0.0662, -0.0888, 0.0228, -0.0129, 1345, 95460, -0.1920, 0.5378, -0.2891, 0.0000, 0.5580, 0.5378, -0.2891, 0.0000, 0.0000, 0.0000
1.3200, 0.0000, 0.0000, 0.0000, 0.0000, 0.0000, 0.0000, -1.0694, -0.0106, -0.0663, -0.0886, 0.0225, -0.0125, 1346, 95460, -0.1920, 0.5379, -0.2891, 0.0000, 0.5580, 0.5379, -0.2891, 0.0000, 0.0000, 0.0000
1.3390, 0.0000, 0.0000, 0.0000, 0.0000, 0.0000, 0.0000, -1.0694, -0.0108, -0.0662, -0.0885, 0.0224, -0.0128, 1347, 95460, -0.1921, 0.5379, -0.2890, 0.0000, 0.5579, 0.5379, -0.2890, 0.0000, 0.0000, 0.0000
1.3590, 0.0000, 0.0000, 0.0000, 0.0000, 0.0000, 0.0000, -1.0695, -0.0106, -0.0662, -0.0887, 0.0227, -0.0131, 1348, 95460, -0.1923, 0.5380, -0.2888, 0.0000, 0.5577, 0.5380, -0.2888, 0.0000, 0.0000, 0.0000
1.3790, 0.0000, 0.0000, 0.0000, 0.0000, 0.0000, 0.0000, -1.0694, -0.0107, -0.0662, -0.0885, 0.0224, -0.0128, 1349, 95460, -0.1923, 0.5382, -0.2888, 0.0000, 0.5577, 0.5382, -0.2888, 0.0000, 0.0000, 0.0000
1.4000, 0.0000, 0.0000, 0.0000, 0.0000, 0.0000, 0.0000, -1.0694, -0.0107, -0.0662, -0.0886, 0.0228, -0.0125, 1350, 95460, -0.1925, 0.5382, -0.2889, 0.0000, 0.5575, 0.5382, -0.2889, 0.0000, 0.0000, 0.0000
1.4200, 0.0000, 0.0000, 0.0000, 0.0000, 0.0000, 0.0000, -1.0695, -0.0107, -0.0662, -0.0885, 0.0227, -0.0124, 1351, 95460, -0.1925, 0.5382, -0.2889, 0.0000, 0.5575, 0.5382, -0.2889, 0.0000, 0.0000, 0.0000
1.4400, 0.0000, 0.0000, 0.0000, 0.0000, 0.0000, 0.0000, -1.0695, -0.0107, -0.0662, -0.0884, 0.0227, -0.0130, 1352, 95460, -0.1927, 0.5384, -0.2888, 0.0000, 0.5573, 0.5384, -0.2888, 0.0000, 0.0000, 0.0000
1.4590, 0.0000, 0.0000, 0.0000, 0.0000, 0.0000, 0.0000, -1.0695, -0.0106, -0.0662, -0.0885, 0.0227, -0.0127, 1353, 95460, -0.1928, 0.5385, -0.2888, 0.0000, 0.5572, 0.5385, -0.2888, 0.0000, 0.0000, 0.0000
1.4790, 0.0000, 0.0000, 0.0000, 0.0000, 0.0000, 0.0000, -1.0694, -0.0108, -0.0662, -0.0883, 0.0222, -0.0128, 1354, 95460, -0.1931, 0.5383, -0.2889, 0.0000, 0.5569, 0.5383, -0.2889, 0.0000, 0.0000, 0.0000
1.4990, 0.0000, 0.0000, 0.0000, 0.0000, 0.0000, 0.0000, -1.0694, -0.0107, -0.0662, -0.0882, 0.0230, -0.0126, 1355, 95460, -0.1932, 0.5384, -0.2888, 0.0000, 0.5568, 0.5384, -0.2888, 0.0000, 0.0000, 0.0000
1.5190, 0.0000, 0.0000, 0.0000, 0.0000, 0.0000, 0.0000, -1.0694, -0.0106, -0.0662, -0.0885, 0.0228, -0.0123, 1356, 95460, -0.1934, 0.5385, -0.2890, 0.0000, 0.5566, 0.5385, -0.2890, 0.0000, 0.0000, 0.0000
1.5390, 0.0000, 0.0000, 0.0000, 0.0000, 0.0000, 0.0000, -1.0694, -0.0107, -0.0662, -0.0886, 0.0228, -0.0126, 1357, 95460, -0.1937, 0.5384, -0.2892, 0.0000, 0.5563, 0.5384, -0.2892, 0.0000, 0.0000, 0.0000
1.5600, 0.0000, 0.0000, 0.0000, 0.0000, 0.0000, 0.0000, -1.0694, -0.0106, -0.0662, -0.0886, 0.0228, -0.0124, 1358, 95460, -0.1939, 0.5384, -0.2893, 0.0000, 0.5561, 0.5384, -0.2893, 0.0000, 0.0000, 0.0000
1.5800, 0.0000, 0.0000, 0.0000, 0.0000, 0.0000, 0.0000, -1.0694, -0.0107, -0.0662, -0.0885, 0.0224, -0.0127, 1359, 95460, -0.1941, 0.5385, -0.2896, 0.0000, 0.5559, 0.5385, -0.2896, 0.0000, 0.0000, 0.0000
1.6000, 0.0000, 0.0000, 0.0000, 0.0000, 0.0000, 0.0000, -1.0694, -0.0106, -0.0662, -0.0884, 0.0229, -0.0131, 1360, 95460, -0.1944, 0.5385, -0.2897, 0.0000, 0.5556, 0.5385, -0.2897, 0.0000, 0.0000, 0.0000
1.6200, 0.0000, 0.0000, 0.0000, 0.0000, 0.0000, 0.0000, -1.0695, -0.0108, -0.0663, -0.0887, 0.0228, -0.0121, 1361, 95460, -0.1946, 0.5385, -0.2901, 0.0000, 0.5554, 0.5385, -0.2901, 0.0000, 0.0000, 0.0000
1.6400, 0.0000, 0.0000, 0.0000, 0.0000, 0.0000, 0.0000, -1.0694, -0.0108, -0.0662, -0.0888, 0.0227, -0.0127, 1362, 95460, -0.1949, 0.5383, -0.2903, 0.0000, 0.5551, 0.5383, -0.2903, 0.0000, 0.0000, 0.0000
1.6600, 0.0000, 0.0000, 0.0000, 0.0000, 0.0000, 0.0000, -1.0694, -0.0105, -0.0662, -0.0888, 0.0226, -0.0122, 1363, 95460, -0.1951, 0.5385, -0.2903, 0.0000, 0.5549, 0.5385, -0.2903, 0.0000, 0.0000, 0.0000
1.6800, 0.0000, 0.0000, 0.0000, 0.0000, 0.0000, 0.0000, -1.0694, -0.0106, -0.0663, -0.0885, 0.0224, -0.0125, 1364, 95460, -0.1954, 0.5384, -0.2907, 0.0000, 0.5546, 0.5384, -0.2907, 0.0000, 0.0000, 0.0000
1.7000, 0.0000, 0.0000, 0.0000, 0.0000, 0.0000, 0.0000, -1.0694, -0.0107, -0.0662, -0.0886, 0.0225, -0.0129, 1365, 95460, -0.1957, 0.5382, -0.2910, 0.0000, 0.5543, 0.5382, -0.2910, 0.0000, 0.0000, 0.0000
1.7200, 0.0000, 0.0000, 0.0000, 0.0000, 0.0000, 0.0000, -1.0694, -0.0108, -0.0663, -0.0886, 0.0227, -0.0118, 1366, 95460, -0.1960, 0.5383, -0.2913, 0.0000, 0.5540, 0.5383, -0.2913, 0.0000, 0.0000, 0.0000
1.7400, 0.0000, 0.0000, 0.0000, 0.0000, 0.0000, 0.0000, -1.0694, -0.0106, -0.0662, -0.0885, 0.0225, -0.0124, 1367, 95460, -0.1963, 0.5383, -0.2916, 0.0000, 0.5537, 0.5383, -0.2916, 0.0000, 0.0000, 0.0000
1.7600, 0.0000, 0.0000, 0.0000, 0.0000, 0.0000, 0.0000, -1.0694, -0.0106, -0.0663, -0.0885, 0.0224, -0.0123, 1368, 95460, -0.1966, 0.5382, -0.2919, 0.0000, 0.5534, 0.5382, -0.2919, 0.0000, 0.0000, 0.0000
1.7800, 0.0000, 0.0000, 0.0000, 0.0000, 0.0000, 0.0000, -1.0695, -0.0108, -0.0662, -0.0885, 0.0226, -0.0125, 1369, 95460, -0.1970, 0.5381, -0.2921, 0.0000, 0.5530, 0.5381, -0.2921, 0.0000, 0.0000, 0.0000
1.8000, 0.0000, 0.0000, 0.0000, 0.0000, 0.0000, 0.0000, -1.0694, -0.0106, -0.0662, -0.0886, 0.0225, -0.0128, 1370, 95460, -0.1971, 0.5382, -0.2923, 0.0000, 0.5529, 0.5382, -0.2923, 0.0000, 0.0000, 0.0000
1.8200, 0.0000, 0.0000, 0.0000, 0.0000, 0.0000, 0.0000, -1.0694, -0.0107, -0.0662, -0.0884, 0.0224, -0.0120, 1371, 95460, -0.1975, 0.5381, -0.2926, 0.0000, 0.5525, 0.5381, -0.2926, 0.0000, 0.0000, 0.0000
1.8400, 0.0000, 0.0000, 0.0000, 0.0000, 0.0000, 0.0000, -1.0695, -0.0107, -0.0663, -0.0887, 0.0226, -0.0127, 1372, 95460, -0.1978, 0.5379, -0.2929, 0.0000, 0.5522, 0.5379, -0.2929, 0.0000, 0.0000, 0.0000
1.8600, 0.0000, 0.0000, 0.0000, 0.0000, 0.0000, 0.0000, -1.0694, -0.0107, -0.0663, -0.0887, 0.0227, -0.0122, 1373, 95460, -0.1981, 0.5380, -0.2930, 0.0000, 0.5519, 0.5380, -0.2930, 0.0000, 0.0000, 0.0000
1.8800, 0.0000, 0.0000, 0.0000, 0.0000, 0.0000, 0.0000, -1.0695, -0.0107, -0.0662, -0.0886, 0.0226, -0.0130, 1374, 95460, -0.1985, 0.5380, -0.2934, 0.0000, 0.5515, 0.5380, -0.2934, 0.0000, 0.0000, 0.0000
1.9000, 0.0000, 0.0000, 0.0000, 0.0000, 0.0000, 0.0000, -1.0694, -0.0106, -0.0662, -0.0887, 0.0224, -0.0129, 1375, 95460, -0.1989, 0.5380, -0.2936, 0.0000, 0.5511, 0.5380, -0.2936, 0.0000, 0.0000, 0.0000
1.9200, 0.0000, 0.0000, 0.0000, 0.0000, 0.0000, 0.0000, -1.0694, -0.0108, -0.0663, -0.0884, 0.0228, -0.0128, 1376, 95460, -0.1992, 0.5378, -0.2938, 0.0000, 0.5508, 0.5378, -0.2938, 0.0000, 0.0000, 0.0000
1.9400, 0.0000, 0.0000, 0.0000, 0.0000, 0.0000, 0.0000, -1.0695, -0.0108, -0.0662, -0.0887, 0.0228, -0.0126, 1377, 95460, -0.1995, 0.5378, -0.2941, 0.0000, 0.5505, 0.5378, -0.2941, 0.0000, 0.0000, 0.0000
1.9600, 0.0000, 0.0000, 0.0000, 0.0000, 0.0000, 0.0000, -1.0694, -0.0106, -0.0662, -0.0887, 0.0227, -0.0126, 1378, 95460, -0.1997, 0.5378, -0.2943, 0.0000, 0.5503, 0.5378, -0.2943, 0.0000, 0.0000, 0.0000
1.9800, 0.0000, 0.0000, 0.0000, 0.0000, 0.0000, 0.0000, -1.0695, -0.0107, -0.0662, -0.0886, 0.0226, -0.0127, 1379, 95460, -0.2000, 0.5377, -0.2945, 0.0000, 0.5500, 0.5377, -0.2945, 0.0000, 0.0000, 0.0000
2.0000, 0.0000, 0.0000, 0.0000, 0.0000, 0.0000, 0.0000, -1.0694, -0.0107, -0.0663, -0.0886, 0.0227, -0.0128, 1380, 95460, -0.2003, 0.5377, -0.2947, 0.0000, 0.5497, 0.5377, -0.2947, 0.0000, 0.0000, 0.0000
2.0200, 0.0000, 0.0000, 0.0000, 0.0000, 0.0000, 0.0000, -1.0695, -0.0107, -0.0662, -0.0883, 0.0228, -0.0128, 1381, 95460, -0.2006, 0.5377, -0.2949, 0.0000, 0.5494, 0.5377, -0.2949, 0.0000, 0.0000, 0.0000
2.0400, 0.0000, 0.0000, 0.0000, 0.0000, 0.0000, 0.0000, -1.0695, -0.0108, -0.0664, -0.0886, 0.0235, -0.0126, 1382, 95460, -0.2008, 0.5377, -0.2950, 0.0000, 0.5492, 0.5377, -0.2950, 0.0000, 0.0000, 0.0000
2.0600, 0.0000, 0.0000, 0.0000, 0.0000, 0.0000, 0.0000, -1.0695, -0.0107, -0.0663, -0.0887, 0.0230, -0.0123, 1383, 95460, -0.2011, 0.5376, -0.2952, 0.0000, 0.5489, 0.5376, -0.2952, 0.0000, 0.0000, 0.0000
2.0800, 0.0000, 0.0000, 0.0000, 0.0000, 0.0000, 0.0000, -1.0695, -0.0107, -0.0663, -0.0885, 0.0231, -0.0126, 1384, 95460, -0.2013, 0.5376, -0.2954, 0.0000, 0.5487, 0.5376, -0.2954, 0.0000, 0.0000, 0.0000
2.1000, 0.0000, 0.0000, 0.0000, 0.0000, 0.0000, 0.0000, -1.0694, -0.0107, -0.0662, -0.0886, 0.0228, -0.0125, 1385, 95460, -0.2015, 0.5376, -0.2957, 0.0000, 0.5485, 0.5376, -0.2957, 0.0000, 0.0000, 0.0000
2.1200, 0.0000, 0.0000, 0.0000, 0.0000, 0.0000, 0.0000, -1.0695, -0.0107, -0.0662, -0.0885, 0.0229, -0.0129, 1386, 95460, -0.2017, 0.5376, -0.2958, 0.0000, 0.5483, 0.5376, -0.2958, 0.0000, 0.0000, 0.0000
2.1400, 0.0000, 0.0000, 0.0000, 0.0000, 0.0000, 0.0000, -1.0694, -0.0108, -0.0664, -0.0883, 0.0235, -0.0125, 1387, 95460, -0.2020, 0.5374, -0.2960, 0.0000, 0.5480, 0.5374, -0.2960, 0.0000, 0.0000, 0.0000
2.1600, 0.0000, 0.0000, 0.0000, 0.0000, 0.0000, 0.0000, -1.0695, -0.0108, -0.0662, -0.0886, 0.0230, -0.0124, 1388, 95460, -0.2022, 0.5374, -0.2962, 0.0000, 0.5478, 0.5374, -0.2962, 0.0000, 0.0000, 0.0000
2.1800, 0.0000, 0.0000, 0.0000, 0.0000, 0.0000, 0.0000, -1.0695, -0.0107, -0.0663, -0.0885, 0.0233, -0.0127, 1389, 95460, -0.2023, 0.5374, -0.2962, 0.0000, 0.5477, 0.5374, -0.2962, 0.0000, 0.0000, 0.0000
2.2000, 0.0000, 0.0000, 0.0000, 0.0000, 0.0000, 0.0000, -1.0695, -0.0106, -0.0663, -0.0885, 0.0232, -0.0124, 1390, 95460, -0.2024, 0.5372, -0.2964, 0.0000, 0.5476, 0.5372, -0.2964, 0.0000, 0.0000, 0.0000
2.2200, 0.0000, 0.0000, 0.0000, 0.0000, 0.0000, 0.0000, -1.0695, -0.0108, -0.0663, -0.0885, 0.0229, -0.0126, 1391, 95460, -0.2027, 0.5370, -0.2965, 0.0000, 0.5473, 0.5370, -0.2965, 0.0000, 0.0000, 0.0000
2.2400, 0.0000, 0.0000, 0.0000, 0.0000, 0.0000, 0.0000, -1.0695, -0.0108, -0.0663, -0.0884, 0.0232, -0.0132, 1392, 95460, -0.2027, 0.5370, -0.2966, 0.0000, 0.5473, 0.5370, -0.2966, 0.0000, 0.0000, 0.0000
2.2600, 0.0000, 0.0000, 0.0000, 0.0000, 0.0000, 0.0000, -1.0695, -0.0107, -0.0662, -0.0884, 0.0228, -0.0121, 1393, 95460, -0.2028, 0.5370, -0.2966, 0.0000, 0.5472, 0.5370, -0.2966, 0.0000, 0.0000, 0.0000
2.2800, 0.0000, 0.0000, 0.0000, 0.0000, 0.0000, 0.0000, -1.0695, -0.0107, -0.0663, -0.0886, 0.0230, -0.0125, 1394, 95460, -0.2030, 0.5369, -0.2967, 0.0000, 0.5470, 0.5369, -0.2967, 0.0000, 0.0000, 0.0000
2.3000, 0.0000, 0.0000, 0.0000, 0.0000, 0.0000, 0.0000, -1.0695, -0.0107, -0.0663, -0.0887, 0.0231, -0.0122, 1395, 95460, -0.2031, 0.5368, -0.2969, 0.0000, 0.5469, 0.5368, -0.2969, 0.0000, 0.0000, 0.0000
2.3200, 0.0000, 0.0000, 0.0000, 0.0000, 0.0000, 0.0000, -1.0695, -0.0107, -0.0662, -0.0887, 0.0230, -0.0123, 1396, 95460, -0.2032, 0.5368, -0.2968, 0.0000, 0.5468, 0.5368, -0.2968, 0.0000, 0.0000, 0.0000
2.3400, 0.0000, 0.0000, 0.0000, 0.0000, 0.0000, 0.0000, -1.0694, -0.0106, -0.0662, -0.0886, 0.0229, -0.0130, 1397, 95460, -0.2033, 0.5368, -0.2970, 0.0000, 0.5467, 0.5368, -0.2970, 0.0000, 0.0000, 0.0000
2.3600, 0.0000, 0.0000, 0.0000, 0.0000, 0.0000, 0.0000, -1.0694, -0.0108, -0.0662, -0.0884, 0.0227, -0.0121, 1398, 95460, -0.2035, 0.5366, -0.2971, 0.0000, 0.5465, 0.5366, -0.2971, 0.0000, 0.0000, 0.0000
2.3800, 0.0000, 0.0000, 0.0000, 0.0000, 0.0000, 0.0000, -1.0695, -0.0107, -0.0663, -0.0887, 0.0229, -0.0119, 1399, 95460, -0.2035, 0.5367, -0.2970, 0.0000, 0.5465, 0.5367, -0.2970, 0.0000, 0.0000, 0.0000
2.4000, 0.0000, 0.0000, 0.0000, 0.0000, 0.0000, 0.0000, -1.0695, -0.0106, -0.0663, -0.0888, 0.0230, -0.0121, 1400, 95460, -0.2036, 0.5368, -0.2971, 0.0000, 0.5464, 0.5368, -0.2971, 0.0000, 0.0000, 0.0000
2.4200, 0.0000, 0.0000, 0.0000, 0.0000, 0.0000, 0.0000, -1.0695, -0.0107, -0.0662, -0.0887, 0.0228, -0.0120, 1401, 95460, -0.2038, 0.5367, -0.2971, 0.0000, 0.5462, 0.5367, -0.2971, 0.0000, 0.0000, 0.0000
2.4400, 0.0000, 0.0000, 0.0000, 0.0000, 0.0000, 0.0000, -1.0694, -0.0106, -0.0663, -0.0885, 0.0231, -0.0126, 1402, 95460, -0.2039, 0.5366, -0.2971, 0.0000, 0.5461, 0.5366, -0.2971, 0.0000, 0.0000, 0.0000
2.4600, 0.0000, 0.0000, 0.0000, 0.0000, 0.0000, 0.0000, -1.0695, -0.0107, -0.0661, -0.0884, 0.0228, -0.0123, 1403, 95460, -0.2040, 0.5367, -0.2971, 0.0000, 0.5460, 0.5367, -0.2971, 0.0000, 0.0000, 0.0000
2.4800, 0.0000, 0.0000, 0.0000, 0.0000, 0.0000, 0.0000, -1.0695, -0.0107, -0.0663, -0.0886, 0.0235, -0.0121, 1404, 95460, -0.2041, 0.5368, -0.2971, 0.0000, 0.5459, 0.5368, -0.2971, 0.0000, 0.0000, 0.0000
2.5000, 0.0000, 0.0000, 0.0000, 0.0000, 0.0000, 0.0000, -1.0695, -0.0106, -0.0663, -0.0886, 0.0231, -0.0123, 1405, 95460, -0.2043, 0.5367, -0.2971, 0.0000, 0.5457, 0.5367, -0.2971, 0.0000, 0.0000, 0.0000
2.5200, 0.0000, 0.0000, 0.0000, 0.0000, 0.0000, 0.0000, -1.0694, -0.0108, -0.0663, -0.0886, 0.0232, -0.0124, 1406, 95460, -0.2043, 0.5367, -0.2971, 0.0000, 0.5457, 0.5367, -0.2971, 0.0000, 0.0000, 0.0000
2.5400, 0.0000, 0.0000, 0.0000, 0.0000, 0.0000, 0.0000, -1.0694, -0.0105, -0.0662, -0.0885, 0.0230, -0.0123, 1407, 95460, -0.2044, 0.5370, -0.2970, 0.0000, 0.5456, 0.5370, -0.2970, 0.0000, 0.0000, 0.0000
2.5600, 0.0000, 0.0000, 0.0000, 0.0000, 0.0000, 0.0000, -1.0695, -0.0107, -0.0662, -0.0884, 0.0229, -0.0127, 1408, 95460, -0.2046, 0.5369, -0.2971, 0.0000, 0.5454, 0.5369, -0.2971, 0.0000, 0.0000, 0.0000
2.5800, 0.0000, 0.0000, 0.0000, 0.0000, 0.0000, 0.0000, -1.0694, -0.0108, -0.0663, -0.0886, 0.0233, -0.0123, 1409, 95460, -0.2048, 0.5370, -0.2970, 0.0000, 0.5452, 0.5370, -0.2970, 0.0000, 0.0000, 0.0000
2.6000, 0.0000, 0.0000, 0.0000, 0.0000, 0.0000, 0.0000, -1.0694, -0.0107, -0.0662, -0.0888, 0.0228, -0.0122, 1410, 95460, -0.2047, 0.5372, -0.2971, 0.0000, 0.5453, 0.5372, -0.2971, 0.0000, 0.0000, 0.0000
2.6200, 0.0000, 0.0000, 0.0000, 0.0000, 0.0000, 0.0000, -1.0694, -0.0106, -0.0662, -0.0887, 0.0228, -0.0122, 1411, 95460, -0.2048, 0.5374, -0.2970, 0.0000, 0.5452, 0.5374, -0.2970, 0.0000, 0.0000, 0.0000
2.6400, 0.0000, 0.0000, 0.0000, 0.0000, 0.0000, 0.0000, -1.0694, -0.0105, -0.0662, -0.0887, 0.0226, -0.0121, 1412, 95460, -0.2050, 0.5374, -0.2971, 0.0000, 0.5450, 0.5374, -0.2971, 0.0000, 0.0000, 0.0000
2.6600, 0.0000, 0.0000, 0.0000, 0.0000, 0.0000, 0.0000, -1.0695, -0.0108, -0.0663, -0.0887, 0.0229, -0.0126, 1413, 95460, -0.2051, 0.5375, -0.2971, 0.0000, 0.5449, 0.5375, -0.2971, 0.0000, 0.0000, 0.0000
2.6800, 0.0000, 0.0000, 0.0000, 0.0000, 0.0000, 0.0000, -1.0693, -0.0106, -0.0662, -0.0886, 0.0228, -0.0128, 1414, 95460, -0.2052, 0.5378, -0.2971, 0.0000, 0.5448, 0.5378, -0.2971, 0.0000, 0.0000, 0.0000
2.7000, 0.0000, 0.0000, 0.0000, 0.0000, 0.0000, 0.0000, -1.0694, -0.0106, -0.0662, -0.0887, 0.0228, -0.0116, 1415, 95460, -0.2054, 0.5380, -0.2971, 0.0000, 0.5446, 0.5380, -0.2971, 0.0000, 0.0000, 0.0000
2.7200, 0.0000, 0.0000, 0.0000, 0.0000, 0.0000, 0.0000, -1.0694, -0.0107, -0.0663, -0.0886, 0.0230, -0.0123, 1416, 95460, -0.2054, 0.5381, -0.2971, 0.0000, 0.5446, 0.5381, -0.2971, 0.0000, 0.0000, 0.0000
2.7400, 0.0000, 0.0000, 0.0000, 0.0000, 0.0000, 0.0000, -1.0695, -0.0106, -0.0663, -0.0887, 0.0228, -0.0120, 1417, 95460, -0.2055, 0.5382, -0.2970, 0.0000, 0.5445, 0.5382, -0.2970, 0.0000, 0.0000, 0.0000
2.7600, 0.0000, 0.0000, 0.0000, 0.0000, 0.0000, 0.0000, -1.0694, -0.0106, -0.0662, -0.0886, 0.0225, -0.0122, 1418, 95460, -0.2057, 0.5383, -0.2970, 0.0000, 0.5443, 0.5383, -0.2970, 0.0000, 0.0000, 0.0000
2.7800, 0.0000, 0.0000, 0.0000, 0.0000, 0.0000, 0.0000, -1.0694, -0.0106, -0.0661, -0.0886, 0.0225, -0.0125, 1419, 95460, -0.2057, 0.5385, -0.2968, 0.0000, 0.5443, 0.5385, -0.2968, 0.0000, 0.0000, 0.0000
2.8000, 0.0000, 0.0000, 0.0000, 0.0000, 0.0000, 0.0000, -1.0693, -0.0107, -0.0663, -0.0885, 0.0227, -0.0115, 1420, 95460, -0.2058, 0.5386, -0.2966, 0.0000, 0.5442, 0.5386, -0.2966, 0.0000, 0.0000, 0.0000
2.8200, 0.0000, 0.0000, 0.0000, 0.0000, 0.0000, 0.0000, -1.0694, -0.0107, -0.0663, -0.0887, 0.0229, -0.0123, 1421, 95460, -0.2059, 0.5388, -0.2964, 0.0000, 0.5441, 0.5388, -0.2964, 0.0000, 0.0000, 0.0000
2.8400, 0.0000, 0.0000, 0.0000, 0.0000, 0.0000, 0.0000, -1.0694, -0.0105, -0.0662, -0.0889, 0.0224, -0.0123, 1422, 95460, -0.2059, 0.5390, -0.2962, 0.0000, 0.5441, 0.5390, -0.2962, 0.0000, 0.0000, 0.0000
2.8600, 0.0000, 0.0000, 0.0000, 0.0000, 0.0000, 0.0000, -1.0694, -0.0107, -0.0662, -0.0888, 0.0224, -0.0122, 1423, 95460, -0.2060, 0.5392, -0.2961, 0.0000, 0.5440, 0.5392, -0.2961, 0.0000, 0.0000, 0.0000
2.8800, 0.0000, 0.0000, 0.0000, 0.0000, 0.0000, 0.0000, -1.0694, -0.0106, -0.0662, -0.0887, 0.0227, -0.0127, 1424, 95460, -0.2059, 0.5394, -0.2960, 0.0000, 0.5441, 0.5394, -0.2960, 0.0000, 0.0000, 0.0000
2.9000, 0.0000, 0.0000, 0.0000, 0.0000, 0.0000, 0.0000, -1.0694, -0.0107, -0.0662, -0.0886, 0.0229, -0.0122, 1425, 95460, -0.2060, 0.5395, -0.2958, 0.0000, 0.5440, 0.5395, -0.2958, 0.0000, 0.0000, 0.0000
2.9200, 0.0000, 0.0000, 0.0000, 0.0000, 0.0000, 0.0000, -1.0694, -0.0106, -0.0663, -0.0888, 0.0228, -0.0123, 1426, 95460, -0.2060, 0.5397, -0.2959, 0.0000, 0.5440, 0.5397, -0.2959, 0.0000, 0.0000, 0.0000
2.9400, 0.0000, 0.0000, 0.0000, 0.0000, 0.0000, 0.0000, -1.0694, -0.0106, -0.0662, -0.0887, 0.0223, -0.0117, 1427, 95460, -0.2060, 0.5398, -0.2958, 0.0000, 0.5440, 0.5398, -0.2958, 0.0000, 0.0000, 0.0000
2.9600, 0.0000, 0.0000, 0.0000, 0.0000, 0.0000, 0.0000, -1.0694, -0.0107, -0.0662, -0.0885, 0.0224, -0.0122, 1428, 95460, -0.2060, 0.5398, -0.2958, 0.0000, 0.5440, 0.5398, -0.2958, 0.0000, 0.0000, 0.0000
2.9800, 0.0000, 0.0000, 0.0000, 0.0000, 0.0000, 0.0000, -1.0694, -0.0106, -0.0662, -0.0885, 0.0225, -0.0124, 1429, 95460, -0.2061, 0.5401, -0.2958, 0.0000, 0.5439, 0.5401, -0.2958, 0.0000, 0.0000, 0.0000
3.0000, 0.0000, 0.0000, 0.0000, 0.0000, 0.0000, 0.0000, -1.0693, -0.0106, -0.0661, -0.0883, 0.0224, -0.0126, 1430, 95460, -0.2061, 0.5402, -0.2957, 0.0000, 0.5439, 0.5402, -0.2957, 0.0000, 0.0000, 0.0000
3.0200, 0.0000, 0.0000, 0.0000, 0.0000, 0.0000, 0.0000, -1.0694, -0.0107, -0.0662, -0.0885, 0.0229, -0.0121, 1431, 95460, -0.2060, 0.5403, -0.2957, 0.0000, 0.5440, 0.5403, -0.2957, 0.0000, 0.0000, 0.0000
3.0400, 0.0000, 0.0000, 0.0000, 0.0000, 0.0000, 0.0000, -1.0693, -0.0106, -0.0662, -0.0887, 0.0223, -0.0121, 1432, 95460, -0.2059, 0.5403, -0.2956, 0.0000, 0.5441, 0.5403, -0.2956, 0.0000, 0.0000, 0.0000
3.0590, 0.0000, 0.0000, 0.0000, 0.0000, 0.0000, 0.0000, -1.0693, -0.0106, -0.0661, -0.0886, 0.0225, -0.0123, 1433, 95460, -0.2057, 0.5405, -0.2953, 0.0000, 0.5443, 0.5405, -0.2953, 0.0000, 0.0000, 0.0000
3.0790, 0.0000, 0.0000, 0.0000, 0.0000, 0.0000, 0.0000, -1.0693, -0.0105, -0.0662, -0.0887, 0.0226, -0.0123, 1434, 95460, -0.2056, 0.5405, -0.2952, 0.0000, 0.5444, 0.5405, -0.2952, 0.0000, 0.0000, 0.0000
3.0990, 0.0000, 0.0000, 0.0000, 0.0000, 0.0000, 0.0000, -1.0693, -0.0107, -0.0661, -0.0887, 0.0224, -0.0121, 1435, 95460, -0.2056, 0.5404, -0.2950, 0.0000, 0.5444, 0.5404, -0.2950, 0.0000, 0.0000, 0.0000
3.1200, 0.0000, 0.0000, 0.0000, 0.0000, 0.0000, 0.0000, -1.0693, -0.0106, -0.0661, -0.0887, 0.0226, -0.0124, 1436, 95460, -0.2054, 0.5406, -0.2949, 0.0000, 0.5446, 0.5406, -0.2949, 0.0000, 0.0000, 0.0000
3.1400, 0.0000, 0.0000, 0.0000, 0.0000, 0.0000, 0.0000, -1.0693, -0.0106, -0.0662, -0.0887, 0.0225, -0.0119, 1437, 95460, -0.2052, 0.5407, -0.2947, 0.0000, 0.5448, 0.5407, -0.2947, 0.0000, 0.0000, 0.0000
3.1600, 0.0000, 0.0000, 0.0000, 0.0000, 0.0000, 0.0000, -1.0694, -0.0106, -0.0662, -0.0887, 0.0229, -0.0125, 1438, 95460, -0.2050, 0.5407, -0.2945, 0.0000, 0.5450, 0.5407, -0.2945, 0.0000, 0.0000, 0.0000
3.1800, 0.0000, 0.0000, 0.0000, 0.0000, 0.0000, 0.0000, -1.0694, -0.0106, -0.0662, -0.0886, 0.0229, -0.0121, 1439, 95460, -0.2049, 0.5407, -0.2943, 0.0000, 0.5451, 0.5407, -0.2943, 0.0000, 0.0000, 0.0000
3.2000, 0.0000, 0.0000, 0.0000, 0.0000, 0.0000, 0.0000, -1.0693, -0.0106, -0.0662, -0.0886, 0.0226, -0.0121, 1440, 95460, -0.2047, 0.5408, -0.2941, 0.0000, 0.5453, 0.5408, -0.2941, 0.0000, 0.0000, 0.0000
3.2200, 0.0000, 0.0000, 0.0000, 0.0000, 0.0000, 0.0000, -1.0693, -0.0105, -0.0661, -0.0886, 0.0226, -0.0126, 1441, 95460, -0.2044, 0.5410, -0.2939, 0.0000, 0.5456, 0.5410, -0.2939, 0.0000, 0.0000, 0.0000
3.2400, 0.0000, 0.0000, 0.0000, 0.0000, 0.0000, 0.0000, -1.0693, -0.0106, -0.0663, -0.0879, 0.0225, -0.0119, 1442, 95460, -0.2043, 0.5408, -0.2938, 0.0000, 0.5457, 0.5408, -0.2938, 0.0000, 0.0000, 0.0000
3.2600, 0.0000, 0.0000, 0.0000, 0.0000, 0.0000, 0.0000, -1.0691, -0.0106, -0.0664, -0.0862, 0.0214, -0.0123, 1443, 95460, -0.2040, 0.5409, -0.2934, 0.0000, 0.5460, 0.5409, -0.2934, 0.0000, 0.0000, 0.0000
3.2800, 0.0000, 0.0000, 0.0000, 0.0000, 0.0000, 0.0000, -1.0691, -0.0105, -0.0669, -0.0841, 0.0177, -0.0113, 1444, 95460, -0.2036, 0.5411, -0.2932, 0.0000, 0.5464, 0.5411, -0.2932, 0.0000, 0.0000, 0.0000
3.3000, 0.0000, 0.0000, 0.0000, 0.0000, 0.0000, 0.0000, -1.0687, -0.0106, -0.0678, -0.0818, 0.0116, -0.0103, 1445, 95460, -0.2034, 0.5411, -0.2931, 0.0000, 0.5466, 0.5411, -0.2931, 0.0000, 0.0000, 0.0000
3.3200, 0.0000, 0.0000, 0.0000, 0.0000, 0.0000, 0.0000, -1.0684, -0.0107, -0.0686, -0.0783, 0.0024, -0.0076, 1446, 95460, -0.2032, 0.5409, -0.2928, 0.0000, 0.5468, 0.5409, -0.2928, 0.0000, 0.0000, 0.0000
3.3400, 0.0000, 0.0000, 0.0000, 0.0000, 0.0000, 0.0000, -1.0674, -0.0103, -0.0700, -0.0756, -0.0127, 0.0016, 1447, 95460, -0.2028, 0.5410, -0.2927, 0.0000, 0.5472, 0.5410, -0.2927, 0.0000, 0.0000, 0.0000
3.3600, 0.0000, 0.0000, 0.0000, 0.0000, 0.0000, 0.0000, -1.0650, -0.0091, -0.0720, -0.0710, -0.0433, 0.0204, 1448, 95460, -0.2025, 0.5411, -0.2926, 0.0000, 0.5475, 0.5411, -0.2926, 0.0000, 0.0000, 0.0000
3.3800, 0.0000, 0.0000, 0.0000, 0.0000, 0.0000, 0.0000, -1.0614, -0.0082, -0.0751, -0.0643, -0.0872, 0.0493, 1449, 95460, -0.2022, 0.5410, -0.2926, 0.0000, 0.5478, 0.5410, -0.2926, 0.0000, 0.0000, 0.0000
3.4000, 0.0000, 0.0000, 0.0000, 0.0000, 0.0000, 0.0000, -1.0572, -0.0062, -0.0778, -0.0579, -0.1337, 0.0781, 1450, 95460, -0.2019, 0.5409, -0.2926, 0.0000, 0.5481, 0.5409, -0.2926, 0.0000, 0.0000, 0.0000
3.4200, 0.0000, 0.0000, 0.0000, 0.0000, 0.0000, 0.0000, -1.0554, -0.0049, -0.0848, -0.0601, -0.1184, 0.0962, 1451, 95460, -0.2016, 0.5411, -0.2926, 0.0000, 0.5484, 0.5411, -0.2926, 0.0000, 0.0000, 0.0000
3.4400, 0.0000, 0.0000, 0.0000, 0.0000, 0.0000, 0.0000, -1.0529, -0.0028, -0.0897, -0.0567, -0.1187, 0.1151, 1452, 95460, -0.2013, 0.5411, -0.2927, 0.0000, 0.5487, 0.5411, -0.2927, 0.0000, 0.0000, 0.0000
3.4600, 0.0000, 0.0000, 0.0000, 0.0000, 0.0000, 0.0000, -1.0485, -0.0008, -0.0975, -0.0555, -0.1258, 0.1273, 1453, 95460, -0.2010, 0.5408, -0.2928, 0.0000, 0.5490, 0.5408, -0.2928, 0.0000, 0.0000, 0.0000
3.4800, 0.0000, 0.0000, 0.0000, 0.0000, 0.0000, 0.0000, -1.0433, 0.0017, -0.1058, -0.0530, -0.1452, 0.1418, 1454, 95460, -0.2007, 0.5409, -0.2927, 0.0000, 0.5493, 0.5409, -0.2927, 0.0000, 0.0000, 0.0000
3.5000, 0.0000, 0.0000, 0.0000, 0.0000, 0.0000, 0.0000, -1.0367, 0.0050, -0.1140, -0.0515, -0.1656, 0.1539, 1455, 95460, -0.2003, 0.5409, -0.2927, 0.0000, 0.5497, 0.5409, -0.2927, 0.0000, 0.0000, 0.0000
3.5200, 0.0000, 0.0000, 0.0000, 0.0000, 0.0000, 0.0000, -1.0296, 0.0082, -0.1228, -0.0491, -0.1873, 0.1630, 1456, 95460, -0.2001, 0.5407, -0.2927, 0.0000, 0.5499, 0.5407, -0.2927, 0.0000, 0.0000, 0.0000
3.5400, 0.0000, 0.0000, 0.0000, 0.0000, 0.0000, 0.0000, -1.0220, 0.0121, -0.1321, -0.0472, -0.2052, 0.1688, 1457, 95460, -0.1998, 0.5405, -0.2929, 0.0000, 0.5502, 0.5405, -0.2929, 0.0000, 0.0000, 0.0000
3.5600, 0.0000, 0.0000, 0.0000, 0.0000, 0.0000, 0.0000, -1.0134, 0.0167, -0.1410, -0.0454, -0.2207, 0.1735, 1458, 95460, -0.1996, 0.5405, -0.2929, 0.0000, 0.5504, 0.5405, -0.2929, 0.0000, 0.0000, 0.0000
3.5790, 0.0000, 0.0000, 0.0000, 0.0000, 0.0000, 0.0000, -1.0043, 0.0215, -0.1498, -0.0441, -0.2346, 0.1756, 1459, 95460, -0.1993, 0.5406, -0.2931, 0.0000, 0.5507, 0.5406, -0.2931, 0.0000, 0.0000, 0.0000
3.6000, 0.0000, 0.0000, 0.0000, 0.0000, 0.0000, 0.0000, -0.9946, 0.0271, -0.1589, -0.0438, -0.2416, 0.1792, 1460, 95460, -0.1992, 0.5403, -0.2934, 0.0000, 0.5508, 0.5403, -0.2934, 0.0000, 0.0000, 0.0000
3.6200, 0.0000, 0.0000, 0.0000, 0.0000, 0.0000, 0.0000, -0.9842, 0.0330, -0.1669, -0.0427, -0.2428, 0.1798, 1461, 95460, -0.1989, 0.5401, -0.2934, 0.0000, 0.5511, 0.5401, -0.2934, 0.0000, 0.0000, 0.0000
3.6390, 0.0000, 0.0000, 0.0000, 0.0000, 0.0000, 0.0000, -0.9731, 0.0395, -0.1750, -0.0424, -0.2391, 0.1782, 1462, 95460, -0.1988, 0.5402, -0.2936, 0.0000, 0.5512, 0.5402, -0.2936, 0.0000, 0.0000, 0.0000
3.6590, 0.0000, 0.0000, 0.0000, 0.0000, 0.0000, 0.0000, -0.9616, 0.0465, -0.1823, -0.0425, -0.2338, 0.1744, 1463, 95460, -0.1987, 0.5401, -0.2937, 0.0000, 0.5513, 0.5401, -0.2937, 0.0000, 0.0000, 0.0000
3.6790, 0.0000, 0.0000, 0.0000, 0.0000, 0.0000, 0.0000, -0.9490, 0.0537, -0.1893, -0.0425, -0.2264, 0.1702, 1464, 95460, -0.1984, 0.5398, -0.2937, 0.0000, 0.5516, 0.5398, -0.2937, 0.0000, 0.0000, 0.0000
3.7000, 0.0000, 0.0000, 0.0000, 0.0000, 0.0000, 0.0000, -0.9357, 0.0616, -0.1954, -0.0429, -0.2188, 0.1643, 1465, 95460, -0.1984, 0.5396, -0.2938, 0.0000, 0.5516, 0.5396, -0.2938, 0.0000, 0.0000, 0.0000
3.7190, 0.0000, 0.0000, 0.0000, 0.0000, 0.0000, 0.0000, -0.9216, 0.0700, -0.2014, -0.0428, -0.2096, 0.1584, 1466, 95460, -0.1982, 0.5396, -0.2938, 0.0000, 0.5518, 0.5396, -0.2938, 0.0000, 0.0000, 0.0000
3.7400, 0.0000, 0.0000, 0.0000, 0.0000, 0.0000, 0.0000, -0.9068, 0.0787, -0.2064, -0.0432, -0.2003, 0.1523, 1467, 95460, -0.1982, 0.5393, -0.2938, 0.0000, 0.5518, 0.5393, -0.2938, 0.0000, 0.0000, 0.0000
3.7600, 0.0000, 0.0000, 0.0000, 0.0000, 0.0000, 0.0000, -0.8915, 0.0878, -0.2114, -0.0429, -0.1902, 0.1451, 1468, 95460, -0.1982, 0.5392, -0.2939, 0.0000, 0.5518, 0.5392, -0.2939, 0.0000, 0.0000, 0.0000
3.7800, 0.0000, 0.0000, 0.0000, 0.0000, 0.0000, 0.0000, -0.8754, 0.0975, -0.2157, -0.0434, -0.1793, 0.1379, 1469, 95460, -0.1980, 0.5391, -0.2939, 0.0000, 0.5520, 0.5391, -0.2939, 0.0000, 0.0000, 0.0000
3.7990, 0.0000, 0.0000, 0.0000, 0.0000, 0.0000, 0.0000, -0.8589, 0.1075, -0.2198, -0.0436, -0.1671, 0.1319, 1470, 95460, -0.1979, 0.5390, -0.2939, 0.0000, 0.5521, 0.5390, -0.2939, 0.0000, 0.0000, 0.0000
3.8200, 0.0000, 0.0000, 0.0000, 0.0000, 0.0000, 0.0000, -0.8417, 0.1178, -0.2234, -0.0432, -0.1544, 0.1246, 1471, 95460, -0.1979, 0.5388, -0.2939, 0.0000, 0.5521, 0.5388, -0.2939, 0.0000, 0.0000, 0.0000
3.8400, 0.0000, 0.0000, 0.0000, 0.0000, 0.0000, 0.0000, -0.8243, 0.1286, -0.2270, -0.0434, -0.1412, 0.1182, 1472, 95460, -0.1979, 0.5387, -0.2939, 0.0000, 0.5521, 0.5387, -0.2939, 0.0000, 0.0000, 0.0000
3.8600, 0.0000, 0.0000, 0.0000, 0.0000, 0.0000, 0.0000, -0.8062, 0.1397, -0.2302, -0.0434, -0.1273, 0.1104, 1473, 95460, -0.1978, 0.5387, -0.2939, 0.0000, 0.5522, 0.5387, -0.2939, 0.0000, 0.0000, 0.0000
3.8790, 0.0000, 0.0000, 0.0000, 0.0000, 0.0000, 0.0000, -0.7879, 0.1510, -0.2332, -0.0433, -0.1140, 0.1015, 1474, 95460, -0.1977, 0.5386, -0.2939, 0.0000, 0.5523, 0.5386, -0.2939, 0.0000, 0.0000, 0.0000
3.9000, 0.0000, 0.0000, 0.0000, 0.0000, 0.0000, 0.0000, -0.7691, 0.1625, -0.2363, -0.0430, -0.1013, 0.0928, 1475, 95460, -0.1978, 0.5385, -0.2938, 0.0000, 0.5522, 0.5385, -0.2938, 0.0000, 0.0000, 0.0000
3.9200, 0.0000, 0.0000, 0.0000, 0.0000, 0.0000, 0.0000, -0.7502, 0.1742, -0.2394, -0.0428, -0.0867, 0.0806, 1476, 95460, -0.1978, 0.5384, -0.2939, 0.0000, 0.5522, 0.5384, -0.2939, 0.0000, 0.0000, 0.0000
3.9400, 0.0000, 0.0000, 0.0000, 0.0000, 0.0000, 0.0000, -0.7315, 0.1864, -0.2429, -0.0424, -0.0692, 0.0707, 1477, 95460, -0.1978, 0.5385, -0.2939, 0.0000, 0.5522, 0.5385, -0.2939, 0.0000, 0.0000, 0.0000
3.9590, 0.0000, 0.0000, 0.0000, 0.0000, 0.0000, 0.0000, -0.7127, 0.1986, -0.2469, -0.0416, -0.0529, 0.0629, 1478, 95460, -0.1977, 0.5385, -0.2938, 0.0000, 0.5523, 0.5385, -0.2938, 0.0000, 0.0000, 0.0000
3.9800, 0.0000, 0.0000, 0.0000, 0.0000, 0.0000, 0.0000, -0.6936, 0.2110, -0.2507, -0.0401, -0.0374, 0.0549, 1479, 95460, -0.1977, 0.5383, -0.2939, 0.0000, 0.5523, 0.5383, -0.2939, 0.0000, 0.0000, 0.0000
4.0000, 0.0000, 0.0000, 0.0000, 0.0000, 0.0000, 0.0000, -0.6747, 0.2235, -0.2549, -0.0395, -0.0212, 0.0437, 1480, 95460, -0.1977, 0.5384, -0.2938, 0.0000, 0.5523, 0.5384, -0.2938, 0.0000, 0.0000, 0.0000
4.0200, 0.0000, 0.0000, 0.0000, 0.0000, 0.0000, 0.0000, -0.6559, 0.2363, -0.2590, -0.0379, -0.0048, 0.0349, 1481, 95460, -0.1977, 0.5386, -0.2938, 0.0000, 0.5523, 0.5386, -0.2938, 0.0000, 0.0000, 0.0000
4.0390, 0.0000, 0.0000, 0.0000, 0.0000, 0.0000, 0.0000, -0.6370, 0.2489, -0.2630, -0.0363, 0.0108, 0.0269, 1482, 95460, -0.1977, 0.5386, -0.2938, 0.0000, 0.5523, 0.5386, -0.2938, 0.0000, 0.0000, 0.0000
4.0600, 0.0000, 0.0000, 0.0000, 0.0000, 0.0000, 0.0000, -0.6183, 0.2614, -0.2672, -0.0345, 0.0251, 0.0182, 1483, 95460, -0.1977, 0.5386, -0.2939, 0.0000, 0.5523, 0.5386, -0.2939, 0.0000, 0.0000, 0.0000
4.0800, 0.0000, 0.0000, 0.0000, 0.0000, 0.0000, 0.0000, -0.6000, 0.2741, -0.2716, -0.0322, 0.0394, 0.0083, 1484, 95460, -0.1976, 0.5386, -0.2938, 0.0000, 0.5524, 0.5386, -0.2938, 0.0000, 0.0000, 0.0000
4.1000, 0.0000, 0.0000, 0.0000, 0.0000, 0.0000, 0.0000, -0.5818, 0.2867, -0.2759, -0.0300, 0.0531, -0.0002, 1485, 95460, -0.1976, 0.5389, -0.2937, 0.0000, 0.5524, 0.5389, -0.2937, 0.0000, 0.0000, 0.0000
4.1190, 0.0000, 0.0000, 0.0000, 0.0000, 0.0000, 0.0000, -0.5643, 0.2989, -0.2803, -0.0276, 0.0652, -0.0098, 1486, 95460, -0.1976, 0.5389, -0.2936, 0.0000, 0.5524, 0.5389, -0.2936, 0.0000, 0.0000, 0.0000
4.1400, 0.0000, 0.0000, 0.0000, 0.0000, 0.0000, 0.0000, -0.5468, 0.3111, -0.2848, -0.0251, 0.0773, -0.0212, 1487, 95460, -0.1977, 0.5391, -0.2934, 0.0000, 0.5523, 0.5391, -0.2934, 0.0000, 0.0000, 0.0000
4.1600, 0.0000, 0.0000, 0.0000, 0.0000, 0.0000, 0.0000, -0.5301, 0.3231, -0.2893, -0.0223, 0.0889, -0.0301, 1488, 95460, -0.1976, 0.5393, -0.2933, 0.0000, 0.5524, 0.5393, -0.2933, 0.0000, 0.0000, 0.0000
4.1800, 0.0000, 0.0000, 0.0000, 0.0000, 0.0000, 0.0000, -0.5136, 0.3349, -0.2936, -0.0193, 0.0992, -0.0400, 1489, 95460, -0.1976, 0.5395, -0.2931, 0.0000, 0.5524, 0.5395, -0.2931, 0.0000, 0.0000, 0.0000
4.1990, 0.0000, 0.0000, 0.0000, 0.0000, 0.0000, 0.0000, -0.4976, 0.3464, -0.2980, -0.0166, 0.1085, -0.0470, 1490, 95460, -0.1977, 0.5397, -0.2930, 0.0000, 0.5523, 0.5397, -0.2930, 0.0000, 0.0000, 0.0000
4.2190, 0.0000, 0.0000, 0.0000, 0.0000, 0.0000, 0.0000, -0.4823, 0.3580, -0.3020, -0.0136, 0.1174, -0.0533, 1491, 95460, -0.1977, 0.5398, -0.2928, 0.0000, 0.5523, 0.5398, -0.2928, 0.0000, 0.0000, 0.0000
4.2390, 0.0000, 0.0000, 0.0000, 0.0000, 0.0000, 0.0000, -0.4673, 0.3692, -0.3059, -0.0108, 0.1241, -0.0581, 1492, 95460, -0.1976, 0.5403, -0.2925, 0.0000, 0.5524, 0.5403, -0.2925, 0.0000, 0.0000, 0.0000
4.2590, 0.0000, 0.0000, 0.0000, 0.0000, 0.0000, 0.0000, -0.4533, 0.3799, -0.3099, -0.0076, 0.1314, -0.0634, 1493, 95460, -0.1977, 0.5403, -0.2924, 0.0000, 0.5523, 0.5403, -0.2924, 0.0000, 0.0000, 0.0000
4.2790, 0.0000, 0.0000, 0.0000, 0.0000, 0.0000, 0.0000, -0.4396, 0.3903, -0.3136, -0.0044, 0.1375, -0.0699, 1494, 95460, -0.1979, 0.5404, -0.2921, 0.0000, 0.5521, 0.5404, -0.2921, 0.0000, 0.0000, 0.0000
4.3000, 0.0000, 0.0000, 0.0000, 0.0000, 0.0000, 0.0000, -0.4268, 0.4005, -0.3172, -0.0007, 0.1433, -0.0749, 1495, 95460, -0.1979, 0.5409, -0.2919, 0.0000, 0.5521, 0.5409, -0.2919, 0.0000, 0.0000, 0.0000
4.3200, 0.0000, 0.0000, 0.0000, 0.0000, 0.0000, 0.0000, -0.4148, 0.4103, -0.3211, 0.0026, 0.1474, -0.0806, 1496, 95460, -0.1980, 0.5411, -0.2917, 0.0000, 0.5520, 0.5411, -0.2917, 0.0000, 0.0000, 0.0000
4.3400, 0.0000, 0.0000, 0.0000, 0.0000, 0.0000, 0.0000, -0.4036, 0.4197, -0.3247, 0.0057, 0.1511, -0.0842, 1497, 95460, -0.1981, 0.5414, -0.2916, 0.0000, 0.5519, 0.5414, -0.2916, 0.0000, 0.0000, 0.0000
4.3590, 0.0000, 0.0000, 0.0000, 0.0000, 0.0000, 0.0000, -0.3931, 0.4289, -0.3284, 0.0082, 0.1534, -0.0855, 1498, 95460, -0.1982, 0.5415, -0.2914, 0.0000, 0.5518, 0.5415, -0.2914, 0.0000, 0.0000, 0.0000
4.3800, 0.0000, 0.0000, 0.0000, 0.0000, 0.0000, 0.0000, -0.3834, 0.4376, -0.3318, 0.0117, 0.1533, -0.0872, 1499, 95460, -0.1983, 0.5420, -0.2912, 0.0000, 0.5517, 0.5420, -0.2912, 0.0000, 0.0000, 0.0000
4.4000, 0.0000, 0.0000, 0.0000, 0.0000, 0.0000, 0.0000, -0.3743, 0.4460, -0.3351, 0.0136, 0.1521, -0.0881, 1500, 95460, -0.1985, 0.5423, -0.2909, 0.0000, 0.5515, 0.5423, -0.2909, 0.0000, 0.0000, 0.0000
4.4200, 0.0000, 0.0000, 0.0000, 0.0000, 0.0000, 0.0000, -0.3660, 0.4539, -0.3382, 0.0164, 0.1488, -0.0893, 1501, 95460, -0.1988, 0.5423, -0.2908, 0.0000, 0.5512, 0.5423, -0.2908, 0.0000, 0.0000, 0.0000
4.4390, 0.0000, 0.0000, 0.0000, 0.0000, 0.0000, 0.0000, -0.3583, 0.4616, -0.3412, 0.0189, 0.1452, -0.0903, 1502, 95460, -0.1990, 0.5427, -0.2904, 0.0000, 0.5510, 0.5427, -0.2904, 0.0000, 0.0000, 0.0000
4.4600, 0.0000, 0.0000, 0.0000, 0.0000, 0.0000, 0.0000, -0.3512, 0.4688, -0.3437, 0.0211, 0.1403, -0.0914, 1503, 95460, -0.1993, 0.5431, -0.2901, 0.0000, 0.5507, 0.5431, -0.2901, 0.0000, 0.0000, 0.0000
4.4800, 0.0000, 0.0000, 0.0000, 0.0000, 0.0000, 0.0000, -0.3448, 0.4757, -0.3462, 0.0233, 0.1351, -0.0915, 1504, 95460, -0.1997, 0.5433, -0.2898, 0.0000, 0.5503, 0.5433, -0.2898, 0.0000, 0.0000, 0.0000
4.5000, 0.0000, 0.0000, 0.0000, 0.0000, 0.0000, 0.0000, -0.3390, 0.4821, -0.3483, 0.0251, 0.1294, -0.0913, 1505, 95460, -0.2002, 0.5435, -0.2895, 0.0000, 0.5498, 0.5435, -0.2895, 0.0000, 0.0000, 0.0000
4.5190, 0.0000, 0.0000, 0.0000, 0.0000, 0.0000, 0.0000, -0.3337, 0.4883, -0.3500, 0.0270, 0.1227, -0.0905, 1506, 95460, -0.2004, 0.5438, -0.2890, 0.0000, 0.5496, 0.5438, -0.2890, 0.0000, 0.0000, 0.0000
4.5390, 0.0000, 0.0000, 0.0000, 0.0000, 0.0000, 0.0000, -0.3288, 0.4943, -0.3514, 0.0286, 0.1162, -0.0898, 1507, 95460, -0.2008, 0.5441, -0.2886, 0.0000, 0.5492, 0.5441, -0.2886, 0.0000, 0.0000, 0.0000
4.5590, 0.0000, 0.0000, 0.0000, 0.0000, 0.0000, 0.0000, -0.3245, 0.4998, -0.3524, 0.0310, 0.1096, -0.0885, 1508, 95460, -0.2012, 0.5443, -0.2882, 0.0000, 0.5488, 0.5443, -0.2882, 0.0000, 0.0000, 0.0000
4.5790, 0.0000, 0.0000, 0.0000, 0.0000, 0.0000, 0.0000, -0.3205, 0.5050, -0.3531, 0.0330, 0.1027, -0.0869, 1509, 95460, -0.2016, 0.5444, -0.2878, 0.0000, 0.5484, 0.5444, -0.2878, 0.0000, 0.0000, 0.0000
4.5990, 0.0000, 0.0000, 0.0000, 0.0000, 0.0000, 0.0000, -0.3171, 0.5101, -0.3535, 0.0342, 0.0957, -0.0850, 1510, 95460, -0.2020, 0.5447, -0.2873, 0.0000, 0.5480, 0.5447, -0.2873, 0.0000, 0.0000, 0.0000
4.6200, 0.0000, 0.0000, 0.0000, 0.0000, 0.0000, 0.0000, -0.3137, 0.5146, -0.3539, 0.0366, 0.0870, -0.0837, 1511, 95460, -0.2024, 0.5451, -0.2869, 0.0000, 0.5476, 0.5451, -0.2869, 0.0000, 0.0000, 0.0000
4.6400, 0.0000, 0.0000, 0.0000, 0.0000, 0.0000, 0.0000, -0.3108, 0.5185, -0.3539, 0.0383, 0.0776, -0.0835, 1512, 95460, -0.2030, 0.5452, -0.2864, 0.0000, 0.5470, 0.5452, -0.2864, 0.0000, 0.0000, 0.0000
4.6600, 0.0000, 0.0000, 0.0000, 0.0000, 0.0000, 0.0000, -0.3082, 0.5224, -0.3537, 0.0407, 0.0682, -0.0824, 1513, 95460, -0.2036, 0.5456, -0.2859, 0.0000, 0.5464, 0.5456, -0.2859, 0.0000, 0.0000, 0.0000
4.6790, 0.0000, 0.0000, 0.0000, 0.0000, 0.0000, 0.0000, -0.3057, 0.5260, -0.3533, 0.0431, 0.0592, -0.0821, 1514, 95460, -0.2042, 0.5459, -0.2855, 0.0000, 0.5458, 0.5459, -0.2855, 0.0000, 0.0000, 0.0000
4.7000, 0.0000, 0.0000, 0.0000, 0.0000, 0.0000, 0.0000, -0.3036, 0.5291, -0.3527, 0.0450, 0.0520, -0.0805, 1515, 95460, -0.2048, 0.5460, -0.2849, 0.0000, 0.5452, 0.5460, -0.2849, 0.0000, 0.0000, 0.0000
4.7200, 0.0000, 0.0000, 0.0000, 0.0000, 0.0000, 0.0000, -0.3016, 0.5317, -0.3520, 0.0476, 0.0460, -0.0804, 1516, 95460, -0.2055, 0.5459, -0.2843, 0.0000, 0.5445, 0.5459, -0.2843, 0.0000, 0.0000, 0.0000
4.7400, 0.0000, 0.0000, 0.0000, 0.0000, 0.0000, 0.0000, -0.3000, 0.5343, -0.3514, 0.0495, 0.0420, -0.0770, 1517, 95460, -0.2062, 0.5461, -0.2838, 0.0000, 0.5438, 0.5461, -0.2838, 0.0000, 0.0000, 0.0000
4.7590, 0.0000, 0.0000, 0.0000, 0.0000, 0.0000, 0.0000, -0.2984, 0.5365, -0.3506, 0.0513, 0.0380, -0.0743, 1518, 95460, -0.2070, 0.5463, -0.2832, 0.0000, 0.5430, 0.5463, -0.2832, 0.0000, 0.0000, 0.0000
4.7800, 0.0000, 0.0000, 0.0000, 0.0000, 0.0000, 0.0000, -0.2970, 0.5382, -0.3498, 0.0533, 0.0341, -0.0718, 1519, 95460, -0.2078, 0.5463, -0.2828, 0.0000, 0.5422, 0.5463, -0.2828, 0.0000, 0.0000, 0.0000
4.8000, 0.0000, 0.0000, 0.0000, 0.0000, 0.0000, 0.0000, -0.2957, 0.5398, -0.3490, 0.0556, 0.0300, -0.0689, 1520, 95460, -0.2086, 0.5463, -0.2822, 0.0000, 0.5414, 0.5463, -0.2822, 0.0000, 0.0000, 0.0000
4.8200, 0.0000, 0.0000, 0.0000, 0.0000, 0.0000, 0.0000, -0.2945, 0.5410, -0.3482, 0.0571, 0.0269, -0.0639, 1521, 95460, -0.2096, 0.5463, -0.2816, 0.0000, 0.5404, 0.5463, -0.2816, 0.0000, 0.0000, 0.0000
4.8390, 0.0000, 0.0000, 0.0000, 0.0000, 0.0000, 0.0000, -0.2931, 0.5420, -0.3475, 0.0584, 0.0235, -0.0622, 1522, 95460, -0.2105, 0.5464, -0.2809, 0.0000, 0.5395, 0.5464, -0.2809, 0.0000, 0.0000, 0.0000
4.8600, 0.0000, 0.0000, 0.0000, 0.0000, 0.0000, 0.0000, -0.2921, 0.5425, -0.3468, 0.0606, 0.0203, -0.0599, 1523, 95460, -0.2118, 0.5461, -0.2800, 0.0000, 0.5382, 0.5461, -0.2800, 0.0000, 0.0000, 0.0000
4.8800, 0.0000, 0.0000, 0.0000, 0.0000, 0.0000, 0.0000, -0.2910, 0.5427, -0.3461, 0.0626, 0.0175, -0.0583, 1524, 95460, -0.2130, 0.5459, -0.2790, 0.0000, 0.5370, 0.5459, -0.2790, 0.0000, 0.0000, 0.0000
4.9000, 0.0000, 0.0000, 0.0000, 0.0000, 0.0000, 0.0000, -0.2899, 0.5430, -0.3454, 0.0644, 0.0152, -0.0552, 1525, 95460, -0.2142, 0.5457, -0.2781, 0.0000, 0.5358, 0.5457, -0.2781, 0.0000, 0.0000, 0.0000
4.9190, 0.0000, 0.0000, 0.0000, 0.0000, 0.0000, 0.0000, -0.2887, 0.5430, -0.3448, 0.0660, 0.0131, -0.0515, 1526, 95460, -0.2155, 0.5455, -0.2772, 0.0000, 0.5345, 0.5455, -0.2772, 0.0000, 0.0000, 0.0000
4.9400, 0.0000, 0.0000, 0.0000, 0.0000, 0.0000, 0.0000, -0.2877, 0.5427, -0.3442, 0.0682, 0.0099, -0.0471, 1527, 95460, -0.2168, 0.5451, -0.2766, 0.0000, 0.5332, 0.5451, -0.2766, 0.0000, 0.0000, 0.0000
4.9590, 0.0000, 0.0000, 0.0000, 0.0000, 0.0000, 0.0000, -0.2865, 0.5424, -0.3435, 0.0700, 0.0066, -0.0424, 1528, 95460, -0.2180, 0.5450, -0.2760, 0.0000, 0.5320, 0.5450, -0.2760, 0.0000, 0.0000, 0.0000
4.9790, 0.0000, 0.0000, 0.0000, 0.0000, 0.0000, 0.0000, -0.2854, 0.5421, -0.3431, 0.0722, 0.0032, -0.0371, 1529, 95460, -0.2194, 0.5447, -0.2757, 0.0000, 0.5306, 0.5447, -0.2757, 0.0000, 0.0000, 0.0000
4.9990, 0.0000, 0.0000, 0.0000, 0.0000, 0.0000, 0.0000, -0.2842, 0.5414, -0.3425, 0.0745, -0.0006, -0.0316, 1530, 95460, -0.2209, 0.5442, -0.2754, 0.0000, 0.5291, 0.5442, -0.2754, 0.0000, 0.0000, 0.0000
5.0190, 0.0000, 0.0000, 0.0000, 0.0000, 0.0000, 0.0000, -0.2829, 0.5406, -0.3419, 0.0768, -0.0047, -0.0290, 1531, 95460, -0.2226, 0.5438, -0.2749, 0.0000, 0.5274, 0.5438, -0.2749, 0.0000, 0.0000, 0.0000
5.0390, 0.0000, 0.0000, 0.0000, 0.0000, 0.0000, 0.0000, -0.2817, 0.5398, -0.3415, 0.0796, -0.0077, -0.0246, 1532, 95460, -0.2245, 0.5436, -0.2743, 0.0000, 0.5255, 0.5436, -0.2743, 0.0000, 0.0000, 0.0000
5.0590, 0.0000, 0.0000, 0.0000, 0.0000, 0.0000, 0.0000, -0.2803, 0.5388, -0.3411, 0.0816, -0.0097, -0.0209, 1533, 95460, -0.2264, 0.5430, -0.2737, 0.0000, 0.5236, 0.5430, -0.2737, 0.0000, 0.0000, 0.0000
5.0790, 0.0000, 0.0000, 0.0000, 0.0000, 0.0000, 0.0000, -0.2792, 0.5379, -0.3408, 0.0837, -0.0101, -0.0160, 1534, 95460, -0.2285, 0.5423, -0.2730, 0.0000, 0.5215, 0.5423, -0.2730, 0.0000, 0.0000, 0.0000
5.0990, 0.0000, 0.0000, 0.0000, 0.0000, 0.0000, 0.0000, -0.2778, 0.5369, -0.3405, 0.0866, -0.0105, -0.0103, 1535, 95460, -0.2305, 0.5416, -0.2721, 0.0000, 0.5195, 0.5416, -0.2721, 0.0000, 0.0000, 0.0000
5.1190, 0.0000, 0.0000, 0.0000, 0.0000, 0.0000, 0.0000, -0.2765, 0.5361, -0.3404, 0.0885, -0.0107, -0.0054, 1536, 95460, -0.2324, 0.5412, -0.2712, 0.0000, 0.5176, 0.5412, -0.2712, 0.0000, 0.0000, 0.0000
5.1390, 0.0000, 0.0000, 0.0000, 0.0000, 0.0000, 0.0000, -0.2753, 0.5352, -0.3405, 0.0912, -0.0103, -0.0009, 1537, 95460, -0.2343, 0.5406, -0.2703, 0.0000, 0.5157, 0.5406, -0.2703, 0.0000, 0.0000, 0.0000
5.1590, 0.0000, 0.0000, 0.0000, 0.0000, 0.0000, 0.0000, -0.2741, 0.5342, -0.3409, 0.0932, -0.0098, 0.0028, 1538, 95460, -0.2365, 0.5399, -0.2694, 0.0000, 0.5135, 0.5399, -0.2694, 0.0000, 0.0000, 0.0000
5.1790, 0.0000, 0.0000, 0.0000, 0.0000, 0.0000, 0.0000, -0.2730, 0.5333, -0.3413, 0.0956, -0.0084, 0.0056, 1539, 95460, -0.2387, 0.5393, -0.2684, 0.0000, 0.5113, 0.5393, -0.2684, 0.0000, 0.0000, 0.0000
5.1990, 0.0000, 0.0000, 0.0000, 0.0000, 0.0000, 0.0000, -0.2718, 0.5324, -0.3422, 0.0975, -0.0058, 0.0088, 1540, 95460, -0.2409, 0.5387, -0.2678, 0.0000, 0.5091, 0.5387, -0.2678, 0.0000, 0.0000, 0.0000
5.2190, 0.0000, 0.0000, 0.0000, 0.0000, 0.0000, 0.0000, -0.2709, 0.5317, -0.3432, 0.0985, -0.0021, 0.0105, 1541, 95460, -0.2432, 0.5380, -0.2670, 0.0000, 0.5068, 0.5380, -0.2670, 0.0000, 0.0000, 0.0000
5.2390, 0.0000, 0.0000, 0.0000, 0.0000, 0.0000, 0.0000, -0.2700, 0.5308, -0.3444, 0.1004, 0.0015, 0.0123, 1542, 95460, -0.2454, 0.5373, -0.2661, 0.0000, 0.5046, 0.5373, -0.2661, 0.0000, 0.0000, 0.0000
5.2590, 0.0000, 0.0000, 0.0000, 0.0000, 0.0000, 0.0000, -0.2689, 0.5301, -0.3456, 0.1018, 0.0035, 0.0130, 1543, 95460, -0.2477, 0.5365, -0.2655, 0.0000, 0.5023, 0.5365, -0.2655, 0.0000, 0.0000, 0.0000
5.2790, 0.0000, 0.0000, 0.0000, 0.0000, 0.0000, 0.0000, -0.2681, 0.5293, -0.3472, 0.1030, 0.0048, 0.0124, 1544, 95460, -0.2500, 0.5357, -0.2649, 0.0000, 0.5000, 0.5357, -0.2649, 0.0000, 0.0000, 0.0000
5.2990, 0.0000, 0.0000, 0.0000, 0.0000, 0.0000, 0.0000, -0.2674, 0.5286, -0.3490, 0.1038, 0.0071, 0.0142, 1545, 95460, -0.2521, 0.5347, -0.2647, 0.0000, 0.4979, 0.5347, -0.2647, 0.0000, 0.0000, 0.0000
5.3190, 0.0000, 0.0000, 0.0000, 0.0000, 0.0000, 0.0000, -0.2669, 0.5282, -0.3508, 0.1044, 0.0087, 0.0156, 1546, 95460, -0.2542, 0.5339, -0.2644, 0.0000, 0.4958, 0.5339, -0.2644, 0.0000, 0.0000, 0.0000
5.3390, 0.0000, 0.0000, 0.0000, 0.0000, 0.0000, 0.0000, -0.2663, 0.5280, -0.3527, 0.1053, 0.0081, 0.0156, 1547, 95460, -0.2564, 0.5333, -0.2642, 0.0000, 0.4936, 0.5333, -0.2642, 0.0000, 0.0000, 0.0000
5.3590, 0.0000, 0.0000, 0.0000, 0.0000, 0.0000, 0.0000, -0.2659, 0.5275, -0.3549, 0.1065, 0.0071, 0.0157, 1548, 95460, -0.2588, 0.5325, -0.2642, 0.0000, 0.4912, 0.5325, -0.2642, 0.0000, 0.0000, 0.0000
5.3790, 0.0000, 0.0000, 0.0000, 0.0000, 0.0000, 0.0000, -0.2656, 0.5272, -0.3567, 0.1073, 0.0069, 0.0167, 1549, 95460, -0.2610, 0.5316, -0.2643, 0.0000, 0.4890, 0.5316, -0.2643, 0.0000, 0.0000, 0.0000
5.3990, 0.0000, 0.0000, 0.0000, 0.0000, 0.0000, 0.0000, -0.2654, 0.5271, -0.3586, 0.1079, 0.0072, 0.0184, 1550, 95460, -0.2631, 0.5309, -0.2643, 0.0000, 0.4869, 0.5309, -0.2643, 0.0000, 0.0000, 0.0000
5.4190, 0.0000, 0.0000, 0.0000, 0.0000, 0.0000, 0.0000, -0.2654, 0.5271, -0.3603, 0.1088, 0.0069, 0.0182, 1551, 95460, -0.2653, 0.5302, -0.2645, 0.0000, 0.4847, 0.5302, -0.2645, 0.0000, 0.0000, 0.0000
5.4390, 0.0000, 0.0000, 0.0000, 0.0000, 0.0000, 0.0000, -0.2653, 0.5268, -0.3620, 0.1096, 0.0056, 0.0177, 1552, 95460, -0.2675, 0.5292, -0.2646, 0.0000, 0.4825, 0.5292, -0.2646, 0.0000, 0.0000, 0.0000
5.4590, 0.0000, 0.0000, 0.0000, 0.0000, 0.0000, 0.0000, -0.2655, 0.5268, -0.3637, 0.1109, 0.0056, 0.0185, 1553, 95460, -0.2696, 0.5283, -0.2650, 0.0000, 0.4804, 0.5283, -0.2650, 0.0000, 0.0000, 0.0000
5.4790, 0.0000, 0.0000, 0.0000, 0.0000, 0.0000, 0.0000, -0.2656, 0.5270, -0.3648, 0.1112, 0.0051, 0.0195, 1554, 95460, -0.2714, 0.5277, -0.2649, 0.0000, 0.4786, 0.5277, -0.2649, 0.0000, 0.0000, 0.0000
5.4990, 0.0000, 0.0000, 0.0000, 0.0000, 0.0000, 0.0000, -0.2657, 0.5270, -0.3660, 0.1115, 0.0042, 0.0192, 1555, 95460, -0.2732, 0.5269, -0.2652, 0.0000, 0.4768, 0.5269, -0.2652, 0.0000, 0.0000, 0.0000
5.5190, 0.0000, 0.0000, 0.0000, 0.0000, 0.0000, 0.0000, -0.2663, 0.5271, -0.3669, 0.1125, 0.0033, 0.0205, 1556, 95460, -0.2750, 0.5259, -0.2656, 0.0000, 0.4750, 0.5259, -0.2656, 0.0000, 0.0000, 0.0000
5.5390, 0.0000, 0.0000, 0.0000, 0.0000, 0.0000, 0.0000, -0.2669, 0.5272, -0.3676, 0.1131, 0.0027, 0.0198, 1557, 95460, -0.2765, 0.5253, -0.2658, 0.0000, 0.4735, 0.5253, -0.2658, 0.0000, 0.0000, 0.0000
5.5590, 0.0000, 0.0000, 0.0000, 0.0000, 0.0000, 0.0000, -0.2676, 0.5276, -0.3681, 0.1133, 0.0022, 0.0183, 1558, 95460, -0.2779, 0.5248, -0.2664, 0.0000, 0.4721, 0.5248, -0.2664, 0.0000, 0.0000, 0.0000
5.5790, 0.0000, 0.0000, 0.0000, 0.0000, 0.0000, 0.0000, -0.2682, 0.5278, -0.3684, 0.1142, 0.0012, 0.0182, 1559, 95460, -0.2794, 0.5240, -0.2668, 0.0000, 0.4706, 0.5240, -0.2668, 0.0000, 0.0000, 0.0000
5.5990, 0.0000, 0.0000, 0.0000, 0.0000, 0.0000, 0.0000, -0.2689, 0.5279, -0.3686, 0.1153, -0.0002, 0.0167, 1560, 95460, -0.2807, 0.5232, -0.2675, 0.0000, 0.4693, 0.5232, -0.2675, 0.0000, 0.0000, 0.0000
5.6190, 0.0000, 0.0000, 0.0000, 0.0000, 0.0000, 0.0000, -0.2696, 0.5285, -0.3686, 0.1153, -0.0016, 0.0153, 1561, 95460, -0.2821, 0.5227, -0.2682, 0.0000, 0.4679, 0.5227, -0.2682, 0.0000, 0.0000, 0.0000
5.6390, 0.0000, 0.0000, 0.0000, 0.0000, 0.0000, 0.0000, -0.2706, 0.5288, -0.3685, 0.1158, -0.0030, 0.0143, 1562, 95460, -0.2833, 0.5221, -0.2689, 0.0000, 0.4667, 0.5221, -0.2689, 0.0000, 0.0000, 0.0000
5.6590, 0.0000, 0.0000, 0.0000, 0.0000, 0.0000, 0.0000, -0.2715, 0.5292, -0.3685, 0.1160, -0.0043, 0.0139, 1563, 95460, -0.2844, 0.5212, -0.2699, 0.0000, 0.4656, 0.5212, -0.2699, 0.0000, 0.0000, 0.0000
5.6790, 0.0000, 0.0000, 0.0000, 0.0000, 0.0000, 0.0000, -0.2725, 0.5295, -0.3683, 0.1161, -0.0049, 0.0129, 1564, 95460, -0.2854, 0.5204, -0.2709, 0.0000, 0.4646, 0.5204, -0.2709, 0.0000, 0.0000, 0.0000
5.6990, 0.0000, 0.0000, 0.0000, 0.0000, 0.0000, 0.0000, -0.2739, 0.5301, -0.3682, 0.1161, -0.0037, 0.0138, 1565, 95460, -0.2860, 0.5199, -0.2718, 0.0000, 0.4640, 0.5199, -0.2718, 0.0000, 0.0000, 0.0000
5.7190, 0.0000, 0.0000, 0.0000, 0.0000, 0.0000, 0.0000, -0.2752, 0.5305, -0.3683, 0.1153, -0.0029, 0.0116, 1566, 95460, -0.2862, 0.5194, -0.2729, 0.0000, 0.4638, 0.5194, -0.2729, 0.0000, 0.0000, 0.0000
5.7390, 0.0000, 0.0000, 0.0000, 0.0000, 0.0000, 0.0000, -0.2766, 0.5308, -0.3684, 0.1148, -0.0022, 0.0101, 1567, 95460, -0.2864, 0.5188, -0.2738, 0.0000, 0.4636, 0.5188, -0.2738, 0.0000, 0.0000, 0.0000
5.7590, 0.0000, 0.0000, 0.0000, 0.0000, 0.0000, 0.0000, -0.2780, 0.5313, -0.3687, 0.1140, -0.0016, 0.0087, 1568, 95460, -0.2866, 0.5185, -0.2746, 0.0000, 0.4634, 0.5185, -0.2746, 0.0000, 0.0000, 0.0000
5.7790, 0.0000, 0.0000, 0.0000, 0.0000, 0.0000, 0.0000, -0.2793, 0.5318, -0.3689, 0.1132, -0.0015, 0.0061, 1569, 95460, -0.2866, 0.5180, -0.2752, 0.0000, 0.4634, 0.5180, -0.2752, 0.0000, 0.0000, 0.0000
5.7990, 0.0000, 0.0000, 0.0000, 0.0000, 0.0000, 0.0000, -0.2807, 0.5322, -0.3695, 0.1122, -0.0022, 0.0054, 1570, 95460, -0.2865, 0.5176, -0.2756, 0.0000, 0.4635, 0.5176, -0.2756, 0.0000, 0.0000, 0.0000
5.8190, 0.0000, 0.0000, 0.0000, 0.0000, 0.0000, 0.0000, -0.2819, 0.5326, -0.3699, 0.1111, -0.0042, 0.0038, 1571, 95460, -0.2863, 0.5172, -0.2760, 0.0000, 0.4637, 0.5172, -0.2760, 0.0000, 0.0000, 0.0000
5.8390, 0.0000, 0.0000, 0.0000, 0.0000, 0.0000, 0.0000, -0.2832, 0.5332, -0.3702, 0.1104, -0.0071, 0.0033, 1572, 95460, -0.2860, 0.5170, -0.2762, 0.0000, 0.4640, 0.5170, -0.2762, 0.0000, 0.0000, 0.0000
5.8590, 0.0000, 0.0000, 0.0000, 0.0000, 0.0000, 0.0000, -0.2843, 0.5338, -0.3707, 0.1093, -0.0110, 0.0032, 1573, 95460, -0.2853, 0.5171, -0.2762, 0.0000, 0.4647, 0.5171, -0.2762, 0.0000, 0.0000, 0.0000
