time (s), gyro_x (rad/s), gyro_y (rad/s), gyro_z (rad/s), imu_pitch (rad), imu_roll (rad), imu_yaw (rad), counter, x (m), y (m), z (m), yaw (rad), pitch (rad), roll (rad), angle_pitch_desired (rad), mu1, mu2
0.0000, -0.0962, 5.3267, 0.0930, 0.7224, -0.0188, 0.9132, 656582, 0.0443, -0.3127, -0.1035, -0.0338, -0.0981, 0.1108, 0.3797, 1, 200
0.0310, -0.2277, 1.8503, -0.0879, 0.8772, -0.0192, 0.9118, 656622, 0.0443, -0.3127, -0.1034, -0.0338, -0.0981, 0.1108, 0.3642, 1, 200
0.0470, -0.2277, 1.8503, -0.0879, 0.8772, -0.0192, 0.9118, 656622, 0.0443, -0.3127, -0.1034, -0.0339, -0.0981, 0.1108, 0.3642, 1, 200
0.0620, 0.0546, -1.5337, 0.1172, 0.8788, -0.0190, 0.9112, 656642, 0.0444, -0.3127, -0.1034, -0.0338, -0.0980, 0.1108, 0.3543, 70, 200
0.0940, -0.4096, -6.5182, -0.1266, 0.6920, -0.0161, 0.9119, 656682, 0.0443, -0.3127, -0.1034, -0.0337, -0.0982, 0.1107, 0.3302, 200, 165
0.1090, -0.4096, -6.5182, -0.1266, 0.6920, -0.0161, 0.9119, 656682, 0.0443, -0.3127, -0.1035, -0.0340, -0.0980, 0.1108, 0.3302, 200, 165
0.1250, -0.1728, -7.4170, 0.0508, 0.4054, -0.0169, 0.9137, 656722, 0.0443, -0.3127, -0.1034, -0.0338, -0.0980, 0.1108, 0.3010, 200, 1
0.1400, -0.1728, -7.4170, 0.0508, 0.4054, -0.0169, 0.9137, 656722, 0.0443, -0.3127, -0.1035, -0.0339, -0.0982, 0.1108, 0.3010, 200, 1
0.1720, -1.1085, -6.5706, -0.0900, 0.2594, -0.0180, 0.9139, 656742, 0.0443, -0.3126, -0.1034, -0.0338, -0.0981, 0.1108, 0.2846, 200, 1
0.1870, 0.5558, -3.7035, 0.1355, 0.0269, -0.0234, 0.9170, 656782, 0.0443, -0.3127, -0.1034, -0.0338, -0.0981, 0.1107, 0.2484, 200, 1
0.2030, 0.5558, -3.7035, 0.1355, 0.0269, -0.0234, 0.9170, 656782, 0.0443, -0.3127, -0.1035, -0.0338, -0.0982, 0.1108, 0.2484, 200, 1
0.2340, -0.3709, -0.3236, -0.0680, -0.0134, -0.0209, 0.9179, 656802, 0.0444, -0.3127, -0.1034, -0.0338, -0.0979, 0.1107, 0.2288, 200, 66
0.2500, 0.4217, 5.5517, 0.0269, 0.1025, -0.0211, 0.9180, 656842, 0.0443, -0.3127, -0.1035, -0.0339, -0.0981, 0.1108, 0.1870, 29, 200
0.2650, 0.4217, 5.5517, 0.0269, 0.1025, -0.0211, 0.9180, 656842, 0.0443, -0.3127, -0.1034, -0.0339, -0.0981, 0.1108, 0.1870, 29, 200
0.2810, -0.1994, 5.3372, 0.2427, 0.3440, -0.0209, 0.9173, 656882, 0.0444, -0.3127, -0.1034, -0.0338, -0.0979, 0.1107, 0.1422, 1, 200
0.3120, -0.2260, 2.6461, 0.1032, 0.4267, -0.0202, 0.9170, 656902, 0.0443, -0.3127, -0.1035, -0.0339, -0.0981, 0.1107, 0.1190, 1, 200
0.3280, -0.2260, 2.6461, 0.1032, 0.4267, -0.0202, 0.9170, 656902, 0.0443, -0.3126, -0.1034, -0.0338, -0.0982, 0.1108, 0.1190, 1, 200
0.3430, -0.1771, -4.2212, -0.2771, 0.3983, -0.0169, 0.9175, 656942, 0.0443, -0.3127, -0.1035, -0.0339, -0.0981, 0.1108, 0.0711, 154, 183
0.3750, 0.2164, -6.9762, 0.1134, 0.2724, -0.0166, 0.9180, 656962, 0.0443, -0.3127, -0.1034, -0.0338, -0.0982, 0.1107, 0.0468, 200, 55
0.3900, 0.2164, -6.9762, 0.1134, 0.2724, -0.0166, 0.9180, 656962, 0.0443, -0.3127, -0.1034, -0.0339, -0.0980, 0.1108, 0.0468, 200, 55
0.4060, 0.0766, -7.4020, 0.1548, 0.1278, -0.0180, 0.9200, 656982, 0.0444, -0.3127, -0.1035, -0.0339, -0.0981, 0.1108, 0.0222, 200, 1
0.4220, 0.0766, -7.4020, 0.1548, 0.1278, -0.0180, 0.9200, 656982, 0.0443, -0.3127, -0.1034, -0.0337, -0.0982, 0.1108, 0.0222, 200, 1
0.4530, 0.2820, -6.8593, -0.0672, -0.1593, -0.0171, 0.9219, 657022, 0.0443, -0.3127, -0.1035, -0.0339, -0.0980, 0.1108, -0.0271, 200, 1
0.4680, -0.3024, -3.3549, -0.1153, -0.2670, -0.0166, 0.9235, 657042, 0.0444, -0.3127, -0.1034, -0.0339, -0.0982, 0.1107, -0.0517, 200, 1
0.4840, -0.3024, -3.3549, -0.1153, -0.2670, -0.0166, 0.9235, 657042, 0.0444, -0.3127, -0.1035, -0.0339, -0.0980, 0.1108, -0.0517, 200, 1
0.5150, 0.2618, 3.3135, -0.0661, -0.2754, -0.0171, 0.9247, 657082, 0.0443, -0.3127, -0.1034, -0.0338, -0.0982, 0.1108, -0.1000, 160, 169
0.5310, 0.2484, 5.2141, 0.0266, -0.0646, -0.0152, 0.9257, 657122, 0.0443, -0.3127, -0.1034, -0.0339, -0.0982, 0.1108, -0.1469, 1, 200
0.5470, 0.2484, 5.2141, 0.0266, -0.0646, -0.0152, 0.9257, 657122, 0.0443, -0.3127, -0.1034, -0.0338, -0.0980, 0.1108, -0.1469, 1, 200
0.5620, 0.1906, 3.5455, 0.1000, 0.0204, -0.0159, 0.9259, 657142, 0.0443, -0.3127, -0.1034, -0.0338, -0.0983, 0.1107, -0.1695, 1, 200
0.5930, 0.0922, -2.6717, -0.2191, 0.0443, -0.0157, 0.9264, 657182, 0.0443, -0.3127, -0.1035, -0.0339, -0.0980, 0.1108, -0.2125, 128, 189
0.6090, 0.0922, -2.6717, -0.2191, 0.0443, -0.0157, 0.9264, 657182, 0.0443, -0.3127, -0.1034, -0.0339, -0.0981, 0.1108, -0.2125, 128, 189
0.6250, -0.3153, -5.3581, -0.0368, -0.0429, -0.0148, 0.9268, 657202, 0.0443, -0.3127, -0.1034, -0.0338, -0.0981, 0.1108, -0.2328, 200, 99
0.6400, -0.3153, -5.3581, -0.0368, -0.0429, -0.0148, 0.9268, 657202, 0.0443, -0.3127, -0.1034, -0.0338, -0.0981, 0.1108, -0.2328, 200, 99
0.6720, -0.4435, -4.5104, -0.0210, -0.2838, -0.0188, 0.9280, 657242, 0.0443, -0.3127, -0.1034, -0.0337, -0.0982, 0.1108, -0.2706, 200, 49
0.6870, 0.4080, 0.9566, -0.0344, -0.3653, -0.0168, 0.9285, 657282, 0.0443, -0.3127, -0.1035, -0.0338, -0.0981, 0.1108, -0.3041, 163, 171
0.7030, 0.4080, 0.9566, -0.0344, -0.3653, -0.0168, 0.9285, 657282, 0.0443, -0.3127, -0.1034, -0.0338, -0.0981, 0.1107, -0.3041, 163, 171
0.7340, 0.2177, 3.5982, 0.1365, -0.3068, -0.0182, 0.9289, 657302, 0.0443, -0.3127, -0.1035, -0.0339, -0.0981, 0.1109, -0.3191, 70, 200
0.7500, 0.0745, 3.3036, 0.0710, -0.1295, -0.0187, 0.9299, 657342, 0.0443, -0.3127, -0.1034, -0.0339, -0.0981, 0.1107, -0.3453, 1, 200
0.7650, 0.0745, 3.3036, 0.0710, -0.1295, -0.0187, 0.9299, 657342, 0.0443, -0.3127, -0.1034, -0.0338, -0.0981, 0.1108, -0.3453, 1, 200
0.7810, 0.0075, 1.1009, 0.0728, -0.0812, -0.0190, 0.9303, 657362, 0.0443, -0.3127, -0.1035, -0.0339, -0.0980, 0.1109, -0.3564, 1, 200
0.8120, -0.1000, -3.9844, -0.0489, -0.1319, -0.0176, 0.9299, 657402, 0.0443, -0.3127, -0.1034, -0.0338, -0.0980, 0.1108, -0.3742, 164, 159
0.8280, -0.1000, -3.9844, -0.0489, -0.1319, -0.0176, 0.9299, 657402, 0.0443, -0.3127, -0.1035, -0.0339, -0.0981, 0.1108, -0.3742, 164, 159
0.8430, 0.3973, -5.8742, -0.1820, -0.3391, -0.0204, 0.9313, 657442, 0.0443, -0.3127, -0.1034, -0.0339, -0.0981, 0.1108, -0.3862, 200, 1
0.8750, 0.5311, -3.5320, 0.0489, -0.4187, -0.0208, 0.9324, 657462, 0.0443, -0.3127, -0.1035, -0.0338, -0.0980, 0.1108, -0.3899, 200, 94
0.8900, 0.5311, -3.5320, 0.0489, -0.4187, -0.0208, 0.9324, 657462, 0.0443, -0.3127, -0.1034, -0.0338, -0.0982, 0.1108, -0.3899, 200, 94
0.9060, -0.0134, 2.4080, -0.1804, -0.4225, -0.0190, 0.9334, 657502, 0.0443, -0.3127, -0.1034, -0.0338, -0.0980, 0.1109, -0.3927, 138, 197
0.9210, -0.0134, 2.4080, -0.1804, -0.4225, -0.0190, 0.9334, 657502, 0.0443, -0.3128, -0.1035, -0.0339, -0.0982, 0.1108, -0.3927, 138, 197
0.9530, 0.3180, 2.8811, -0.1132, -0.3625, -0.0201, 0.9338, 657522, 0.0444, -0.3127, -0.1034, -0.0339, -0.0981, 0.1108, -0.3918, 83, 200
0.9680, -0.3303, 0.2094, -0.0116, -0.2866, -0.0208, 0.9334, 657562, 0.0443, -0.3127, -0.1035, -0.0338, -0.0981, 0.1108, -0.3853, 124, 198
0.9840, -0.3303, 0.2094, -0.0116, -0.2866, -0.0208, 0.9334, 657562, 0.0443, -0.3127, -0.1035, -0.0339, -0.0982, 0.1108, -0.3853, 124, 198
1.0150, 0.1325, -2.7840, -0.0935, -0.3599, -0.0206, 0.9344, 657602, 0.0443, -0.3127, -0.1034, -0.0338, -0.0980, 0.1109, -0.3727, 200, 110
1.0310, 0.3685, -2.3991, -0.1691, -0.4164, -0.0202, 0.9346, 657622, 0.0443, -0.3128, -0.1035, -0.0339, -0.0981, 0.1108, -0.3642, 200, 90
1.0460, 0.3685, -2.3991, -0.1691, -0.4164, -0.0202, 0.9346, 657622, 0.0443, -0.3126, -0.1034, -0.0338, -0.0982, 0.1107, -0.3642, 200, 90
1.0620, 0.3454, 0.9622, 0.1097, -0.4409, -0.0218, 0.9343, 657662, 0.0443, -0.3127, -0.1035, -0.0339, -0.0979, 0.1108, -0.3429, 179, 162
1.0930, -0.0618, 2.3198, 0.1089, -0.3948, -0.0230, 0.9336, 657682, 0.0443, -0.3128, -0.1035, -0.0338, -0.0982, 0.1107, -0.3302, 133, 199
1.1090, -0.0618, 2.3198, 0.1089, -0.3948, -0.0230, 0.9336, 657682, 0.0443, -0.3126, -0.1034, -0.0337, -0.0981, 0.1109, -0.3302, 133, 199
1.1250, -0.5147, 2.5429, 0.2432, -0.3356, -0.0241, 0.9334, 657702, 0.0443, -0.3127, -0.1035, -0.0340, -0.0981, 0.1107, -0.3162, 117, 200
1.1400, -0.5147, 2.5429, 0.2432, -0.3356, -0.0241, 0.9334, 657702, 0.0443, -0.3127, -0.1034, -0.0338, -0.0981, 0.1108, -0.3162, 117, 200
1.1710, -0.1989, 0.0344, -0.3147, -0.2897, -0.0213, 0.9324, 657742, 0.0443, -0.3127, -0.1035, -0.0339, -0.0981, 0.1108, -0.2846, 170, 159
1.1870, -0.2580, -1.2764, 0.0239, -0.3089, -0.0230, 0.9320, 657762, 0.0443, -0.3127, -0.1035, -0.0339, -0.0982, 0.1107, -0.2670, 195, 130
1.2030, -0.2580, -1.2764, 0.0239, -0.3089, -0.0230, 0.9320, 657762, 0.0444, -0.3127, -0.1034, -0.0339, -0.0980, 0.1108, -0.2670, 195, 130
1.2340, -0.2610, 0.8961, 0.1618, -0.3266, -0.0225, 0.9324, 657802, 0.0444, -0.3127, -0.1034, -0.0339, -0.0979, 0.1107, -0.2288, 175, 156
1.2500, -0.1212, 1.9143, 0.1833, -0.2522, -0.0248, 0.9313, 657842, 0.0443, -0.3127, -0.1034, -0.0338, -0.0982, 0.1108, -0.1870, 130, 193
1.2650, -0.1212, 1.9143, 0.1833, -0.2522, -0.0248, 0.9313, 657842, 0.0444, -0.3127, -0.1034, -0.0339, -0.0981, 0.1108, -0.1870, 130, 193
1.2810, 0.2583, 0.9507, 0.1250, -0.2203, -0.0234, 0.9308, 657862, 0.0443, -0.3127, -0.1034, -0.0339, -0.0981, 0.1108, -0.1650, 163, 163
1.3120, 0.1387, 0.0659, -0.1615, -0.2091, -0.0241, 0.9289, 657902, 0.0443, -0.3127, -0.1035, -0.0339, -0.0981, 0.1107, -0.1190, 183, 140
1.3280, 0.1387, 0.0659, -0.1615, -0.2091, -0.0241, 0.9289, 657902, 0.0444, -0.3127, -0.1034, -0.0339, -0.0980, 0.1108, -0.1190, 183, 140
1.3430, -0.4765, 1.0254, 0.0339, -0.2035, -0.0253, 0.9285, 657922, 0.0444, -0.3127, -0.1035, -0.0339, -0.0980, 0.1107, -0.0953, 172, 153
1.3740, -0.4373, 2.4494, 0.1040, -0.1325, -0.0255, 0.9275, 657962, 0.0443, -0.3127, -0.1034, -0.0338, -0.0982, 0.1108, -0.0468, 136, 184
1.3900, -0.4373, 2.4494, 0.1040, -0.1325, -0.0255, 0.9275, 657962, 0.0443, -0.3127, -0.1034, -0.0339, -0.0980, 0.1109, -0.0468, 136, 184
1.4060, -0.1521, 0.4306, -0.1884, -0.0834, -0.0258, 0.9261, 658002, 0.0443, -0.3127, -0.1034, -0.0339, -0.0981, 0.1107, 0.0025, 176, 145
1.4210, -0.1521, 0.4306, -0.1884, -0.0834, -0.0258, 0.9261, 658002, 0.0443, -0.3127, -0.1034, -0.0338, -0.0981, 0.1108, 0.0025, 176, 145
1.4530, 0.3443, 0.7045, -0.1685, -0.0730, -0.0257, 0.9250, 658022, 0.0443, -0.3127, -0.1034, -0.0338, -0.0980, 0.1108, 0.0271, 175, 146
1.4680, -0.6513, 1.8777, 0.2537, -0.0211, -0.0304, 0.9240, 658062, 0.0443, -0.3127, -0.1034, -0.0338, -0.0982, 0.1108, 0.0760, 148, 172
1.4840, -0.6513, 1.8777, 0.2537, -0.0211, -0.0304, 0.9240, 658062, 0.0443, -0.3127, -0.1034, -0.0338, -0.0979, 0.1109, 0.0760, 148, 172
1.5150, 0.0145, 0.9988, 0.2196, 0.0127, -0.0298, 0.9245, 658082, 0.0443, -0.3127, -0.1034, -0.0339, -0.0982, 0.1107, 0.1000, 166, 156
1.5310, 0.0621, 1.2181, -0.1962, 0.0351, -0.0290, 0.9233, 658102, 0.0444, -0.3127, -0.1034, -0.0338, -0.0979, 0.1108, 0.1237, 173, 148
1.5460, 0.0621, 1.2181, -0.1962, 0.0351, -0.0290, 0.9233, 658102, 0.0443, -0.3127, -0.1035, -0.0339, -0.0981, 0.1107, 0.1237, 173, 148
1.5620, -0.1529, 1.0956, 0.2701, 0.0738, -0.0298, 0.9214, 658142, 0.0443, -0.3127, -0.1034, -0.0338, -0.0982, 0.1107, 0.1695, 166, 156
1.5930, -0.1169, 1.6250, -0.3166, 0.1267, -0.0288, 0.9201, 658182, 0.0443, -0.3127, -0.1035, -0.0339, -0.0980, 0.1109, 0.2125, 154, 169
1.6090, -0.1169, 1.6250, -0.3166, 0.1267, -0.0288, 0.9201, 658182, 0.0443, -0.3127, -0.1035, -0.0339, -0.0984, 0.1107, 0.2125, 154, 169
1.6240, 0.4282, 0.5126, 0.1701, 0.1670, -0.0269, 0.9180, 658222, 0.0444, -0.3127, -0.1034, -0.0338, -0.0981, 0.1109, 0.2522, 173, 150
1.6560, 0.4282, 0.5126, 0.1701, 0.1670, -0.0269, 0.9180, 658222, 0.0443, -0.3127, -0.1034, -0.0338, -0.0980, 0.1107, 0.2522, 173, 150
1.6710, -0.4757, 1.1364, -0.0452, 0.1852, -0.0267, 0.9172, 658242, 0.0443, -0.3127, -0.1034, -0.0338, -0.0982, 0.1108, 0.2706, 170, 155
1.6870, 0.2887, 1.2888, 0.0484, 0.2349, -0.0251, 0.9154, 658282, 0.0443, -0.3127, -0.1034, -0.0338, -0.0980, 0.1109, 0.3041, 155, 171
1.7030, 0.2887, 1.2888, 0.0484, 0.2349, -0.0251, 0.9154, 658282, 0.0443, -0.3127, -0.1035, -0.0338, -0.0981, 0.1107, 0.3041, 155, 171
1.7340, -0.3354, 0.5249, 0.0570, 0.2532, -0.0248, 0.9147, 658302, 0.0444, -0.3127, -0.1035, -0.0339, -0.0981, 0.1109, 0.3191, 172, 156
1.7490, 0.2924, 0.8133, 0.0008, 0.2791, -0.0260, 0.9128, 658342, 0.0443, -0.3127, -0.1035, -0.0338, -0.0981, 0.1108, 0.3453, 166, 163
1.7650, 0.2924, 0.8133, 0.0008, 0.2791, -0.0260, 0.9128, 658342, 0.0443, -0.3127, -0.1034, -0.0338, -0.0982, 0.1107, 0.3453, 166, 163
1.7810, -0.1360, 0.8230, 0.1914, 0.2944, -0.0251, 0.9126, 658362, 0.0443, -0.3127, -0.1034, -0.0338, -0.0981, 0.1108, 0.3564, 165, 165
1.8120, 0.1500, 0.8862, -0.2217, 0.3353, -0.0236, 0.9112, 658402, 0.0443, -0.3127, -0.1035, -0.0339, -0.0981, 0.1107, 0.3742, 158, 174
1.8270, 0.1500, 0.8862, -0.2217, 0.3353, -0.0236, 0.9112, 658402, 0.0444, -0.3127, -0.1034, -0.0338, -0.0980, 0.1108, 0.3742, 158, 174
1.8430, 0.1489, -0.0997, 0.2131, 0.3416, -0.0232, 0.9107, 658422, 0.0444, -0.3127, -0.1034, -0.0338, -0.0980, 0.1108, 0.3810, 177, 155
1.8740, 0.1019, 0.6639, -0.1908, 0.3517, -0.0220, 0.9095, 658462, 0.0444, -0.3127, -0.1035, -0.0339, -0.0980, 0.1108, 0.3899, 163, 170
1.8900, 0.1019, 0.6639, -0.1908, 0.3517, -0.0220, 0.9095, 658462, 0.0443, -0.3127, -0.1034, -0.0338, -0.0980, 0.1108, 0.3899, 163, 170
1.9060, 0.0965, 0.4142, 0.2357, 0.3629, -0.0209, 0.9091, 658482, 0.0443, -0.3127, -0.1034, -0.0338, -0.0981, 0.1106, 0.3921, 157, 176
1.9210, 0.0965, 0.4142, 0.2357, 0.3629, -0.0209, 0.9091, 658482, 0.0443, -0.3127, -0.1034, -0.0339, -0.0980, 0.1108, 0.3921, 157, 176
1.9520, -0.1459, 0.5026, -0.2642, 0.3822, -0.0197, 0.9079, 658522, 0.0444, -0.3127, -0.1034, -0.0338, -0.0981, 0.1107, 0.3918, 159, 176
1.9680, -0.1699, 0.4016, -0.1395, 0.3828, -0.0175, 0.9084, 658562, 0.0443, -0.3127, -0.1035, -0.0339, -0.0981, 0.1109, 0.3853, 161, 175
1.9840, -0.1699, 0.4016, -0.1395, 0.3828, -0.0175, 0.9084, 658562, 0.0443, -0.3127, -0.1034, -0.0338, -0.0982, 0.1109, 0.3853, 161, 175
2.0150, -0.2053, 0.2768, -0.0441, 0.3819, -0.0171, 0.9076, 658582, 0.0443, -0.3127, -0.1034, -0.0338, -0.0981, 0.1108, 0.3797, 160, 176
2.0310, -0.3107, 0.1443, -0.2094, 0.3735, -0.0138, 0.9077, 658622, 0.0444, -0.3127, -0.1035, -0.0339, -0.0982, 0.1108, 0.3642, 167, 169
2.0460, -0.3107, 0.1443, -0.2094, 0.3735, -0.0138, 0.9077, 658622, 0.0443, -0.3127, -0.1034, -0.0337, -0.0981, 0.1107, 0.3642, 167, 169
2.0620, 0.0648, -0.4653, 0.1812, 0.3691, -0.0148, 0.9069, 658642, 0.0443, -0.3127, -0.1035, -0.0339, -0.0979, 0.1108, 0.3543, 172, 163
2.0930, -0.5136, 0.4319, -0.2983, 0.3587, -0.0143, 0.9063, 658682, 0.0443, -0.3127, -0.1034, -0.0339, -0.0983, 0.1107, 0.3302, 153, 180
2.1090, -0.5136, 0.4319, -0.2983, 0.3587, -0.0143, 0.9063, 658682, 0.0444, -0.3127, -0.1035, -0.0338, -0.0980, 0.1108, 0.3302, 153, 180
2.1240, -0.1973, -0.8733, 0.0296, 0.3362, -0.0110, 0.9070, 658722, 0.0443, -0.3127, -0.1034, -0.0339, -0.0982, 0.1107, 0.3010, 180, 152
2.1400, -0.1973, -0.8733, 0.0296, 0.3362, -0.0110, 0.9070, 658722, 0.0443, -0.3127, -0.1034, -0.0339, -0.0981, 0.1108, 0.3010, 180, 152
2.1710, -0.6241, -0.5550, -0.2293, 0.3213, -0.0113, 0.9063, 658742, 0.0443, -0.3127, -0.1035, -0.0339, -0.0980, 0.1108, 0.2846, 159, 172
2.1870, -0.4266, 0.0038, -0.2078, 0.2971, -0.0082, 0.9060, 658782, 0.0443, -0.3127, -0.1034, -0.0339, -0.0983, 0.1108, 0.2484, 159, 171
2.2020, -0.4266, 0.0038, -0.2078, 0.2971, -0.0082, 0.9060, 658782, 0.0444, -0.3127, -0.1035, -0.0339, -0.0980, 0.1108, 0.2484, 159, 171
2.2340, 0.1556, -0.8045, -0.0656, 0.2833, -0.0080, 0.9051, 658802, 0.0443, -0.3127, -0.1034, -0.0339, -0.0981, 0.1108, 0.2288, 165, 164
2.2490, -0.5814, -0.4696, -0.2548, 0.2423, -0.0065, 0.9051, 658842, 0.0443, -0.3127, -0.1034, -0.0338, -0.0981, 0.1108, 0.1870, 164, 163
2.2650, -0.5814, -0.4696, -0.2548, 0.2423, -0.0065, 0.9051, 658842, 0.0443, -0.3127, -0.1034, -0.0338, -0.0980, 0.1109, 0.1870, 164, 163
2.2800, -0.0986, -0.8993, 0.1056, 0.2051, -0.0086, 0.9044, 658882, 0.0443, -0.3127, -0.1035, -0.0339, -0.0982, 0.1108, 0.1422, 166, 160
2.3120, -0.4306, -0.9509, -0.1169, 0.1831, -0.0108, 0.9039, 658902, 0.0444, -0.3127, -0.1035, -0.0338, -0.0980, 0.1109, 0.1190, 167, 158
2.3270, -0.4306, -0.9509, -0.1169, 0.1831, -0.0108, 0.9039, 658902, 0.0443, -0.3127, -0.1034, -0.0338, -0.0982, 0.1107, 0.1190, 167, 158
2.3430, -0.2441, -1.0507, 0.0769, 0.1354, -0.0124, 0.9034, 658942, 0.0443, -0.3127, -0.1035, -0.0340, -0.0981, 0.1108, 0.0711, 165, 158
2.3740, -0.2626, -1.3133, -0.0185, 0.1150, -0.0136, 0.9034, 658962, 0.0444, -0.3127, -0.1034, -0.0339, -0.0980, 0.1108, 0.0468, 168, 155
2.3900, -0.2626, -1.3133, -0.0185, 0.1150, -0.0136, 0.9034, 658962, 0.0443, -0.3127, -0.1035, -0.0338, -0.0982, 0.1108, 0.0468, 168, 155
2.4050, -0.0430, -1.4356, 0.1003, 0.0691, -0.0133, 0.9022, 659002, 0.0443, -0.3127, -0.1034, -0.0339, -0.0980, 0.1108, -0.0025, 167, 154
2.4210, -0.0430, -1.4356, 0.1003, 0.0691, -0.0133, 0.9022, 659002, 0.0443, -0.3127, -0.1034, -0.0339, -0.0981, 0.1107, -0.0025, 167, 154
2.4520, 0.1156, -0.4263, -0.2462, 0.0208, -0.0115, 0.9022, 659042, 0.0443, -0.3127, -0.1035, -0.0339, -0.0981, 0.1107, -0.0517, 153, 168
2.4680, 0.1156, -0.4263, -0.2462, 0.0208, -0.0115, 0.9022, 659042, 0.0444, -0.3126, -0.1034, -0.0338, -0.0981, 0.1108, -0.0517, 153, 168
2.4840, 0.0618, -0.5687, -0.1142, 0.0105, -0.0115, 0.9016, 659062, 0.0443, -0.3127, -0.1035, -0.0339, -0.0982, 0.1108, -0.0760, 147, 173
2.5150, 0.0785, -1.9989, -0.0529, -0.0440, -0.0115, 0.9022, 659102, 0.0443, -0.3127, -0.1034, -0.0338, -0.0982, 0.1108, -0.1237, 180, 139
2.5300, 0.0785, -1.9989, -0.0529, -0.0440, -0.0115, 0.9022, 659102, 0.0443, -0.3126, -0.1034, -0.0337, -0.0981, 0.1107, -0.1237, 180, 139
2.5460, 0.1234, -1.2622, -0.1890, -0.0787, -0.0115, 0.9023, 659122, 0.0443, -0.3127, -0.1035, -0.0339, -0.0981, 0.1107, -0.1469, 169, 153
2.5620, 0.1234, -1.2622, -0.1890, -0.0787, -0.0115, 0.9023, 659122, 0.0443, -0.3127, -0.1034, -0.0338, -0.0981, 0.1108, -0.1469, 169, 153
2.5930, 0.0067, -0.5835, 0.0935, -0.1136, -0.0129, 0.9027, 659162, 0.0444, -0.3127, -0.1035, -0.0339, -0.0981, 0.1108, -0.1913, 150, 172
2.6090, -0.4548, -0.9480, -0.2043, -0.1606, -0.0134, 0.9034, 659202, 0.0443, -0.3127, -0.1034, -0.0338, -0.0981, 0.1107, -0.2328, 169, 155
2.6240, -0.4548, -0.9480, -0.2043, -0.1606, -0.0134, 0.9034, 659202, 0.0444, -0.3127, -0.1034, -0.0339, -0.0979, 0.1108, -0.2328, 169, 155
2.6550, -0.1997, -1.1090, -0.2408, -0.1887, -0.0147, 0.9025, 659222, 0.0443, -0.3127, -0.1035, -0.0339, -0.0980, 0.1108, -0.2522, 166, 159
2.6710, -0.4521, -0.7572, 0.1562, -0.2262, -0.0140, 0.9025, 659262, 0.0444, -0.3127, -0.1034, -0.0339, -0.0981, 0.1108, -0.2880, 158, 168
2.6870, -0.4521, -0.7572, 0.1562, -0.2262, -0.0140, 0.9025, 659262, 0.0443, -0.3128, -0.1035, -0.0338, -0.0981, 0.1109, -0.2880, 158, 168
2.7020, -0.1836, -0.9507, 0.1234, -0.2436, -0.0140, 0.9027, 659282, 0.0443, -0.3127, -0.1034, -0.0339, -0.0981, 0.1108, -0.3041, 168, 159
2.7340, -0.1906, -0.9628, -0.0363, -0.2883, -0.0138, 0.9027, 659322, 0.0443, -0.3127, -0.1034, -0.0338, -0.0981, 0.1109, -0.3329, 168, 162
2.7490, -0.1906, -0.9628, -0.0363, -0.2883, -0.0138, 0.9027, 659322, 0.0444, -0.3127, -0.1035, -0.0338, -0.0981, 0.1109, -0.3329, 168, 162
2.7650, 0.0145, -0.6023, 0.0446, -0.3171, -0.0122, 0.9037, 659362, 0.0443, -0.3127, -0.1034, -0.0339, -0.0981, 0.1108, -0.3564, 166, 165
2.7960, 0.0145, -0.6023, 0.0446, -0.3171, -0.0122, 0.9037, 659362, 0.0443, -0.3127, -0.1035, -0.0339, -0.0980, 0.1109, -0.3564, 166, 165
2.8120, -0.2126, -0.1089, -0.3298, -0.3267, -0.0124, 0.9022, 659382, 0.0443, -0.3127, -0.1035, -0.0339, -0.0981, 0.1108, -0.3660, 157, 174
2.8270, -0.3392, -0.6177, -0.1785, -0.3587, -0.0115, 0.9025, 659422, 0.0443, -0.3127, -0.1034, -0.0338, -0.0980, 0.1109, -0.3810, 181, 152
2.8430, -0.3392, -0.6177, -0.1785, -0.3587, -0.0115, 0.9025, 659422, 0.0444, -0.3128, -0.1035, -0.0339, -0.0982, 0.1108, -0.3810, 181, 152
2.8740, 0.2121, -0.3139, -0.1035, -0.3688, -0.0119, 0.9023, 659442, 0.0443, -0.3127, -0.1034, -0.0338, -0.0982, 0.1108, -0.3862, 166, 169
2.8900, -0.2336, -0.1683, 0.1180, -0.3777, -0.0115, 0.9029, 659482, 0.0444, -0.3127, -0.1034, -0.0339, -0.0979, 0.1108, -0.3921, 172, 164
2.9050, -0.2336, -0.1683, 0.1180, -0.3777, -0.0115, 0.9029, 659482, 0.0443, -0.3127, -0.1034, -0.0338, -0.0981, 0.1108, -0.3921, 172, 164
2.9210, -0.0594, -0.5362, 0.0497, -0.3880, -0.0115, 0.9022, 659522, 0.0444, -0.3127, -0.1035, -0.0338, -0.0981, 0.1108, -0.3918, 173, 163
2.9520, 0.0099, -0.7416, 0.2650, -0.3965, -0.0120, 0.9027, 659542, 0.0444, -0.3127, -0.1034, -0.0338, -0.0982, 0.1107, -0.3893, 186, 149
2.9680, 0.0099, -0.7416, 0.2650, -0.3965, -0.0120, 0.9027, 659542, 0.0443, -0.3127, -0.1034, -0.0338, -0.0981, 0.1108, -0.3893, 186, 149
2.9830, -0.0481, 0.1148, 0.0215, -0.4002, -0.0119, 0.9025, 659582, 0.0443, -0.3127, -0.1034, -0.0338, -0.0979, 0.1108, -0.3797, 166, 172
3.0150, 0.1277, -0.1750, 0.3131, -0.3964, -0.0126, 0.9034, 659602, 0.0444, -0.3127, -0.1035, -0.0338, -0.0981, 0.1107, -0.3727, 171, 166
3.0300, 0.1277, -0.1750, 0.3131, -0.3964, -0.0126, 0.9034, 659602, 0.0443, -0.3127, -0.1035, -0.0338, -0.0982, 0.1108, -0.3727, 171, 166
3.0460, 0.3083, 0.3591, 0.0809, -0.3829, -0.0138, 0.9032, 659642, 0.0444, -0.3127, -0.1034, -0.0338, -0.0980, 0.1108, -0.3543, 169, 167
3.0620, 0.3083, 0.3591, 0.0809, -0.3829, -0.0138, 0.9032, 659642, 0.0443, -0.3127, -0.1035, -0.0338, -0.0982, 0.1108, -0.3543, 169, 167
3.0930, -0.0011, 0.3317, -0.1091, -0.3744, -0.0143, 0.9032, 659682, 0.0443, -0.3127, -0.1034, -0.0339, -0.0981, 0.1108, -0.3302, 173, 162
3.1080, 0.2139, 0.3806, -0.0761, -0.3700, -0.0141, 0.9030, 659702, 0.0444, -0.3127, -0.1034, -0.0338, -0.0980, 0.1108, -0.3162, 172, 163
3.1240, 0.2139, 0.3806, -0.0761, -0.3700, -0.0141, 0.9030, 659702, 0.0444, -0.3127, -0.1035, -0.0339, -0.0981, 0.1108, -0.3162, 172, 163
3.1550, 0.0078, 0.2379, 0.2110, -0.3632, -0.0138, 0.9036, 659722, 0.0443, -0.3127, -0.1034, -0.0338, -0.0981, 0.1108, -0.3010, 179, 155
3.1710, -0.0664, 1.2522, -0.3123, -0.3327, -0.0143, 0.9030, 659762, 0.0443, -0.3127, -0.1035, -0.0339, -0.0981, 0.1107, -0.2670, 160, 172
3.1870, -0.0664, 1.2522, -0.3123, -0.3327, -0.0143, 0.9030, 659762, 0.0443, -0.3126, -0.1034, -0.0339, -0.0981, 0.1108, -0.2670, 160, 172
3.2020, 0.5123, 0.2707, 0.3250, -0.3126, -0.0136, 0.9030, 659782, 0.0444, -0.3127, -0.1035, -0.0338, -0.0981, 0.1108, -0.2484, 172, 159
3.2330, 0.0790, 0.8117, -0.1196, -0.2848, -0.0141, 0.9027, 659822, 0.0443, -0.3128, -0.1035, -0.0338, -0.0982, 0.1108, -0.2083, 167, 162
3.2490, 0.0790, 0.8117, -0.1196, -0.2848, -0.0141, 0.9027, 659822, 0.0443, -0.3127, -0.1034, -0.0338, -0.0980, 0.1108, -0.2083, 167, 162
3.2650, 0.2830, 0.6322, 0.2059, -0.2702, -0.0133, 0.9029, 659842, 0.0443, -0.3127, -0.1035, -0.0338, -0.0981, 0.1107, -0.1870, 172, 156
3.2960, 0.2830, 0.6322, 0.2059, -0.2702, -0.0133, 0.9029, 659842, 0.0444, -0.3126, -0.1034, -0.0339, -0.0980, 0.1108, -0.1870, 172, 156
3.3120, 0.2295, 1.2168, -0.1177, -0.2276, -0.0124, 0.9022, 659882, 0.0443, -0.3127, -0.1035, -0.0338, -0.0982, 0.1108, -0.1422, 167, 159
3.3270, -0.0511, 0.9050, 0.2051, -0.1840, -0.0138, 0.9020, 659922, 0.0443, -0.3128, -0.1035, -0.0339, -0.0981, 0.1108, -0.0953, 172, 152
3.3430, -0.0511, 0.9050, 0.2051, -0.1840, -0.0138, 0.9020, 659922, 0.0443, -0.3126, -0.1034, -0.0339, -0.0980, 0.1107, -0.0953, 172, 152
3.3740, 0.0758, 1.4267, -0.1650, -0.1604, -0.0131, 0.9016, 659942, 0.0443, -0.3127, -0.1035, -0.0338, -0.0981, 0.1107, -0.0711, 159, 165
3.3900, 0.1481, 0.4290, 0.3470, -0.1190, -0.0136, 0.9006, 659982, 0.0443, -0.3126, -0.1034, -0.0338, -0.0982, 0.1108, -0.0222, 176, 146
3.4050, 0.1481, 0.4290, 0.3470, -0.1190, -0.0136, 0.9006, 659982, 0.0444, -0.3127, -0.1034, -0.0338, -0.0979, 0.1108, -0.0222, 176, 146
3.4210, -0.3411, 1.5691, -0.1978, -0.0953, -0.0140, 0.9008, 660002, 0.0443, -0.3127, -0.1034, -0.0338, -0.0982, 0.1106, 0.0025, 164, 159
3.4520, 0.3126, 1.1036, 0.1511, -0.0405, -0.0141, 0.8999, 660042, 0.0443, -0.3127, -0.1034, -0.0338, -0.0981, 0.1109, 0.0517, 162, 159
3.4680, 0.3126, 1.1036, 0.1511, -0.0405, -0.0141, 0.8999, 660042, 0.0443, -0.3127, -0.1035, -0.0338, -0.0982, 0.1107, 0.0517, 162, 159
3.4830, 0.2392, 0.9810, -0.0723, 0.0014, -0.0148, 0.8994, 660082, 0.0444, -0.3127, -0.1034, -0.0338, -0.0982, 0.1108, 0.1000, 168, 154
3.5150, 0.1037, 1.3711, -0.0521, 0.0241, -0.0143, 0.8983, 660102, 0.0443, -0.3127, -0.1034, -0.0338, -0.0981, 0.1108, 0.1237, 157, 165
3.5300, 0.1037, 1.3711, -0.0521, 0.0241, -0.0143, 0.8983, 660102, 0.0443, -0.3127, -0.1034, -0.0339, -0.0982, 0.1107, 0.1237, 157, 165
3.5460, 0.0917, 1.3353, -0.0938, 0.0815, -0.0134, 0.8980, 660142, 0.0443, -0.3127, -0.1034, -0.0339, -0.0981, 0.1109, 0.1695, 165, 157
3.5610, 0.0917, 1.3353, -0.0938, 0.0815, -0.0134, 0.8980, 660142, 0.0444, -0.3127, -0.1034, -0.0338, -0.0980, 0.1108, 0.1695, 165, 157
3.5930, -0.1833, 1.1399, -0.2277, 0.1059, -0.0140, 0.8973, 660162, 0.0444, -0.3127, -0.1034, -0.0338, -0.0981, 0.1107, 0.1913, 162, 161
3.6080, -0.0032, 1.0423, 0.0871, 0.1395, -0.0138, 0.8976, 660202, 0.0443, -0.3127, -0.1035, -0.0338, -0.0982, 0.1108, 0.2328, 175, 147
3.6240, -0.0032, 1.0423, 0.0871, 0.1395, -0.0138, 0.8976, 660202, 0.0443, -0.3127, -0.1034, -0.0339, -0.0981, 0.1108, 0.2328, 175, 147
3.6550, 0.1924, 1.1869, 0.1734, 0.1873, -0.0131, 0.8964, 660242, 0.0443, -0.3127, -0.1035, -0.0338, -0.0981, 0.1108, 0.2706, 159, 165
3.6710, -0.1140, 0.9797, 0.0718, 0.2121, -0.0119, 0.8961, 660262, 0.0443, -0.3127, -0.1034, -0.0339, -0.0981, 0.1109, 0.2880, 166, 160
3.6860, -0.1140, 0.9797, 0.0718, 0.2121, -0.0119, 0.8961, 660262, 0.0444, -0.3127, -0.1035, -0.0339, -0.0980, 0.1108, 0.2880, 166, 160
3.7020, 0.3204, 0.8399, 0.0567, 0.2524, -0.0098, 0.8954, 660302, 0.0443, -0.3127, -0.1034, -0.0338, -0.0981, 0.1108, 0.3191, 166, 161
3.7330, -0.0726, 0.4669, 0.0938, 0.2667, -0.0093, 0.8957, 660322, 0.0443, -0.3127, -0.1034, -0.0339, -0.0980, 0.1107, 0.3329, 173, 155
3.7490, -0.0726, 0.4669, 0.0938, 0.2667, -0.0093, 0.8957, 660322, 0.0443, -0.3127, -0.1035, -0.0339, -0.0981, 0.1108, 0.3329, 173, 155
3.7650, 0.1903, 1.1141, -0.1610, 0.2967, -0.0082, 0.8954, 660362, 0.0444, -0.3127, -0.1034, -0.0339, -0.0982, 0.1107, 0.3564, 160, 170
3.7960, 0.0890, 1.0821, -0.0296, 0.3297, -0.0086, 0.8952, 660402, 0.0443, -0.3128, -0.1035, -0.0339, -0.0981, 0.1108, 0.3742, 162, 170
3.8110, 0.0890, 1.0821, -0.0296, 0.3297, -0.0086, 0.8952, 660402, 0.0443, -0.3127, -0.1034, -0.0339, -0.0982, 0.1107, 0.3742, 162, 170
3.8270, 0.0890, 1.0821, -0.0296, 0.3297, -0.0086, 0.8952, 660402, 0.0443, -0.3127, -0.1034, -0.0338, -0.0979, 0.1108, 0.3742, 162, 170
3.8430, 0.0890, 1.0821, -0.0296, 0.3297, -0.0086, 0.8952, 660402, 0.0443, -0.3127, -0.1035, -0.0339, -0.0982, 0.1108, 0.3742, 162, 170
3.8740, 0.2338, 0.0943, 0.1809, 0.3608, -0.0080, 0.8952, 660442, 0.0444, -0.3127, -0.1034, -0.0338, -0.0980, 0.1107, 0.3862, 168, 166
3.8900, -0.0812, 0.7658, -0.1586, 0.3691, -0.0084, 0.8954, 660462, 0.0444, -0.3127, -0.1035, -0.0339, -0.0980, 0.1108, 0.3899, 165, 169
3.9050, -0.0812, 0.7658, -0.1586, 0.3691, -0.0084, 0.8954, 660462, 0.0443, -0.3127, -0.1034, -0.0339, -0.0982, 0.1107, 0.3899, 165, 169
3.9360, 0.2876, -0.1844, 0.2629, 0.3808, -0.0077, 0.8955, 660502, 0.0443, -0.3126, -0.1034, -0.0338, -0.0980, 0.1108, 0.3927, 174, 161
3.9520, -0.0650, 0.1204, -0.0194, 0.3925, -0.0086, 0.8950, 660542, 0.0443, -0.3128, -0.1035, -0.0338, -0.0983, 0.1107, 0.3893, 159, 177
3.9680, -0.0650, 0.1204, -0.0194, 0.3925, -0.0086, 0.8950, 660542, 0.0444, -0.3127, -0.1034, -0.0339, -0.0980, 0.1108, 0.3893, 159, 177
3.9830, 0.3080, -0.2924, 0.1220, 0.3946, -0.0077, 0.8962, 660562, 0.0443, -0.3127, -0.1035, -0.0339, -0.0981, 0.1109, 0.3853, 174, 162
4.0140, 0.1994, -0.3045, 0.1876, 0.3941, -0.0073, 0.8955, 660602, 0.0443, -0.3127, -0.1035, -0.0339, -0.0981, 0.1107, 0.3727, 161, 175
4.0300, 0.1994, -0.3045, 0.1876, 0.3941, -0.0073, 0.8955, 660602, 0.0444, -0.3127, -0.1034, -0.0338, -0.0979, 0.1107, 0.3727, 161, 175
4.0460, 0.0535, -0.4190, 0.0293, 0.3890, -0.0068, 0.8962, 660622, 0.0443, -0.3127, -0.1035, -0.0339, -0.0983, 0.1107, 0.3642, 173, 163
4.0610, 0.0535, -0.4190, 0.0293, 0.3890, -0.0068, 0.8962, 660622, 0.0444, -0.3127, -0.1034, -0.0338, -0.0981, 0.1108, 0.3642, 173, 163
4.0930, 0.3505, -0.6878, 0.3029, 0.3737, -0.0072, 0.8957, 660662, 0.0443, -0.3127, -0.1034, -0.0338, -0.0979, 0.1107, 0.3429, 172, 163
4.1080, -0.1653, 0.0075, -0.1000, 0.3587, -0.0070, 0.8947, 660702, 0.0443, -0.3127, -0.1034, -0.0338, -0.0982, 0.1107, 0.3162, 155, 178
4.1240, -0.1653, 0.0075, -0.1000, 0.3587, -0.0070, 0.8947, 660702, 0.0443, -0.3127, -0.1034, -0.0338, -0.0981, 0.1109, 0.3162, 155, 178
4.1550, 0.5206, -1.0230, 0.2707, 0.3480, -0.0044, 0.8948, 660722, 0.0443, -0.3127, -0.1034, -0.0338, -0.0982, 0.1107, 0.3010, 168, 166
4.1710, 0.1357, -0.5690, 0.0030, 0.3239, -0.0063, 0.8948, 660762, 0.0444, -0.3127, -0.1034, -0.0339, -0.0980, 0.1109, 0.2670, 158, 173
4.1860, 0.1357, -0.5690, 0.0030, 0.3239, -0.0063, 0.8948, 660762, 0.0443, -0.3127, -0.1034, -0.0338, -0.0981, 0.1108, 0.2670, 158, 173
4.2020, 0.3981, -1.3931, 0.2086, 0.3070, -0.0054, 0.8948, 660782, 0.0443, -0.3127, -0.1034, -0.0338, -0.0982, 0.1107, 0.2484, 172, 158
4.2330, 0.2314, -1.0026, -0.0433, 0.2669, -0.0077, 0.8940, 660822, 0.0443, -0.3127, -0.1034, -0.0339, -0.0980, 0.1109, 0.2083, 162, 166
4.2490, 0.2314, -1.0026, -0.0433, 0.2669, -0.0077, 0.8940, 660822, 0.0444, -0.3127, -0.1035, -0.0339, -0.0981, 0.1107, 0.2083, 162, 166
4.2640, -0.2053, -0.5741, -0.0702, 0.2236, -0.0075, 0.8940, 660862, 0.0443, -0.3127, -0.1034, -0.0338, -0.0981, 0.1107, 0.1650, 164, 163
4.2960, 0.2959, -0.6765, -0.1067, 0.2086, -0.0065, 0.8938, 660882, 0.0443, -0.3127, -0.1034, -0.0337, -0.0982, 0.1107, 0.1422, 149, 176
4.3110, 0.2959, -0.6765, -0.1067, 0.2086, -0.0065, 0.8938, 660882, 0.0443, -0.3127, -0.1035, -0.0339, -0.0980, 0.1108, 0.1422, 149, 176
4.3270, -0.0790, -1.6374, 0.0317, 0.1677, -0.0059, 0.8936, 660922, 0.0443, -0.3127, -0.1035, -0.0338, -0.0982, 0.1108, 0.0953, 179, 143
4.3420, -0.0790, -1.6374, 0.0317, 0.1677, -0.0059, 0.8936, 660922, 0.0443, -0.3127, -0.1034, -0.0338, -0.0981, 0.1108, 0.0953, 179, 143
4.3740, 0.2892, -1.8019, -0.1672, 0.1386, -0.0065, 0.8926, 660942, 0.0443, -0.3127, -0.1035, -0.0339, -0.0981, 0.1108, 0.0711, 167, 156
4.3890, -0.3478, -0.4722, 0.3024, 0.0951, -0.0070, 0.8927, 660982, 0.0443, -0.3127, -0.1034, -0.0338, -0.0982, 0.1108, 0.0222, 152, 170
4.4050, -0.3478, -0.4722, 0.3024, 0.0951, -0.0070, 0.8927, 660982, 0.0443, -0.3127, -0.1035, -0.0339, -0.0980, 0.1108, 0.0222, 152, 170
4.4360, -0.1790, -1.2337, -0.3051, 0.0611, -0.0052, 0.8926, 661022, 0.0443, -0.3127, -0.1034, -0.0339, -0.0983, 0.1107, -0.0271, 168, 154
4.4520, -0.0898, -2.0059, -0.2053, 0.0288, -0.0066, 0.8922, 661042, 0.0444, -0.3127, -0.1034, -0.0339, -0.0980, 0.1107, -0.0517, 168, 153
4.4670, -0.0898, -2.0059, -0.2053, 0.0288, -0.0066, 0.8922, 661042, 0.0443, -0.3127, -0.1034, -0.0338, -0.0981, 0.1108, -0.0517, 168, 153
4.4830, 0.0610, -0.9735, 0.1994, -0.0297, -0.0072, 0.8924, 661082, 0.0444, -0.3127, -0.1034, -0.0339, -0.0981, 0.1108, -0.1000, 159, 163
4.5140, -0.2150, -0.8846, 0.0602, -0.0424, -0.0077, 0.8927, 661102, 0.0443, -0.3127, -0.1034, -0.0339, -0.0980, 0.1109, -0.1237, 152, 169
4.5300, -0.2150, -0.8846, 0.0602, -0.0424, -0.0077, 0.8927, 661102, 0.0443, -0.3127, -0.1034, -0.0338, -0.0982, 0.1106, -0.1237, 152, 169
4.5460, -0.0645, -0.7972, -0.1430, -0.0586, -0.0086, 0.8926, 661122, 0.0444, -0.3127, -0.1034, -0.0339, -0.0980, 0.1109, -0.1469, 157, 165
4.5610, -0.0645, -0.7972, -0.1430, -0.0586, -0.0086, 0.8926, 661122, 0.0443, -0.3127, -0.1034, -0.0339, -0.0980, 0.1107, -0.1469, 157, 165
4.5920, 0.1062, -1.9070, 0.1795, -0.1257, -0.0068, 0.8920, 661162, 0.0443, -0.3127, -0.1034, -0.0339, -0.0981, 0.1108, -0.1913, 180, 141
4.6080, -0.2255, -1.1681, 0.1524, -0.1499, -0.0089, 0.8919, 661182, 0.0444, -0.3127, -0.1034, -0.0338, -0.0979, 0.1109, -0.2125, 159, 165
4.6240, -0.2255, -1.1681, 0.1524, -0.1499, -0.0089, 0.8919, 661182, 0.0443, -0.3127, -0.1034, -0.0338, -0.0982, 0.1107, -0.2125, 159, 165
4.6550, 0.2174, -0.6486, -0.2677, -0.1805, -0.0077, 0.8917, 661222, 0.0444, -0.3127, -0.1034, -0.0339, -0.0980, 0.1109, -0.2522, 157, 168
4.6710, -0.0946, -1.2576, -0.2032, -0.2042, -0.0079, 0.8912, 661242, 0.0443, -0.3127, -0.1034, -0.0338, -0.0981, 0.1108, -0.2706, 165, 160
4.6860, -0.0946, -1.2576, -0.2032, -0.2042, -0.0079, 0.8912, 661242, 0.0443, -0.3127, -0.1035, -0.0340, -0.0982, 0.1109, -0.2706, 165, 160
4.7020, -0.1062, -0.4733, -0.1951, -0.2691, -0.0099, 0.8927, 661302, 0.0444, -0.3127, -0.1034, -0.0338, -0.0979, 0.1108, -0.3191, 165, 164
4.7330, 0.1683, -0.6730, -0.1597, -0.2812, -0.0101, 0.8927, 661322, 0.0443, -0.3127, -0.1034, -0.0338, -0.0982, 0.1108, -0.3329, 163, 166
4.7490, 0.1683, -0.6730, -0.1597, -0.2812, -0.0101, 0.8927, 661322, 0.0443, -0.3127, -0.1034, -0.0339, -0.0981, 0.1108, -0.3329, 163, 166
4.7640, -0.2814, -1.1751, 0.0164, -0.3152, -0.0098, 0.8933, 661362, 0.0444, -0.3127, -0.1034, -0.0337, -0.0980, 0.1108, -0.3564, 176, 155
4.7960, 0.0352, -0.4591, -0.2021, -0.3341, -0.0099, 0.8929, 661382, 0.0443, -0.3127, -0.1035, -0.0339, -0.0981, 0.1108, -0.3660, 167, 165
4.8110, 0.0352, -0.4591, -0.2021, -0.3341, -0.0099, 0.8929, 661382, 0.0444, -0.3127, -0.1034, -0.0338, -0.0979, 0.1108, -0.3660, 167, 165
4.8270, -0.1820, -0.6832, -0.0145, -0.3513, -0.0099, 0.8924, 661402, 0.0443, -0.3127, -0.1035, -0.0339, -0.0982, 0.1107, -0.3742, 173, 160
4.8420, -0.1820, -0.6832, -0.0145, -0.3513, -0.0099, 0.8924, 661402, 0.0443, -0.3127, -0.1034, -0.0339, -0.0981, 0.1108, -0.3742, 173, 160
4.8740, -0.0613, -0.2021, -0.1873, -0.3676, -0.0105, 0.8934, 661442, 0.0443, -0.3127, -0.1034, -0.0337, -0.0981, 0.1106, -0.3862, 172, 162
4.8890, 0.0656, 0.0129, -0.2303, -0.3700, -0.0099, 0.8927, 661462, 0.0444, -0.3127, -0.1035, -0.0339, -0.0981, 0.1107, -0.3899, 159, 175
4.9050, 0.0656, 0.0129, -0.2303, -0.3700, -0.0099, 0.8927, 661462, 0.0443, -0.3127, -0.1034, -0.0339, -0.0981, 0.1107, -0.3899, 159, 175
4.9360, -0.4072, -0.2857, -0.0022, -0.3829, -0.0101, 0.8936, 661502, 0.0443, -0.3127, -0.1035, -0.0339, -0.0981, 0.1108, -0.3927, 176, 160
4.9520, 0.1916, -0.6588, 0.0933, -0.4007, -0.0094, 0.8934, 661542, 0.0443, -0.3127, -0.1034, -0.0338, -0.0981, 0.1107, -0.3893, 182, 154
4.9670, 0.1916, -0.6588, 0.0933, -0.4007, -0.0094, 0.8934, 661542, 0.0444, -0.3127, -0.1034, -0.0338, -0.0979, 0.1108, -0.3893, 182, 154
4.9830, -0.0726, -0.4287, 0.1675, -0.4079, -0.0098, 0.8938, 661562, 0.0443, -0.3127, -0.1035, -0.0339, -0.0980, 0.1109, -0.3853, 185, 151
5.0140, -0.0712, 0.3814, -0.1427, -0.4082, -0.0087, 0.8931, 661602, 0.0443, -0.3127, -0.1034, -0.0339, -0.0982, 0.1107, -0.3727, 171, 167
5.0300, -0.0712, 0.3814, -0.1427, -0.4082, -0.0087, 0.8931, 661602, 0.0443, -0.3127, -0.1034, -0.0339, -0.0979, 0.1108, -0.3727, 171, 167
5.0450, -0.3131, 0.6553, -0.1973, -0.3978, -0.0087, 0.8940, 661642, 0.0444, -0.3127, -0.1034, -0.0339, -0.0981, 0.1107, -0.3543, 171, 166
5.0610, -0.3131, 0.6553, -0.1973, -0.3978, -0.0087, 0.8940, 661642, 0.0444, -0.3127, -0.1034, -0.0338, -0.0979, 0.1109, -0.3543, 171, 166
5.0920, 0.1398, 0.5389, -0.0962, -0.3897, -0.0094, 0.8938, 661662, 0.0443, -0.3127, -0.1035, -0.0339, -0.0982, 0.1108, -0.3429, 169, 168
5.1080, -0.1508, 0.7039, 0.0452, -0.3740, -0.0086, 0.8945, 661702, 0.0443, -0.3127, -0.1034, -0.0339, -0.0982, 0.1107, -0.3162, 173, 162
5.1240, -0.1508, 0.7039, 0.0452, -0.3740, -0.0086, 0.8945, 661702, 0.0443, -0.3127, -0.1035, -0.0338, -0.0980, 0.1109, -0.3162, 173, 162
5.1550, 0.0852, 0.7873, -0.1994, -0.3632, -0.0079, 0.8940, 661722, 0.0443, -0.3127, -0.1034, -0.0338, -0.0982, 0.1106, -0.3010, 169, 166
5.1700, -0.0339, 0.2634, 0.0712, -0.3431, -0.0091, 0.8950, 661762, 0.0444, -0.3127, -0.1035, -0.0339, -0.0980, 0.1108, -0.2670, 184, 147
5.1860, -0.0339, 0.2634, 0.0712, -0.3431, -0.0091, 0.8950, 661762, 0.0443, -0.3127, -0.1034, -0.0339, -0.0980, 0.1108, -0.2670, 184, 147
5.2020, 0.2586, 1.2122, 0.0500, -0.3047, -0.0093, 0.8943, 661802, 0.0443, -0.3127, -0.1034, -0.0338, -0.0982, 0.1108, -0.2288, 160, 170
5.2330, -0.0489, 0.9518, 0.0771, -0.2836, -0.0087, 0.8950, 661822, 0.0443, -0.3127, -0.1035, -0.0339, -0.0980, 0.1109, -0.2083, 172, 157
5.2490, -0.0489, 0.9518, 0.0771, -0.2836, -0.0087, 0.8950, 661822, 0.0443, -0.3127, -0.1034, -0.0339, -0.0982, 0.1107, -0.2083, 172, 157
5.2640, 0.1545, 0.9878, -0.0790, -0.2480, -0.0091, 0.8950, 661862, 0.0444, -0.3127, -0.1035, -0.0339, -0.0980, 0.1107, -0.1650, 168, 160
5.2950, 0.0554, 0.6832, 0.0707, -0.2320, -0.0096, 0.8952, 661882, 0.0443, -0.3127, -0.1034, -0.0339, -0.0980, 0.1107, -0.1422, 174, 151
5.3110, 0.0554, 0.6832, 0.0707, -0.2320, -0.0096, 0.8952, 661882, 0.0443, -0.3127, -0.1035, -0.0338, -0.0982, 0.1108, -0.1422, 174, 151
5.3270, -0.0497, 1.2598, -0.2363, -0.1902, -0.0099, 0.8955, 661922, 0.0444, -0.3127, -0.1034, -0.0338, -0.0980, 0.1108, -0.0953, 162, 163
5.3420, -0.0497, 1.2598, -0.2363, -0.1902, -0.0099, 0.8955, 661922, 0.0444, -0.3127, -0.1034, -0.0339, -0.0981, 0.1108, -0.0953, 162, 163
5.3740, 0.0419, 1.2807, 0.1204, -0.1414, -0.0101, 0.8969, 661962, 0.0443, -0.3127, -0.1035, -0.0338, -0.0981, 0.1108, -0.0468, 174, 149
5.3890, -0.3279, 1.4001, -0.0812, -0.1176, -0.0096, 0.8969, 661982, 0.0444, -0.3127, -0.1034, -0.0339, -0.0981, 0.1108, -0.0222, 161, 162
5.4050, -0.3279, 1.4001, -0.0812, -0.1176, -0.0096, 0.8969, 661982, 0.0443, -0.3127, -0.1035, -0.0338, -0.0982, 0.1108, -0.0222, 161, 162
5.4360, 0.1115, 0.7061, 0.0946, -0.0724, -0.0103, 0.8966, 662022, 0.0444, -0.3127, -0.1035, -0.0338, -0.0981, 0.1108, 0.0271, 174, 147
5.4520, -0.2408, 1.3700, -0.0745, -0.0487, -0.0115, 0.8957, 662042, 0.0443, -0.3127, -0.1034, -0.0339, -0.0980, 0.1108, 0.0517, 164, 157
5.4670, -0.2408, 1.3700, -0.0745, -0.0487, -0.0115, 0.8957, 662042, 0.0444, -0.3128, -0.1035, -0.0339, -0.0981, 0.1109, 0.0517, 164, 157
5.4830, 0.1642, 1.6791, -0.1887, -0.0229, -0.0108, 0.8954, 662062, 0.0444, -0.3127, -0.1034, -0.0338, -0.0979, 0.1108, 0.0760, 156, 166
5.5140, 0.1357, 0.8397, 0.1422, 0.0278, -0.0115, 0.8952, 662102, 0.0443, -0.3127, -0.1035, -0.0338, -0.0981, 0.1107, 0.1237, 176, 145
5.5300, 0.1357, 0.8397, 0.1422, 0.0278, -0.0115, 0.8952, 662102, 0.0443, -0.3127, -0.1034, -0.0338, -0.0981, 0.1108, 0.1237, 176, 145
5.5450, 0.0255, 1.2582, -0.2473, 0.0501, -0.0112, 0.8947, 662122, 0.0444, -0.3127, -0.1034, -0.0338, -0.0981, 0.1108, 0.1469, 162, 160
5.5610, 0.0255, 1.2582, -0.2473, 0.0501, -0.0112, 0.8947, 662122, 0.0443, -0.3127, -0.1034, -0.0339, -0.0982, 0.1107, 0.1469, 162, 160
5.5920, -0.0091, 1.1154, 0.3069, 0.0995, -0.0110, 0.8945, 662162, 0.0443, -0.3127, -0.1034, -0.0339, -0.0981, 0.1107, 0.1913, 168, 154
5.6080, -0.4647, 1.4092, -0.1425, 0.1262, -0.0119, 0.8936, 662182, 0.0443, -0.3127, -0.1035, -0.0338, -0.0981, 0.1107, 0.2125, 158, 164
5.6230, -0.4647, 1.4092, -0.1425, 0.1262, -0.0119, 0.8936, 662182, 0.0443, -0.3127, -0.1034, -0.0338, -0.0983, 0.1107, 0.2125, 158, 164
5.6550, 0.2795, 0.7432, 0.1236, 0.1667, -0.0113, 0.8933, 662222, 0.0443, -0.3127, -0.1035, -0.0339, -0.0981, 0.1109, 0.2522, 168, 155
5.6700, 0.2053, 1.1676, -0.0941, 0.2080, -0.0113, 0.8927, 662262, 0.0443, -0.3127, -0.1034, -0.0338, -0.0981, 0.1106, 0.2880, 169, 157
5.6860, 0.2053, 1.1676, -0.0941, 0.2080, -0.0113, 0.8927, 662262, 0.0444, -0.3126, -0.1034, -0.0338, -0.0980, 0.1108, 0.2880, 169, 157
5.7020, -0.0108, 0.9410, 0.0788, 0.2309, -0.0108, 0.8922, 662282, 0.0443, -0.3128, -0.1035, -0.0339, -0.0980, 0.1106, 0.3041, 165, 161
5.7330, -0.1089, 1.3641, -0.2446, 0.2752, -0.0108, 0.8920, 662322, 0.0444, -0.3127, -0.1034, -0.0339, -0.0981, 0.1108, 0.3329, 154, 174
5.7480, -0.1089, 1.3641, -0.2446, 0.2752, -0.0108, 0.8920, 662322, 0.0444, -0.3127, -0.1035, -0.0339, -0.0980, 0.1108, 0.3329, 154, 174
5.7640, -0.1680, 0.7687, -0.0218, 0.2937, -0.0115, 0.8917, 662342, 0.0443, -0.3127, -0.1034, -0.0338, -0.0982, 0.1106, 0.3453, 161, 169
5.7950, -0.0277, 0.8886, -0.2355, 0.3194, -0.0103, 0.8919, 662382, 0.0443, -0.3127, -0.1034, -0.0339, -0.0981, 0.1109, 0.3660, 163, 168
5.8110, -0.0277, 0.8886, -0.2355, 0.3194, -0.0103, 0.8919, 662382, 0.0443, -0.3127, -0.1035, -0.0338, -0.0981, 0.1108, 0.3660, 163, 168
5.8270, 0.3618, 0.1105, 0.3620, 0.3437, -0.0105, 0.8922, 662422, 0.0443, -0.3127, -0.1034, -0.0338, -0.0983, 0.1107, 0.3810, 174, 158
5.8420, 0.3618, 0.1105, 0.3620, 0.3437, -0.0105, 0.8922, 662422, 0.0443, -0.3127, -0.1035, -0.0339, -0.0981, 0.1108, 0.3810, 174, 158
5.8730, -0.3518, 1.0388, -0.2699, 0.3580, -0.0105, 0.8919, 662442, 0.0443, -0.3127, -0.1034, -0.0339, -0.0980, 0.1107, 0.3862, 158, 175
5.8890, 0.2411, -0.0086, 0.2002, 0.3777, -0.0089, 0.8917, 662482, 0.0443, -0.3127, -0.1035, -0.0339, -0.0981, 0.1108, 0.3921, 173, 163
5.9050, 0.2411, -0.0086, 0.2002, 0.3777, -0.0089, 0.8917, 662482, 0.0443, -0.3127, -0.1034, -0.0339, -0.0981, 0.1108, 0.3921, 173, 163
5.9360, -0.5198, 0.3155, -0.1556, 0.3810, -0.0098, 0.8913, 662502, 0.0444, -0.3127, -0.1034, -0.0338, -0.0982, 0.1107, 0.3927, 165, 171
5.9510, -0.0005, -0.1140, 0.0505, 0.3864, -0.0073, 0.8917, 662542, 0.0443, -0.3127, -0.1034, -0.0338, -0.0981, 0.1107, 0.3893, 171, 165
5.9670, -0.0005, -0.1140, 0.0505, 0.3864, -0.0073, 0.8917, 662542, 0.0443, -0.3127, -0.1034, -0.0338, -0.0982, 0.1107, 0.3893, 171, 165
5.9830, 0.3806, 0.2857, -0.0868, 0.3930, -0.0075, 0.8915, 662582, 0.0443, -0.3127, -0.1035, -0.0339, -0.0980, 0.1108, 0.3797, 155, 181
6.0140, -0.0280, -0.0675, 0.1750, 0.3972, -0.0077, 0.8920, 662602, 0.0443, -0.3127, -0.1034, -0.0338, -0.0980, 0.1107, 0.3727, 161, 176
6.0300, -0.0280, -0.0675, 0.1750, 0.3972, -0.0077, 0.8920, 662602, 0.0444, -0.3127, -0.1034, -0.0338, -0.0981, 0.1108, 0.3727, 161, 176
6.0450, 0.0992, -0.0761, -0.0543, 0.3976, -0.0072, 0.8917, 662642, 0.0443, -0.3127, -0.1034, -0.0339, -0.0982, 0.1107, 0.3543, 152, 183
6.0760, 0.1124, -0.5526, 0.1871, 0.3915, -0.0066, 0.8919, 662662, 0.0443, -0.3126, -0.1034, -0.0337, -0.0982, 0.1107, 0.3429, 161, 176
6.0920, 0.1124, -0.5526, 0.1871, 0.3915, -0.0066, 0.8919, 662662, 0.0443, -0.3127, -0.1035, -0.0338, -0.0981, 0.1108, 0.3429, 161, 176
6.1080, 0.1602, -0.2647, -0.1548, 0.3777, -0.0045, 0.8915, 662702, 0.0444, -0.3127, -0.1034, -0.0338, -0.0980, 0.1108, 0.3162, 153, 181
6.1230, 0.1602, -0.2647, -0.1548, 0.3777, -0.0045, 0.8915, 662702, 0.0444, -0.3127, -0.1034, -0.0338, -0.0979, 0.1108, 0.3162, 153, 181
6.1550, 0.0102, -0.4483, -0.1099, 0.3541, -0.0037, 0.8920, 662742, 0.0443, -0.3127, -0.1034, -0.0339, -0.0983, 0.1107, 0.2846, 163, 171
6.1700, 0.0102, -0.4483, -0.1099, 0.3541, -0.0037, 0.8920, 662742, 0.0443, -0.3126, -0.1034, -0.0339, -0.0978, 0.1108, 0.2846, 163, 171
6.1860, 0.0102, -0.4483, -0.1099, 0.3541, -0.0037, 0.8920, 662742, 0.0443, -0.3127, -0.1035, -0.0339, -0.0981, 0.1107, 0.2846, 163, 171
6.2010, 0.1368, -1.3125, 0.2709, 0.3190, -0.0042, 0.8917, 662782, 0.0443, -0.3127, -0.1034, -0.0338, -0.0981, 0.1108, 0.2484, 171, 160
6.2330, -0.0169, -0.9550, -0.0339, 0.2993, -0.0042, 0.8917, 662802, 0.0443, -0.3127, -0.1035, -0.0339, -0.0981, 0.1108, 0.2288, 168, 162
6.2480, -0.0169, -0.9550, -0.0339, 0.2993, -0.0042, 0.8917, 662802, 0.0443, -0.3126, -0.1034, -0.0339, -0.0983, 0.1107, 0.2288, 168, 162
6.2640, 0.0419, -1.3350, 0.3158, 0.2621, -0.0052, 0.8906, 662842, 0.0444, -0.3127, -0.1034, -0.0338, -0.0980, 0.1108, 0.1870, 169, 159
6.2950, -0.4389, -0.5808, -0.2594, 0.2190, -0.0066, 0.8903, 662882, 0.0443, -0.3127, -0.1035, -0.0339, -0.0980, 0.1107, 0.1422, 149, 176
6.3110, -0.4389, -0.5808, -0.2594, 0.2190, -0.0066, 0.8903, 662882, 0.0443, -0.3127, -0.1034, -0.0338, -0.0982, 0.1107, 0.1422, 149, 176
6.3260, 0.2841, -1.4517, 0.2502, 0.1946, -0.0059, 0.8905, 662902, 0.0443, -0.3127, -0.1035, -0.0338, -0.0980, 0.1108, 0.1190, 168, 157
6.3420, 0.2841, -1.4517, 0.2502, 0.1946, -0.0059, 0.8905, 662902, 0.0443, -0.3127, -0.1034, -0.0339, -0.0983, 0.1105, 0.1190, 168, 157
6.3730, -0.1328, -1.2098, -0.1779, 0.1445, -0.0073, 0.8903, 662942, 0.0444, -0.3126, -0.1034, -0.0338, -0.0980, 0.1109, 0.0711, 165, 159
6.3890, -0.3295, -1.0254, 0.0040, 0.0983, -0.0059, 0.8913, 662982, 0.0443, -0.3127, -0.1034, -0.0338, -0.0982, 0.1107, 0.0222, 160, 162
6.4040, -0.3295, -1.0254, 0.0040, 0.0983, -0.0059, 0.8913, 662982, 0.0444, -0.3127, -0.1034, -0.0339, -0.0981, 0.1108, 0.0222, 160, 162
6.4360, 0.0906, -0.7405, -0.0930, 0.0778, -0.0063, 0.8913, 663002, 0.0443, -0.3127, -0.1035, -0.0339, -0.0981, 0.1108, -0.0025, 160, 162
6.4510, -0.0204, -1.5880, 0.0994, 0.0267, -0.0056, 0.8915, 663042, 0.0443, -0.3127, -0.1034, -0.0339, -0.0982, 0.1107, -0.0517, 164, 157
6.4670, -0.0204, -1.5880, 0.0994, 0.0267, -0.0056, 0.8915, 663042, 0.0443, -0.3127, -0.1034, -0.0339, -0.0980, 0.1108, -0.0517, 164, 157
6.4830, 0.0860, -1.1101, -0.1599, 0.0009, -0.0059, 0.8912, 663062, 0.0443, -0.3127, -0.1035, -0.0338, -0.0981, 0.1108, -0.0760, 171, 149
6.5140, 0.0005, -1.4275, 0.1564, -0.0440, -0.0059, 0.8915, 663102, 0.0443, -0.3127, -0.1034, -0.0338, -0.0981, 0.1108, -0.1237, 162, 160
6.5290, 0.0005, -1.4275, 0.1564, -0.0440, -0.0059, 0.8915, 663102, 0.0443, -0.3127, -0.1035, -0.0339, -0.0981, 0.1108, -0.1237, 162, 160
6.5450, -0.1750, -0.6763, -0.3411, -0.0956, -0.0070, 0.8917, 663142, 0.0443, -0.3127, -0.1034, -0.0339, -0.0981, 0.1106, -0.1695, 157, 166
6.5760, 0.1505, -1.2294, 0.2072, -0.1196, -0.0066, 0.8920, 663162, 0.0444, -0.3127, -0.1034, -0.0339, -0.0980, 0.1108, -0.1913, 159, 163
6.5920, 0.1505, -1.2294, 0.2072, -0.1196, -0.0066, 0.8920, 663162, 0.0444, -0.3127, -0.1034, -0.0339, -0.0979, 0.1106, -0.1913, 159, 163
6.6080, -0.3623, -0.8969, -0.2277, -0.1630, -0.0084, 0.8926, 663202, 0.0444, -0.3127, -0.1035, -0.0339, -0.0981, 0.1108, -0.2328, 160, 164
6.6230, -0.3623, -0.8969, -0.2277, -0.1630, -0.0084, 0.8926, 663202, 0.0443, -0.3127, -0.1034, -0.0339, -0.0981, 0.1107, -0.2328, 160, 164
6.6540, 0.3758, -1.4003, 0.0212, -0.1890, -0.0080, 0.8929, 663222, 0.0443, -0.3127, -0.1035, -0.0339, -0.0980, 0.1109, -0.2522, 167, 158
6.6700, -0.0056, -1.1197, 0.0363, -0.2402, -0.0080, 0.8938, 663262, 0.0443, -0.3127, -0.1035, -0.0339, -0.0981, 0.1107, -0.2880, 177, 149
6.6860, -0.0056, -1.1197, 0.0363, -0.2402, -0.0080, 0.8938, 663262, 0.0444, -0.3127, -0.1034, -0.0338, -0.0980, 0.1107, -0.2880, 177, 149
6.7170, -0.0306, -0.7034, -0.1881, -0.2761, -0.0072, 0.8938, 663302, 0.0443, -0.3127, -0.1035, -0.0339, -0.0980, 0.1108, -0.3191, 166, 163
6.7330, 0.1930, -1.3098, 0.3328, -0.2950, -0.0075, 0.8947, 663322, 0.0443, -0.3126, -0.1034, -0.0338, -0.0982, 0.1107, -0.3329, 179, 150
6.7480, 0.1930, -1.3098, 0.3328, -0.2950, -0.0075, 0.8947, 663322, 0.0443, -0.3127, -0.1035, -0.0339, -0.0980, 0.1109, -0.3329, 179, 150
6.7640, 0.2231, -0.6892, -0.0516, -0.3259, -0.0084, 0.8955, 663362, 0.0443, -0.3127, -0.1034, -0.0339, -0.0982, 0.1107, -0.3564, 170, 162
6.7950, 0.0613, -0.9087, 0.1360, -0.3398, -0.0082, 0.8962, 663382, 0.0444, -0.3127, -0.1034, -0.0338, -0.0980, 0.1107, -0.3660, 174, 158
6.8110, 0.0613, -0.9087, 0.1360, -0.3398, -0.0082, 0.8962, 663382, 0.0444, -0.3127, -0.1035, -0.0339, -0.0980, 0.1107, -0.3660, 174, 158
6.8260, 0.1537, -0.3500, -0.1930, -0.3656, -0.0077, 0.8968, 663422, 0.0443, -0.3127, -0.1034, -0.0338, -0.0982, 0.1107, -0.3810, 169, 166
6.8420, 0.1537, -0.3500, -0.1930, -0.3656, -0.0077, 0.8968, 663422, 0.0444, -0.3127, -0.1035, -0.0339, -0.0980, 0.1109, -0.3810, 169, 166
6.8730, -0.1392, -0.8311, 0.1591, -0.3779, -0.0079, 0.8969, 663442, 0.0443, -0.3127, -0.1034, -0.0338, -0.0982, 0.1107, -0.3862, 176, 159
6.8890, 0.0645, -0.6948, 0.1865, -0.3883, -0.0079, 0.8976, 663462, 0.0444, -0.3127, -0.1034, -0.0338, -0.0980, 0.1108, -0.3899, 180, 155
6.9040, 0.0645, -0.6948, 0.1865, -0.3883, -0.0079, 0.8976, 663462, 0.0443, -0.3127, -0.1035, -0.0339, -0.0981, 0.1107, -0.3899, 180, 155
6.9360, 0.2024, -0.4975, 0.1032, -0.4060, -0.0084, 0.8974, 663502, 0.0443, -0.3127, -0.1035, -0.0340, -0.0981, 0.1108, -0.3927, 179, 158
6.9510, -0.1177, 0.0857, -0.0806, -0.4133, -0.0091, 0.8974, 663542, 0.0443, -0.3127, -0.1034, -0.0338, -0.0980, 0.1109, -0.3893, 174, 164
6.9670, -0.1177, 0.0857, -0.0806, -0.4133, -0.0091, 0.8974, 663542, 0.0443, -0.3127, -0.1035, -0.0339, -0.0982, 0.1107, -0.3893, 174, 164
6.9820, 0.2876, -0.0312, -0.1527, -0.4149, -0.0087, 0.8974, 663562, 0.0443, -0.3127, -0.1034, -0.0338, -0.0981, 0.1108, -0.3853, 176, 162
7.0140, 0.0110, -0.2274, 0.1158, -0.4182, -0.0089, 0.8985, 663602, 0.0443, -0.3127, -0.1034, -0.0338, -0.0981, 0.1108, -0.3727, 188, 149
7.0290, 0.0110, -0.2274, 0.1158, -0.4182, -0.0089, 0.8985, 663602, 0.0443, -0.3127, -0.1035, -0.0339, -0.0982, 0.1108, -0.3727, 188, 149
7.0450, -0.0056, 0.3400, -0.3177, -0.4170, -0.0087, 0.8983, 663622, 0.0444, -0.3127, -0.1034, -0.0338, -0.0980, 0.1109, -0.3642, 176, 162
7.0760, 0.0769, -0.2465, 0.1148, -0.4131, -0.0089, 0.8988, 663662, 0.0443, -0.3128, -0.1035, -0.0339, -0.0982, 0.1107, -0.3429, 193, 142
7.0920, 0.0769, -0.2465, 0.1148, -0.4131, -0.0089, 0.8988, 663662, 0.0443, -0.3126, -0.1035, -0.0338, -0.0981, 0.1108, -0.3429, 193, 142
7.1070, 0.2989, 0.6566, -0.0874, -0.3997, -0.0094, 0.8985, 663702, 0.0444, -0.3127, -0.1034, -0.0338, -0.0980, 0.1107, -0.3162, 178, 158
7.1230, 0.2989, 0.6566, -0.0874, -0.3997, -0.0094, 0.8985, 663702, 0.0443, -0.3128, -0.1035, -0.0339, -0.0981, 0.1108, -0.3162, 178, 158
7.1540, -0.1556, 0.5521, 0.1669, -0.3850, -0.0096, 0.8985, 663722, 0.0444, -0.3127, -0.1034, -0.0338, -0.0980, 0.1108, -0.3010, 172, 164
7.1700, -0.0250, 0.4220, 0.2164, -0.3690, -0.0106, 0.8988, 663742, 0.0443, -0.3127, -0.1035, -0.0338, -0.0982, 0.1108, -0.2846, 183, 151
7.1860, -0.0250, 0.4220, 0.2164, -0.3690, -0.0106, 0.8988, 663742, 0.0443, -0.3127, -0.1034, -0.0338, -0.0981, 0.1109, -0.2846, 183, 151
7.2170, -0.0758, 1.2243, -0.2371, -0.3363, -0.0117, 0.8985, 663782, 0.0444, -0.3127, -0.1034, -0.0338, -0.0980, 0.1108, -0.2484, 167, 166
7.2320, -0.2768, 1.3603, -0.0589, -0.3019, -0.0133, 0.8988, 663822, 0.0444, -0.3127, -0.1035, -0.0339, -0.0981, 0.1108, -0.2083, 167, 163
7.2480, -0.2768, 1.3603, -0.0589, -0.3019, -0.0133, 0.8988, 663822, 0.0443, -0.3127, -0.1034, -0.0339, -0.0982, 0.1108, -0.2083, 167, 163
7.2640, 0.3328, 1.1222, -0.0777, -0.2827, -0.0126, 0.8988, 663842, 0.0443, -0.3127, -0.1035, -0.0339, -0.0982, 0.1108, -0.1870, 169, 160
7.2950, 0.0398, 0.8668, 0.2244, -0.2445, -0.0122, 0.8992, 663882, 0.0443, -0.3127, -0.1035, -0.0340, -0.0981, 0.1109, -0.1422, 178, 148
7.3110, 0.0398, 0.8668, 0.2244, -0.2445, -0.0122, 0.8992, 663882, 0.0444, -0.3126, -0.1034, -0.0337, -0.0980, 0.1107, -0.1422, 178, 148
7.3260, 0.0462, 1.6358, -0.0957, -0.1932, -0.0127, 0.8983, 663922, 0.0443, -0.3127, -0.1035, -0.0338, -0.0982, 0.1108, -0.0953, 158, 167
7.3420, 0.0462, 1.6358, -0.0957, -0.1932, -0.0127, 0.8983, 663922, 0.0443, -0.3127, -0.1034, -0.0338, -0.0982, 0.1108, -0.0953, 158, 167
7.3730, 0.3481, 0.7090, 0.2989, -0.1691, -0.0119, 0.8988, 663942, 0.0443, -0.3127, -0.1035, -0.0339, -0.0981, 0.1109, -0.0711, 172, 152
7.3890, 0.2610, 1.1875, -0.0632, -0.1262, -0.0136, 0.8990, 663982, 0.0443, -0.3127, -0.1034, -0.0338, -0.0982, 0.1108, -0.0222, 167, 156
7.4040, 0.2610, 1.1875, -0.0632, -0.1262, -0.0136, 0.8990, 663982, 0.0443, -0.3127, -0.1034, -0.0339, -0.0981, 0.1108, -0.0222, 167, 156
7.4350, 0.0788, 1.2474, 0.0427, -0.1005, -0.0129, 0.8988, 664002, 0.0444, -0.3127, -0.1035, -0.0339, -0.0979, 0.1108, 0.0025, 164, 159
7.4510, 0.1984, 1.4713, -0.1648, -0.0429, -0.0133, 0.8987, 664042, 0.0443, -0.3127, -0.1035, -0.0338, -0.0984, 0.1108, 0.0517, 163, 159
7.4670, 0.1984, 1.4713, -0.1648, -0.0429, -0.0133, 0.8987, 664042, 0.0444, -0.3127, -0.1034, -0.0338, -0.0979, 0.1108, 0.0517, 163, 159
7.4820, -0.1610, 0.6905, 0.1301, -0.0079, -0.0131, 0.8974, 664082, 0.0443, -0.3127, -0.1034, -0.0338, -0.0981, 0.1107, 0.1000, 177, 143
7.5140, -0.3414, 1.2944, 0.3032, 0.0122, -0.0141, 0.8978, 664102, 0.0443, -0.3127, -0.1035, -0.0339, -0.0981, 0.1109, 0.1237, 166, 155
7.5290, -0.3414, 1.2944, 0.3032, 0.0122, -0.0141, 0.8978, 664102, 0.0444, -0.3127, -0.1034, -0.0338, -0.0980, 0.1108, 0.1237, 166, 155
7.5450, 0.0032, 2.1322, -0.1210, 0.0864, -0.0134, 0.8969, 664142, 0.0443, -0.3127, -0.1034, -0.0337, -0.0982, 0.1108, 0.1695, 148, 173
7.5760, 0.2707, 1.0794, -0.2166, 0.1110, -0.0129, 0.8957, 664162, 0.0444, -0.3126, -0.1035, -0.0338, -0.0979, 0.1108, 0.1913, 163, 160
7.5920, 0.2707, 1.0794, -0.2166, 0.1110, -0.0129, 0.8957, 664162, 0.0443, -0.3127, -0.1034, -0.0338, -0.0982, 0.1107, 0.1913, 163, 160
7.6070, -0.2876, 0.6537, 0.1392, 0.1337, -0.0122, 0.8955, 664202, 0.0444, -0.3127, -0.1035, -0.0338, -0.0981, 0.1107, 0.2328, 177, 145
7.6230, -0.2876, 0.6537, 0.1392, 0.1337, -0.0122, 0.8955, 664202, 0.0443, -0.3127, -0.1034, -0.0338, -0.0981, 0.1108, 0.2328, 177, 145
7.6540, -0.2553, 1.2778, 0.1035, 0.1566, -0.0120, 0.8948, 664222, 0.0443, -0.3127, -0.1035, -0.0339, -0.0982, 0.1108, 0.2522, 164, 160
7.6700, 0.3505, 1.6672, -0.2029, 0.2206, -0.0112, 0.8947, 664262, 0.0443, -0.3127, -0.1034, -0.0338, -0.0981, 0.1108, 0.2880, 149, 176
7.6850, 0.3505, 1.6672, -0.2029, 0.2206, -0.0112, 0.8947, 664262, 0.0444, -0.3127, -0.1034, -0.0338, -0.0981, 0.1106, 0.2880, 149, 176
7.7170, -0.3516, 0.4085, 0.2137, 0.2604, -0.0119, 0.8941, 664302, 0.0443, -0.3127, -0.1035, -0.0339, -0.0982, 0.1108, 0.3191, 172, 156
7.7320, 0.0360, -0.0892, 0.0191, 0.2683, -0.0115, 0.8948, 664322, 0.0444, -0.3127, -0.1034, -0.0338, -0.0979, 0.1107, 0.3329, 183, 143
7.7480, 0.0360, -0.0892, 0.0191, 0.2683, -0.0115, 0.8948, 664322, 0.0443, -0.3127, -0.1035, -0.0338, -0.0982, 0.1107, 0.3329, 183, 143
7.7640, -0.1247, 1.4893, 0.0032, 0.2985, -0.0115, 0.8941, 664362, 0.0443, -0.3127, -0.1034, -0.0339, -0.0981, 0.1108, 0.3564, 154, 175
7.7950, -0.1610, 0.8722, 0.3274, 0.3234, -0.0119, 0.8948, 664382, 0.0444, -0.3127, -0.1034, -0.0338, -0.0981, 0.1107, 0.3660, 158, 173
7.8100, -0.1610, 0.8722, 0.3274, 0.3234, -0.0119, 0.8948, 664382, 0.0443, -0.3127, -0.1035, -0.0339, -0.0982, 0.1108, 0.3660, 158, 173
7.8260, -0.1984, 0.6394, 0.0798, 0.3423, -0.0119, 0.8950, 664402, 0.0443, -0.3126, -0.1034, -0.0339, -0.0981, 0.1107, 0.3742, 166, 166
7.8570, 0.3231, 0.1107, 0.0736, 0.3583, -0.0110, 0.8945, 664442, 0.0443, -0.3127, -0.1035, -0.0338, -0.0979, 0.1109, 0.3862, 169, 165
7.8730, 0.3231, 0.1107, 0.0736, 0.3583, -0.0110, 0.8945, 664442, 0.0443, -0.3126, -0.1034, -0.0338, -0.0983, 0.1107, 0.3862, 169, 165
7.8890, 0.2914, -0.1459, 0.1887, 0.3599, -0.0099, 0.8957, 664462, 0.0443, -0.3127, -0.1035, -0.0339, -0.0980, 0.1108, 0.3899, 175, 159
7.9040, 0.2914, -0.1459, 0.1887, 0.3599, -0.0099, 0.8957, 664462, 0.0443, -0.3127, -0.1035, -0.0339, -0.0980, 0.1107, 0.3899, 175, 159
7.9350, 0.3365, 0.4072, 0.0013, 0.3697, -0.0103, 0.8952, 664502, 0.0443, -0.3126, -0.1034, -0.0338, -0.0981, 0.1108, 0.3927, 165, 170
7.9510, -0.2043, 0.3774, 0.0645, 0.3862, -0.0101, 0.8954, 664542, 0.0443, -0.3127, -0.1035, -0.0339, -0.0981, 0.1108, 0.3893, 164, 172
7.9670, -0.2043, 0.3774, 0.0645, 0.3862, -0.0101, 0.8954, 664542, 0.0443, -0.3127, -0.1034, -0.0338, -0.0981, 0.1108, 0.3893, 164, 172
7.9820, 0.0650, 0.4486, -0.1691, 0.3925, -0.0093, 0.8945, 664562, 0.0443, -0.3127, -0.1035, -0.0339, -0.0980, 0.1108, 0.3853, 158, 178
8.0130, -0.0484, -0.4456, 0.1239, 0.3880, -0.0096, 0.8947, 664602, 0.0443, -0.3127, -0.1034, -0.0338, -0.0981, 0.1107, 0.3727, 167, 169
8.0290, -0.0484, -0.4456, 0.1239, 0.3880, -0.0096, 0.8947, 664602, 0.0443, -0.3127, -0.1034, -0.0339, -0.0981, 0.1108, 0.3727, 167, 169
8.0450, 0.0659, 0.0618, -0.1489, 0.3834, -0.0101, 0.8945, 664622, 0.0443, -0.3127, -0.1035, -0.0339, -0.0979, 0.1108, 0.3642, 163, 172
8.0760, 0.0357, -0.6883, 0.2836, 0.3735, -0.0086, 0.8945, 664662, 0.0443, -0.3127, -0.1034, -0.0339, -0.0982, 0.1108, 0.3429, 170, 165
8.0920, 0.0357, -0.6883, 0.2836, 0.3735, -0.0086, 0.8945, 664662, 0.0444, -0.3127, -0.1035, -0.0338, -0.0980, 0.1108, 0.3429, 170, 165
8.1070, -0.1795, -0.3618, -0.1924, 0.3609, -0.0084, 0.8936, 664702, 0.0443, -0.3127, -0.1034, -0.0339, -0.0981, 0.1108, 0.3162, 154, 180
8.1230, -0.1795, -0.3618, -0.1924, 0.3609, -0.0084, 0.8936, 664702, 0.0443, -0.3127, -0.1035, -0.0339, -0.0981, 0.1109, 0.3162, 154, 180
8.1540, 0.3438, -0.7351, 0.2777, 0.3519, -0.0077, 0.8940, 664722, 0.0444, -0.3127, -0.1034, -0.0338, -0.0978, 0.1108, 0.3010, 166, 168
8.1700, -0.0943, -0.4825, -0.3008, 0.3266, -0.0091, 0.8938, 664762, 0.0444, -0.3127, -0.1034, -0.0339, -0.0981, 0.1107, 0.2670, 153, 178
8.1850, -0.0943, -0.4825, -0.3008, 0.3266, -0.0091, 0.8938, 664762, 0.0443, -0.3127, -0.1035, -0.0339, -0.0981, 0.1109, 0.2670, 153, 178
8.2170, 0.3903, -1.1224, 0.2411, 0.3096, -0.0073, 0.8943, 664782, 0.0444, -0.3127, -0.1034, -0.0338, -0.0981, 0.1108, 0.2484, 168, 162
8.2320, -0.1253, -0.8120, -0.2435, 0.2723, -0.0072, 0.8940, 664822, 0.0443, -0.3127, -0.1035, -0.0339, -0.0981, 0.1108, 0.2083, 161, 167
8.2480, -0.1253, -0.8120, -0.2435, 0.2723, -0.0072, 0.8940, 664822, 0.0443, -0.3127, -0.1034, -0.0339, -0.0980, 0.1107, 0.2083, 161, 167
8.2630, -0.3879, -1.0821, 0.0554, 0.2311, -0.0059, 0.8938, 664862, 0.0444, -0.3127, -0.1034, -0.0339, -0.0981, 0.1109, 0.1650, 166, 161
8.2950, -0.2914, -0.9407, -0.1051, 0.2098, -0.0063, 0.8938, 664882, 0.0443, -0.3127, -0.1035, -0.0338, -0.0981, 0.1107, 0.1422, 165, 161
8.3100, -0.2914, -0.9407, -0.1051, 0.2098, -0.0063, 0.8938, 664882, 0.0443, -0.3127, -0.1034, -0.0338, -0.0981, 0.1108, 0.1422, 165, 161
8.3260, -0.1330, -1.1963, 0.1298, 0.1696, -0.0047, 0.8941, 664922, 0.0443, -0.3127, -0.1035, -0.0339, -0.0981, 0.1108, 0.0953, 159, 165
8.3570, 0.0210, -0.8577, -0.1344, 0.1470, -0.0038, 0.8943, 664942, 0.0444, -0.3127, -0.1034, -0.0339, -0.0981, 0.1108, 0.0711, 168, 156
8.3730, 0.0210, -0.8577, -0.1344, 0.1470, -0.0038, 0.8943, 664942, 0.0443, -0.3127, -0.1035, -0.0338, -0.0981, 0.1108, 0.0711, 168, 156
8.3880, -0.1003, -1.4858, 0.1723, 0.0970, -0.0035, 0.8943, 664982, 0.0443, -0.3127, -0.1035, -0.0338, -0.0983, 0.1108, 0.0222, 162, 160
8.4040, -0.1003, -1.4858, 0.1723, 0.0970, -0.0035, 0.8943, 664982, 0.0444, -0.3127, -0.1034, -0.0338, -0.0979, 0.1108, 0.0222, 162, 160
8.4350, -0.1387, -0.7144, -0.3145, 0.0550, -0.0019, 0.8950, 665022, 0.0443, -0.3127, -0.1035, -0.0339, -0.0982, 0.1108, -0.0271, 160, 162
8.4510, 0.0164, -1.6267, 0.0473, 0.0325, -0.0019, 0.8952, 665042, 0.0444, -0.3127, -0.1034, -0.0339, -0.0981, 0.1108, -0.0517, 161, 160
8.4660, 0.0164, -1.6267, 0.0473, 0.0325, -0.0019, 0.8952, 665042, 0.0443, -0.3127, -0.1035, -0.0339, -0.0979, 0.1109, -0.0517, 161, 160
8.4980, -0.2489, -0.8942, -0.2658, -0.0265, -0.0014, 0.8964, 665082, 0.0443, -0.3127, -0.1035, -0.0339, -0.0981, 0.1109, -0.1000, 176, 144
8.5130, 0.0984, -1.0883, -0.3005, -0.0524, -0.0021, 0.8959, 665102, 0.0444, -0.3126, -0.1034, -0.0338, -0.0979, 0.1109, -0.1237, 156, 166
8.5290, 0.0984, -1.0883, -0.3005, -0.0524, -0.0021, 0.8959, 665102, 0.0443, -0.3128, -0.1035, -0.0339, -0.0981, 0.1108, -0.1237, 156, 166
8.5450, 0.0984, -1.0883, -0.3005, -0.0524, -0.0021, 0.8959, 665102, 0.0444, -0.3127, -0.1034, -0.0339, -0.0981, 0.1108, -0.1237, 156, 166
8.5760, -0.4231, -0.9187, 0.0597, -0.0927, -0.0037, 0.8966, 665142, 0.0443, -0.3127, -0.1035, -0.0338, -0.0980, 0.1108, -0.1695, 161, 161
8.5910, 0.5894, -1.7895, -0.0616, -0.1412, -0.0030, 0.8961, 665182, 0.0443, -0.3127, -0.1034, -0.0339, -0.0982, 0.1107, -0.2125, 167, 156
8.6070, 0.5894, -1.7895, -0.0616, -0.1412, -0.0030, 0.8961, 665182, 0.0443, -0.3127, -0.1034, -0.0339, -0.0981, 0.1108, -0.2125, 167, 156
8.6230, -0.4075, -1.3676, 0.1113, -0.1719, -0.0037, 0.8966, 665202, 0.0443, -0.3127, -0.1034, -0.0338, -0.0982, 0.1107, -0.2328, 175, 149
8.6540, 0.1890, -0.7512, -0.1634, -0.2222, -0.0037, 0.8969, 665242, 0.0444, -0.3127, -0.1034, -0.0339, -0.0981, 0.1107, -0.2706, 165, 161
8.6700, 0.1890, -0.7512, -0.1634, -0.2222, -0.0037, 0.8969, 665242, 0.0443, -0.3127, -0.1035, -0.0339, -0.0980, 0.1108, -0.2706, 165, 161
8.6850, -0.0293, -0.8367, -0.0629, -0.2386, -0.0037, 0.8969, 665262, 0.0443, -0.3127, -0.1034, -0.0338, -0.0983, 0.1108, -0.2880, 161, 166
8.7160, -0.2863, -0.2852, -0.1419, -0.2667, -0.0044, 0.8983, 665302, 0.0444, -0.3127, -0.1034, -0.0338, -0.0980, 0.1108, -0.3191, 162, 166
8.7320, -0.2863, -0.2852, -0.1419, -0.2667, -0.0044, 0.8983, 665302, 0.0443, -0.3127, -0.1035, -0.0339, -0.0982, 0.1108, -0.3191, 162, 166
8.7480, 0.3634, -1.1708, 0.1008, -0.3040, -0.0044, 0.8985, 665342, 0.0443, -0.3127, -0.1034, -0.0339, -0.0981, 0.1108, -0.3453, 176, 154
