time (s), accel_x (m/s^2), accel_y (m/s^2), accel_z (m/s^2), gyro_x (rad/s), gyro_y (rad/s), gyro_z (rad/s), x (m), y (m), z (m), yaw (rad), pitch (rad), roll (rad), mocap_counter, counter, desired x, desired y, desired z, desired yaw
0.0000, 0.0000, 0.0000, 0.0000, 0.0000, 0.0000, 0.0000, -0.0365, 0.0074, -0.0842, 0.1240, -0.0016, 0.0239, 121, 893745, 0.0000, 0.0000, -0.0003, 0.0000, 1.3327, 0.0470, -0.6612, 0.0000, 0.0000, 0.0000
0.0200, 0.0000, 0.0000, 0.0000, 0.0000, 0.0000, 0.0000, -0.0365, 0.0074, -0.0842, 0.1242, -0.0016, 0.0236, 122, 893745, 0.0000, 0.0000, -0.0002, 0.0000, 1.3326, 0.0471, -0.6611, 0.0000, 0.0000, 0.0000
0.0400, 0.0000, 0.0000, 0.0000, 0.0000, 0.0000, 0.0000, -0.0366, 0.0073, -0.0841, 0.1243, -0.0015, 0.0235, 123, 893745, 0.0000, 0.0000, -0.0002, 0.0000, 1.3327, 0.0471, -0.6611, 0.0000, 0.0000, 0.0000
0.0600, 0.0000, 0.0000, 0.0000, 0.0000, 0.0000, 0.0000, -0.0365, 0.0074, -0.0842, 0.1242, -0.0013, 0.0241, 124, 893745, 0.0000, 0.0000, -0.0002, 0.0000, 1.3327, 0.0471, -0.6612, 0.0000, 0.0000, 0.0000
0.0800, 0.0000, 0.0000, 0.0000, 0.0000, 0.0000, 0.0000, -0.0365, 0.0074, -0.0841, 0.1239, -0.0016, 0.0241, 125, 893745, 0.0000, 0.0000, -0.0001, 0.0000, 1.3326, 0.0471, -0.6611, 0.0000, 0.0000, 0.0000
0.1000, 0.0000, 0.0000, 0.0000, 0.0000, 0.0000, 0.0000, -0.0366, 0.0073, -0.0842, 0.1243, -0.0014, 0.0234, 126, 893745, 0.0000, 0.0000, -0.0001, 0.0000, 1.3326, 0.0470, -0.6612, 0.0000, 0.0000, 0.0000
0.1200, 0.0000, 0.0000, 0.0000, 0.0000, 0.0000, 0.0000, -0.0365, 0.0074, -0.0841, 0.1245, -0.0014, 0.0233, 127, 893745, 0.0000, 0.0000, -0.0001, 0.0000, 1.3327, 0.0471, -0.6611, 0.0000, 0.0000, 0.0000
0.1400, 0.0000, 0.0000, 0.0000, 0.0000, 0.0000, 0.0000, -0.0365, 0.0075, -0.0842, 0.1239, -0.0015, 0.0239, 128, 893745, 0.0000, 0.0000, -0.0001, 0.0000, 1.3327, 0.0471, -0.6611, 0.0000, 0.0000, 0.0000
0.1600, 0.0000, 0.0000, 0.0000, 0.0000, 0.0000, 0.0000, -0.0365, 0.0074, -0.0842, 0.1241, -0.0015, 0.0236, 129, 893745, 0.0000, 0.0000, -0.0001, 0.0000, 1.3326, 0.0470, -0.6612, 0.0000, 0.0000, 0.0000
0.1800, 0.0000, 0.0000, 0.0000, 0.0000, 0.0000, 0.0000, -0.0366, 0.0073, -0.0840, 0.1246, -0.0016, 0.0233, 130, 893745, 0.0000, 0.0000, -0.0001, 0.0000, 1.3327, 0.0471, -0.6611, 0.0000, 0.0000, 0.0000
0.2000, 0.0000, 0.0000, 0.0000, 0.0000, 0.0000, 0.0000, -0.0365, 0.0074, -0.0842, 0.1241, -0.0014, 0.0239, 131, 893745, 0.0000, 0.0000, -0.0001, 0.0000, 1.3327, 0.0471, -0.6612, 0.0000, 0.0000, 0.0000
0.2200, 0.0000, 0.0000, 0.0000, 0.0000, 0.0000, 0.0000, -0.0364, 0.0076, -0.0841, 0.1241, -0.0016, 0.0239, 132, 893745, 0.0000, 0.0000, -0.0000, 0.0000, 1.3326, 0.0471, -0.6612, 0.0000, 0.0000, 0.0000
0.2400, 0.0000, 0.0000, 0.0000, 0.0000, 0.0000, 0.0000, -0.0366, 0.0073, -0.0841, 0.1243, -0.0015, 0.0236, 133, 893745, 0.0000, 0.0000, -0.0000, 0.0000, 1.3327, 0.0471, -0.6611, 0.0000, 0.0000, 0.0000
0.2600, 0.0000, 0.0000, 0.0000, 0.0000, 0.0000, 0.0000, -0.0366, 0.0073, -0.0842, 0.1244, -0.0014, 0.0241, 134, 893745, 0.0000, 0.0000, -0.0000, 0.0000, 1.3327, 0.0471, -0.6612, 0.0000, 0.0000, 0.0000
0.2800, 0.0000, 0.0000, 0.0000, 0.0000, 0.0000, 0.0000, -0.0364, 0.0075, -0.0841, 0.1238, -0.0018, 0.0238, 135, 893745, 0.0000, 0.0000, -0.0000, 0.0000, 1.3327, 0.0471, -0.6611, 0.0000, 0.0000, 0.0000
0.3000, 0.0000, 0.0000, 0.0000, 0.0000, 0.0000, 0.0000, -0.0365, 0.0074, -0.0842, 0.1240, -0.0016, 0.0238, 136, 893745, 0.0000, 0.0000, -0.0000, 0.0000, 1.3326, 0.0470, -0.6612, 0.0000, 0.0000, 0.0000
0.3200, 0.0000, 0.0000, 0.0000, 0.0000, 0.0000, 0.0000, -0.0365, 0.0074, -0.0842, 0.1245, -0.0017, 0.0232, 137, 893745, 0.0000, 0.0000, -0.0000, 0.0000, 1.3326, 0.0471, -0.6611, 0.0000, 0.0000, 0.0000
0.3400, 0.0000, 0.0000, 0.0000, 0.0000, 0.0000, 0.0000, -0.0365, 0.0074, -0.0841, 0.1240, -0.0015, 0.0238, 138, 893745, 0.0000, 0.0000, -0.0000, 0.0000, 1.3327, 0.0471, -0.6612, 0.0000, 0.0000, 0.0000
0.3600, 0.0000, 0.0000, 0.0000, 0.0000, 0.0000, 0.0000, -0.0365, 0.0075, -0.0842, 0.1241, -0.0014, 0.0237, 139, 893745, 0.0000, 0.0000, -0.0000, 0.0000, 1.3327, 0.0471, -0.6612, 0.0000, 0.0000, 0.0000
0.3800, 0.0000, 0.0000, 0.0000, 0.0000, 0.0000, 0.0000, -0.0366, 0.0073, -0.0842, 0.1242, -0.0015, 0.0235, 140, 893745, 0.0000, 0.0000, -0.0000, 0.0000, 1.3326, 0.0470, -0.6611, 0.0000, 0.0000, 0.0000
0.4000, 0.0000, 0.0000, 0.0000, 0.0000, 0.0000, 0.0000, -0.0365, 0.0073, -0.0841, 0.1241, -0.0014, 0.0238, 141, 893745, 0.0000, 0.0000, -0.0000, 0.0000, 1.3326, 0.0471, -0.6611, 0.0000, 0.0000, 0.0000
0.4200, 0.0000, 0.0000, 0.0000, 0.0000, 0.0000, 0.0000, -0.0365, 0.0075, -0.0842, 0.1241, -0.0015, 0.0239, 142, 893745, 0.0000, 0.0000, -0.0000, 0.0000, 1.3327, 0.0471, -0.6612, 0.0000, 0.0000, 0.0000
0.4400, 0.0000, 0.0000, 0.0000, 0.0000, 0.0000, 0.0000, -0.0365, 0.0075, -0.0842, 0.1240, -0.0016, 0.0237, 143, 893745, 0.0000, 0.0000, -0.0000, 0.0000, 1.3327, 0.0471, -0.6612, 0.0000, 0.0000, 0.0000
0.4600, 0.0000, 0.0000, 0.0000, 0.0000, 0.0000, 0.0000, -0.0365, 0.0073, -0.0842, 0.1244, -0.0014, 0.0240, 144, 893745, 0.0000, 0.0000, -0.0000, 0.0000, 1.3327, 0.0471, -0.6611, 0.0000, 0.0000, 0.0000
0.4800, 0.0000, 0.0000, 0.0000, 0.0000, 0.0000, 0.0000, -0.0365, 0.0074, -0.0842, 0.1240, -0.0016, 0.0241, 145, 893745, 0.0000, 0.0000, -0.0000, 0.0000, 1.3327, 0.0471, -0.6612, 0.0000, 0.0000, 0.0000
0.5000, 0.0000, 0.0000, 0.0000, 0.0000, 0.0000, 0.0000, -0.0365, 0.0075, -0.0841, 0.1240, -0.0015, 0.0238, 146, 893745, 0.0000, 0.0000, -0.0000, 0.0000, 1.3327, 0.0471, -0.6611, 0.0000, 0.0000, 0.0000
0.5200, 0.0000, 0.0000, 0.0000, 0.0000, 0.0000, 0.0000, -0.0365, 0.0074, -0.0841, 0.1244, -0.0015, 0.0231, 147, 893745, 0.0000, 0.0000, -0.0000, 0.0000, 1.3326, 0.0471, -0.6612, 0.0000, 0.0000, 0.0000
0.5400, 0.0000, 0.0000, 0.0000, 0.0000, 0.0000, 0.0000, -0.0365, 0.0074, -0.0842, 0.1242, -0.0015, 0.0237, 148, 893745, 0.0000, 0.0000, -0.0000, 0.0000, 1.3327, 0.0471, -0.6612, 0.0000, 0.0000, 0.0000
0.5600, 0.0000, 0.0000, 0.0000, 0.0000, 0.0000, 0.0000, -0.0366, 0.0075, -0.0841, 0.1243, -0.0017, 0.0239, 149, 893745, 0.0000, 0.0000, -0.0000, 0.0000, 1.3327, 0.0471, -0.6611, 0.0000, 0.0000, 0.0000
0.5800, 0.0000, 0.0000, 0.0000, 0.0000, 0.0000, 0.0000, -0.0365, 0.0075, -0.0841, 0.1241, -0.0014, 0.0232, 150, 893745, 0.0000, 0.0000, -0.0000, 0.0000, 1.3326, 0.0471, -0.6612, 0.0000, 0.0000, 0.0000
0.6000, 0.0000, 0.0000, 0.0000, 0.0000, 0.0000, 0.0000, -0.0365, 0.0073, -0.0842, 0.1240, -0.0016, 0.0241, 151, 893745, 0.0000, 0.0000, -0.0000, 0.0000, 1.3326, 0.0471, -0.6611, 0.0000, 0.0000, 0.0000
0.6200, 0.0000, 0.0000, 0.0000, 0.0000, 0.0000, 0.0000, -0.0365, 0.0074, -0.0842, 0.1241, -0.0017, 0.0241, 152, 893745, 0.0000, 0.0000, -0.0000, 0.0000, 1.3327, 0.0470, -0.6611, 0.0000, 0.0000, 0.0000
0.6390, 0.0000, 0.0000, 0.0000, 0.0000, 0.0000, 0.0000, -0.0365, 0.0075, -0.0841, 0.1241, -0.0014, 0.0236, 153, 893745, 0.0000, 0.0000, -0.0000, 0.0000, 1.3327, 0.0471, -0.6612, 0.0000, 0.0000, 0.0000
0.6600, 0.0000, 0.0000, 0.0000, 0.0000, 0.0000, 0.0000, -0.0365, 0.0074, -0.0842, 0.1242, -0.0015, 0.0237, 154, 893745, 0.0000, 0.0000, -0.0000, 0.0000, 1.3327, 0.0471, -0.6611, 0.0000, 0.0000, 0.0000
0.6800, 0.0000, 0.0000, 0.0000, 0.0000, 0.0000, 0.0000, -0.0365, 0.0074, -0.0842, 0.1240, -0.0014, 0.0237, 155, 893745, 0.0000, 0.0000, -0.0000, 0.0000, 1.3326, 0.0470, -0.6612, 0.0000, 0.0000, 0.0000
0.7000, 0.0000, 0.0000, 0.0000, 0.0000, 0.0000, 0.0000, -0.0365, 0.0074, -0.0841, 0.1243, -0.0015, 0.0238, 156, 893745, 0.0000, 0.0000, -0.0000, 0.0000, 1.3327, 0.0471, -0.6611, 0.0000, 0.0000, 0.0000
0.7200, 0.0000, 0.0000, 0.0000, 0.0000, 0.0000, 0.0000, -0.0365, 0.0074, -0.0841, 0.1242, -0.0015, 0.0232, 157, 893745, 0.0000, 0.0000, -0.0000, 0.0000, 1.3328, 0.0471, -0.6612, 0.0000, 0.0000, 0.0000
0.7390, 0.0000, 0.0000, 0.0000, 0.0000, 0.0000, 0.0000, -0.0365, 0.0075, -0.0842, 0.1240, -0.0014, 0.0237, 158, 893745, 0.0000, 0.0000, -0.0000, 0.0000, 1.3327, 0.0471, -0.6612, 0.0000, 0.0000, 0.0000
0.7600, 0.0000, 0.0000, 0.0000, 0.0000, 0.0000, 0.0000, -0.0365, 0.0073, -0.0843, 0.1240, -0.0016, 0.0235, 159, 893745, 0.0000, 0.0000, -0.0000, 0.0000, 1.3327, 0.0471, -0.6611, 0.0000, 0.0000, 0.0000
0.7800, 0.0000, 0.0000, 0.0000, 0.0000, 0.0000, 0.0000, -0.0366, 0.0075, -0.0844, 0.1242, -0.0018, 0.0234, 160, 893745, 0.0000, 0.0000, -0.0000, 0.0000, 1.3327, 0.0471, -0.6612, 0.0000, 0.0000, 0.0000
0.8000, 0.0000, 0.0000, 0.0000, 0.0000, 0.0000, 0.0000, -0.0365, 0.0075, -0.0847, 0.1240, -0.0028, 0.0230, 161, 893745, 0.0000, 0.0000, -0.0000, 0.0000, 1.3327, 0.0471, -0.6611, 0.0000, 0.0000, 0.0000
0.8190, 0.0000, 0.0000, 0.0000, 0.0000, 0.0000, 0.0000, -0.0363, 0.0076, -0.0851, 0.1240, -0.0038, 0.0227, 162, 893745, 0.0000, 0.0000, -0.0000, 0.0000, 1.3327, 0.0471, -0.6612, 0.0000, 0.0000, 0.0000
0.8400, 0.0000, 0.0000, 0.0000, 0.0000, 0.0000, 0.0000, -0.0364, 0.0075, -0.0856, 0.1246, -0.0047, 0.0222, 163, 893745, 0.0000, 0.0000, -0.0000, 0.0000, 1.3326, 0.0471, -0.6611, 0.0000, 0.0000, 0.0000
0.8600, 0.0000, 0.0000, 0.0000, 0.0000, 0.0000, 0.0000, -0.0364, 0.0077, -0.0859, 0.1250, -0.0058, 0.0220, 164, 893745, 0.0000, 0.0000, -0.0000, 0.0000, 1.3327, 0.0471, -0.6611, 0.0000, 0.0000, 0.0000
0.8800, 0.0000, 0.0000, 0.0000, 0.0000, 0.0000, 0.0000, -0.0362, 0.0078, -0.0868, 0.1239, -0.0074, 0.0226, 165, 893745, 0.0000, 0.0000, -0.0000, 0.0000, 1.3326, 0.0471, -0.6612, 0.0000, 0.0000, 0.0000
0.8990, 0.0000, 0.0000, 0.0000, 0.0000, 0.0000, 0.0000, -0.0360, 0.0082, -0.0880, 0.1211, -0.0090, 0.0247, 166, 893745, 0.0000, 0.0000, -0.0000, 0.0000, 1.3327, 0.0471, -0.6612, 0.0000, 0.0000, 0.0000
0.9200, 0.0000, 0.0000, 0.0000, 0.0000, 0.0000, 0.0000, -0.0359, 0.0085, -0.0888, 0.1201, -0.0124, 0.0290, 167, 893745, 0.0000, 0.0000, -0.0000, 0.0000, 1.3326, 0.0470, -0.6612, 0.0000, 0.0000, 0.0000
0.9400, 0.0000, 0.0000, 0.0000, 0.0000, 0.0000, 0.0000, -0.0355, 0.0091, -0.0908, 0.1176, -0.0169, 0.0306, 168, 893745, 0.0000, 0.0000, -0.0000, 0.0000, 1.3326, 0.0471, -0.6612, 0.0000, 0.0000, 0.0000
0.9600, 0.0000, 0.0000, 0.0000, 0.0000, 0.0000, 0.0000, -0.0350, 0.0095, -0.0928, 0.1154, -0.0213, 0.0343, 169, 893745, 0.0000, 0.0000, -0.0000, 0.0000, 1.3327, 0.0471, -0.6612, 0.0000, 0.0000, 0.0000
0.9790, 0.0000, 0.0000, 0.0000, 0.0000, 0.0000, 0.0000, -0.0344, 0.0101, -0.0950, 0.1135, -0.0240, 0.0370, 170, 893745, 0.0000, 0.0000, -0.0000, 0.0000, 1.3326, 0.0470, -0.6611, 0.0000, 0.0000, 0.0000
1.0000, 0.0000, 0.0000, 0.0000, 0.0000, 0.0000, 0.0000, -0.0339, 0.0108, -0.0977, 0.1107, -0.0249, 0.0376, 171, 893745, 0.0000, 0.0000, -0.0000, 0.0000, 1.3327, 0.0471, -0.6612, 0.0000, 0.0000, 0.0000
1.0200, 0.0000, 0.0000, 0.0000, 0.0000, 0.0000, 0.0000, -0.0334, 0.0115, -0.1002, 0.1079, -0.0258, 0.0373, 172, 893745, 0.0000, 0.0000, -0.0000, 0.0000, 1.3327, 0.0471, -0.6612, 0.0000, 0.0000, 0.0000
1.0400, 0.0000, 0.0000, 0.0000, 0.0000, 0.0000, 0.0000, -0.0326, 0.0121, -0.1032, 0.1052, -0.0260, 0.0370, 173, 893745, 0.0000, 0.0000, -0.0000, 0.0000, 1.3326, 0.0471, -0.6612, 0.0000, 0.0000, 0.0000
1.0590, 0.0000, 0.0000, 0.0000, 0.0000, 0.0000, 0.0000, -0.0319, 0.0128, -0.1061, 0.1026, -0.0272, 0.0346, 174, 893745, 0.0000, 0.0000, -0.0000, 0.0000, 1.3327, 0.0470, -0.6611, 0.0000, 0.0000, 0.0000
1.0800, 0.0000, 0.0000, 0.0000, 0.0000, 0.0000, 0.0000, -0.0310, 0.0137, -0.1090, 0.0991, -0.0275, 0.0327, 175, 893745, 0.0000, 0.0000, -0.0000, 0.0000, 1.3327, 0.0471, -0.6612, 0.0000, 0.0000, 0.0000
1.1000, 0.0000, 0.0000, 0.0000, 0.0000, 0.0000, 0.0000, -0.0300, 0.0147, -0.1120, 0.0956, -0.0281, 0.0327, 176, 893745, 0.0000, 0.0000, -0.0000, 0.0000, 1.3326, 0.0471, -0.6611, 0.0000, 0.0000, 0.0000
1.1200, 0.0000, 0.0000, 0.0000, 0.0000, 0.0000, 0.0000, -0.0289, 0.0156, -0.1149, 0.0925, -0.0284, 0.0333, 177, 893745, 0.0000, 0.0000, -0.0000, 0.0000, 1.3327, 0.0470, -0.6612, 0.0000, 0.0000, 0.0000
1.1400, 0.0000, 0.0000, 0.0000, 0.0000, 0.0000, 0.0000, -0.0279, 0.0168, -0.1180, 0.0898, -0.0279, 0.0323, 178, 893745, 0.0000, 0.0000, -0.0000, 0.0000, 1.3327, 0.0471, -0.6611, 0.0000, 0.0000, 0.0000
1.1600, 0.0000, 0.0000, 0.0000, 0.0000, 0.0000, 0.0000, -0.0266, 0.0181, -0.1211, 0.0863, -0.0275, 0.0341, 179, 893745, 0.0000, 0.0000, -0.0000, 0.0000, 1.3327, 0.0471, -0.6611, 0.0000, 0.0000, 0.0000
1.1800, 0.0000, 0.0000, 0.0000, 0.0000, 0.0000, 0.0000, -0.0252, 0.0195, -0.1245, 0.0829, -0.0270, 0.0319, 180, 893745, 0.0000, 0.0000, -0.0000, 0.0000, 1.3326, 0.0471, -0.6612, 0.0000, 0.0000, 0.0000
1.2000, 0.0000, 0.0000, 0.0000, 0.0000, 0.0000, 0.0000, -0.0239, 0.0208, -0.1279, 0.0801, -0.0264, 0.0337, 181, 893745, 0.0000, 0.0000, -0.0000, 0.0000, 1.3327, 0.0471, -0.6612, 0.0000, 0.0000, 0.0000
1.2190, 0.0000, 0.0000, 0.0000, 0.0000, 0.0000, 0.0000, -0.0225, 0.0225, -0.1315, 0.0764, -0.0251, 0.0322, 182, 893745, 0.0000, 0.0000, -0.0000, 0.0000, 1.3327, 0.0471, -0.6611, 0.0000, 0.0000, 0.0000
1.2400, 0.0000, 0.0000, 0.0000, 0.0000, 0.0000, 0.0000, -0.0211, 0.0241, -0.1356, 0.0733, -0.0240, 0.0317, 183, 893745, 0.0000, 0.0000, -0.0000, 0.0000, 1.3327, 0.0471, -0.6612, 0.0000, 0.0000, 0.0000
1.2600, 0.0000, 0.0000, 0.0000, 0.0000, 0.0000, 0.0000, -0.0197, 0.0259, -0.1399, 0.0702, -0.0228, 0.0300, 184, 893745, 0.0000, 0.0000, -0.0000, 0.0000, 1.3327, 0.0471, -0.6612, 0.0000, 0.0000, 0.0000
1.2800, 0.0000, 0.0000, 0.0000, 0.0000, 0.0000, 0.0000, -0.0184, 0.0277, -0.1440, 0.0676, -0.0207, 0.0284, 185, 893745, 0.0000, 0.0000, -0.0000, 0.0000, 1.3326, 0.0471, -0.6611, 0.0000, 0.0000, 0.0000
1.3000, 0.0000, 0.0000, 0.0000, 0.0000, 0.0000, 0.0000, -0.0170, 0.0297, -0.1485, 0.0644, -0.0176, 0.0262, 186, 893745, 0.0000, 0.0000, -0.0000, 0.0000, 1.3327, 0.0471, -0.6612, 0.0000, 0.0000, 0.0000
1.3200, 0.0000, 0.0000, 0.0000, 0.0000, 0.0000, 0.0000, -0.0157, 0.0317, -0.1528, 0.0620, -0.0151, 0.0236, 187, 893745, 0.0000, 0.0000, -0.0000, 0.0000, 1.3327, 0.0471, -0.6611, 0.0000, 0.0000, 0.0000
1.3400, 0.0000, 0.0000, 0.0000, 0.0000, 0.0000, 0.0000, -0.0142, 0.0335, -0.1572, 0.0591, -0.0129, 0.0213, 188, 893745, 0.0000, 0.0000, -0.0000, 0.0000, 1.3327, 0.0471, -0.6612, 0.0000, 0.0000, 0.0000
1.3600, 0.0000, 0.0000, 0.0000, 0.0000, 0.0000, 0.0000, -0.0127, 0.0357, -0.1615, 0.0564, -0.0117, 0.0182, 189, 893745, 0.0000, 0.0000, -0.0000, 0.0000, 1.3327, 0.0471, -0.6611, 0.0000, 0.0000, 0.0000
1.3800, 0.0000, 0.0000, 0.0000, 0.0000, 0.0000, 0.0000, -0.0112, 0.0379, -0.1655, 0.0539, -0.0111, 0.0163, 190, 893745, 0.0000, 0.0000, -0.0000, 0.0000, 1.3327, 0.0471, -0.6611, 0.0000, 0.0000, 0.0000
1.4000, 0.0000, 0.0000, 0.0000, 0.0000, 0.0000, 0.0000, -0.0097, 0.0399, -0.1696, 0.0511, -0.0104, 0.0143, 191, 893745, 0.0000, 0.0000, -0.0000, 0.0000, 1.3327, 0.0471, -0.6612, 0.0000, 0.0000, 0.0000
1.4200, 0.0000, 0.0000, 0.0000, 0.0000, 0.0000, 0.0000, -0.0082, 0.0422, -0.1731, 0.0493, -0.0100, 0.0141, 192, 893745, 0.0000, 0.0000, -0.0000, 0.0000, 1.3327, 0.0471, -0.6611, 0.0000, 0.0000, 0.0000
1.4400, 0.0000, 0.0000, 0.0000, 0.0000, 0.0000, 0.0000, -0.0067, 0.0444, -0.1768, 0.0468, -0.0083, 0.0111, 193, 893745, 0.0000, 0.0000, -0.0000, 0.0000, 1.3327, 0.0470, -0.6611, 0.0000, 0.0000, 0.0000
1.4600, 0.0000, 0.0000, 0.0000, 0.0000, 0.0000, 0.0000, -0.0053, 0.0467, -0.1801, 0.0443, -0.0072, 0.0116, 194, 893745, 0.0000, 0.0000, -0.0000, 0.0000, 1.3326, 0.0471, -0.6612, 0.0000, 0.0000, 0.0000
1.4800, 0.0000, 0.0000, 0.0000, 0.0000, 0.0000, 0.0000, -0.0040, 0.0489, -0.1833, 0.0425, -0.0059, 0.0102, 195, 893745, 0.0000, 0.0000, -0.0000, 0.0000, 1.3327, 0.0471, -0.6612, 0.0000, 0.0000, 0.0000
1.5000, 0.0000, 0.0000, 0.0000, 0.0000, 0.0000, 0.0000, -0.0024, 0.0512, -0.1863, 0.0405, -0.0054, 0.0088, 196, 893745, 0.0000, 0.0000, -0.0000, 0.0000, 1.3327, 0.0470, -0.6612, 0.0000, 0.0000, 0.0000
1.5200, 0.0000, 0.0000, 0.0000, 0.0000, 0.0000, 0.0000, -0.0010, 0.0535, -0.1890, 0.0385, -0.0044, 0.0080, 197, 893745, 0.0000, 0.0000, -0.0000, 0.0000, 1.3327, 0.0471, -0.6611, 0.0000, 0.0000, 0.0000
1.5400, 0.0000, 0.0000, 0.0000, 0.0000, 0.0000, 0.0000, 0.0004, 0.0558, -0.1915, 0.0365, -0.0035, 0.0065, 198, 893745, 0.0000, 0.0000, -0.0000, 0.0000, 1.3326, 0.0471, -0.6612, 0.0000, 0.0000, 0.0000
1.5600, 0.0000, 0.0000, 0.0000, 0.0000, 0.0000, 0.0000, 0.0019, 0.0581, -0.1941, 0.0344, -0.0024, 0.0049, 199, 893745, 0.0000, 0.0000, -0.0000, 0.0000, 1.3326, 0.0471, -0.6612, 0.0000, 0.0000, 0.0000
1.5800, 0.0000, 0.0000, 0.0000, 0.0000, 0.0000, 0.0000, 0.0033, 0.0604, -0.1959, 0.0332, -0.0027, 0.0051, 200, 893745, 0.0000, 0.0000, -0.0000, 0.0000, 1.3327, 0.0471, -0.6611, 0.0000, 0.0000, 0.0000
1.6000, 0.0000, 0.0000, 0.0000, 0.0000, 0.0000, 0.0000, 0.0048, 0.0626, -0.1981, 0.0315, -0.0017, 0.0030, 201, 893745, 0.0000, 0.0000, -0.0000, 0.0000, 1.3326, 0.0471, -0.6612, 0.0000, 0.0000, 0.0000
1.6200, 0.0000, 0.0000, 0.0000, 0.0000, 0.0000, 0.0000, 0.0062, 0.0648, -0.2000, 0.0297, -0.0016, 0.0022, 202, 893745, 0.0000, 0.0000, -0.0000, 0.0000, 1.3327, 0.0471, -0.6612, 0.0000, 0.0000, 0.0000
1.6400, 0.0000, 0.0000, 0.0000, 0.0000, 0.0000, 0.0000, 0.0074, 0.0669, -0.2019, 0.0285, -0.0013, 0.0004, 203, 893745, 0.0000, 0.0000, -0.0000, 0.0000, 1.3326, 0.0471, -0.6611, 0.0000, 0.0000, 0.0000
1.6600, 0.0000, 0.0000, 0.0000, 0.0000, 0.0000, 0.0000, 0.0088, 0.0691, -0.2036, 0.0271, -0.0009, -0.0011, 204, 893745, 0.0000, 0.0000, -0.0000, 0.0000, 1.3327, 0.0471, -0.6611, 0.0000, 0.0000, 0.0000
1.6800, 0.0000, 0.0000, 0.0000, 0.0000, 0.0000, 0.0000, 0.0100, 0.0712, -0.2054, 0.0258, -0.0007, -0.0025, 205, 893745, 0.0000, 0.0000, -0.0000, 0.0000, 1.3327, 0.0471, -0.6612, 0.0000, 0.0000, 0.0000
1.7000, 0.0000, 0.0000, 0.0000, 0.0000, 0.0000, 0.0000, 0.0113, 0.0731, -0.2071, 0.0248, -0.0000, -0.0035, 206, 893745, 0.0000, 0.0000, -0.0000, 0.0000, 1.3326, 0.0471, -0.6611, 0.0000, 0.0000, 0.0000
1.7200, 0.0000, 0.0000, 0.0000, 0.0000, 0.0000, 0.0000, 0.0126, 0.0751, -0.2089, 0.0238, 0.0008, -0.0061, 207, 893745, 0.0000, 0.0000, -0.0000, 0.0000, 1.3327, 0.0470, -0.6612, 0.0000, 0.0000, 0.0000
1.7400, 0.0000, 0.0000, 0.0000, 0.0000, 0.0000, 0.0000, 0.0136, 0.0769, -0.2104, 0.0229, 0.0007, -0.0071, 208, 893745, 0.0000, 0.0000, -0.0000, 0.0000, 1.3327, 0.0471, -0.6611, 0.0000, 0.0000, 0.0000
1.7600, 0.0000, 0.0000, 0.0000, 0.0000, 0.0000, 0.0000, 0.0148, 0.0786, -0.2122, 0.0216, 0.0013, -0.0090, 209, 893745, 0.0000, 0.0000, -0.0000, 0.0000, 1.3326, 0.0471, -0.6612, 0.0000, 0.0000, 0.0000
1.7800, 0.0000, 0.0000, 0.0000, 0.0000, 0.0000, 0.0000, 0.0159, 0.0803, -0.2140, 0.0203, 0.0014, -0.0101, 210, 893745, 0.0000, 0.0000, -0.0000, 0.0000, 1.3327, 0.0470, -0.6611, 0.0000, 0.0000, 0.0000
1.8000, 0.0000, 0.0000, 0.0000, 0.0000, 0.0000, 0.0000, 0.0169, 0.0819, -0.2155, 0.0197, 0.0015, -0.0107, 211, 893745, 0.0000, 0.0000, -0.0000, 0.0000, 1.3327, 0.0471, -0.6611, 0.0000, 0.0000, 0.0000
1.8190, 0.0000, 0.0000, 0.0000, 0.0000, 0.0000, 0.0000, 0.0178, 0.0835, -0.2171, 0.0187, 0.0015, -0.0115, 212, 893745, 0.0000, 0.0000, -0.0000, 0.0000, 1.3327, 0.0471, -0.6612, 0.0000, 0.0000, 0.0000
1.8400, 0.0000, 0.0000, 0.0000, 0.0000, 0.0000, 0.0000, 0.0190, 0.0850, -0.2185, 0.0177, 0.0015, -0.0113, 213, 893745, 0.0000, 0.0000, -0.0000, 0.0000, 1.3326, 0.0471, -0.6611, 0.0000, 0.0000, 0.0000
1.8600, 0.0000, 0.0000, 0.0000, 0.0000, 0.0000, 0.0000, 0.0198, 0.0863, -0.2200, 0.0172, 0.0017, -0.0113, 214, 893745, 0.0000, 0.0000, -0.0000, 0.0000, 1.3327, 0.0471, -0.6611, 0.0000, 0.0000, 0.0000
1.8800, 0.0000, 0.0000, 0.0000, 0.0000, 0.0000, 0.0000, 0.0208, 0.0877, -0.2214, 0.0165, 0.0021, -0.0114, 215, 893745, 0.0000, 0.0000, -0.0000, 0.0000, 1.3327, 0.0471, -0.6612, 0.0000, 0.0000, 0.0000
1.9000, 0.0000, 0.0000, 0.0000, 0.0000, 0.0000, 0.0000, 0.0216, 0.0888, -0.2226, 0.0154, 0.0016, -0.0107, 216, 893745, 0.0000, 0.0000, -0.0000, 0.0000, 1.3327, 0.0471, -0.6611, 0.0000, 0.0000, 0.0000
1.9200, 0.0000, 0.0000, 0.0000, 0.0000, 0.0000, 0.0000, 0.0225, 0.0898, -0.2238, 0.0151, 0.0016, -0.0111, 217, 893745, 0.0000, 0.0000, -0.0000, 0.0000, 1.3326, 0.0470, -0.6612, 0.0000, 0.0000, 0.0000
1.9400, 0.0000, 0.0000, 0.0000, 0.0000, 0.0000, 0.0000, 0.0232, 0.0909, -0.2249, 0.0146, 0.0016, -0.0113, 218, 893745, 0.0000, 0.0000, -0.0000, 0.0000, 1.3327, 0.0471, -0.6611, 0.0000, 0.0000, 0.0000
1.9600, 0.0000, 0.0000, 0.0000, 0.0000, 0.0000, 0.0000, 0.0240, 0.0918, -0.2260, 0.0140, 0.0019, -0.0109, 219, 893745, 0.0000, 0.0000, -0.0000, 0.0000, 1.3327, 0.0471, -0.6611, 0.0000, 0.0000, 0.0000
1.9800, 0.0000, 0.0000, 0.0000, 0.0000, 0.0000, 0.0000, 0.0248, 0.0927, -0.2269, 0.0132, 0.0015, -0.0109, 220, 893745, 0.0000, 0.0000, -0.0000, 0.0000, 1.3327, 0.0471, -0.6612, 0.0000, 0.0000, 0.0000
2.0000, 0.0000, 0.0000, 0.0000, 0.0000, 0.0000, 0.0000, 0.0255, 0.0933, -0.2277, 0.0129, 0.0003, -0.0100, 221, 893745, 0.0000, 0.0000, -0.0000, 0.0000, 1.3327, 0.0471, -0.6612, 0.0000, 0.0000, 0.0000
2.0200, 0.0000, 0.0000, 0.0000, 0.0000, 0.0000, 0.0000, 0.0262, 0.0941, -0.2285, 0.0124, -0.0004, -0.0096, 222, 893745, 0.0000, 0.0000, -0.0000, 0.0000, 1.3326, 0.0470, -0.6612, 0.0000, 0.0000, 0.0000
2.0400, 0.0000, 0.0000, 0.0000, 0.0000, 0.0000, 0.0000, 0.0270, 0.0948, -0.2291, 0.0120, -0.0009, -0.0082, 223, 893745, 0.0000, 0.0000, -0.0000, 0.0000, 1.3327, 0.0471, -0.6611, 0.0000, 0.0000, 0.0000
2.0600, 0.0000, 0.0000, 0.0000, 0.0000, 0.0000, 0.0000, 0.0276, 0.0952, -0.2296, 0.0115, -0.0007, -0.0064, 224, 893745, 0.0000, 0.0000, -0.0000, 0.0000, 1.3327, 0.0471, -0.6612, 0.0000, 0.0000, 0.0000
2.0800, 0.0000, 0.0000, 0.0000, 0.0000, 0.0000, 0.0000, 0.0283, 0.0956, -0.2300, 0.0113, -0.0005, -0.0052, 225, 893745, 0.0000, 0.0000, -0.0000, 0.0000, 1.3326, 0.0471, -0.6612, 0.0000, 0.0000, 0.0000
2.1000, 0.0000, 0.0000, 0.0000, 0.0000, 0.0000, 0.0000, 0.0288, 0.0960, -0.2303, 0.0109, -0.0009, -0.0036, 226, 893745, 0.0000, 0.0000, -0.0000, 0.0000, 1.3327, 0.0471, -0.6611, 0.0000, 0.0000, 0.0000
2.1200, 0.0000, 0.0000, 0.0000, 0.0000, 0.0000, 0.0000, 0.0294, 0.0965, -0.2307, 0.0103, -0.0009, -0.0024, 227, 893745, 0.0000, 0.0000, -0.0000, 0.0000, 1.3327, 0.0471, -0.6612, 0.0000, 0.0000, 0.0000
2.1400, 0.0000, 0.0000, 0.0000, 0.0000, 0.0000, 0.0000, 0.0299, 0.0967, -0.2310, 0.0098, -0.0010, -0.0020, 228, 893745, 0.0000, 0.0000, -0.0000, 0.0000, 1.3327, 0.0471, -0.6612, 0.0000, 0.0000, 0.0000
2.1600, 0.0000, 0.0000, 0.0000, 0.0000, 0.0000, 0.0000, 0.0305, 0.0969, -0.2313, 0.0095, -0.0012, -0.0013, 229, 893745, 0.0000, 0.0000, -0.0000, 0.0000, 1.3327, 0.0471, -0.6611, 0.0000, 0.0000, 0.0000
2.1800, 0.0000, 0.0000, 0.0000, 0.0000, 0.0000, 0.0000, 0.0311, 0.0972, -0.2316, 0.0091, -0.0014, -0.0014, 230, 893745, 0.0000, 0.0000, -0.0000, 0.0000, 1.3327, 0.0471, -0.6612, 0.0000, 0.0000, 0.0000
2.2000, 0.0000, 0.0000, 0.0000, 0.0000, 0.0000, 0.0000, 0.0316, 0.0973, -0.2317, 0.0087, -0.0020, 0.0004, 231, 893745, 0.0000, 0.0000, -0.0000, 0.0000, 1.3327, 0.0471, -0.6611, 0.0000, 0.0000, 0.0000
2.2200, 0.0000, 0.0000, 0.0000, 0.0000, 0.0000, 0.0000, 0.0321, 0.0973, -0.2319, 0.0084, -0.0021, 0.0014, 232, 893745, 0.0000, 0.0000, -0.0000, 0.0000, 1.3327, 0.0470, -0.6611, 0.0000, 0.0000, 0.0000
2.2400, 0.0000, 0.0000, 0.0000, 0.0000, 0.0000, 0.0000, 0.0325, 0.0974, -0.2320, 0.0081, -0.0017, 0.0019, 233, 893745, 0.0000, 0.0000, -0.0000, 0.0000, 1.3327, 0.0470, -0.6611, 0.0000, 0.0000, 0.0000
2.2590, 0.0000, 0.0000, 0.0000, 0.0000, 0.0000, 0.0000, 0.0330, 0.0976, -0.2320, 0.0077, -0.0009, 0.0039, 234, 893745, 0.0000, 0.0000, -0.0000, 0.0000, 1.3327, 0.0471, -0.6611, 0.0000, 0.0000, 0.0000
2.2800, 0.0000, 0.0000, 0.0000, 0.0000, 0.0000, 0.0000, 0.0334, 0.0975, -0.2320, 0.0076, -0.0003, 0.0048, 235, 893745, 0.0000, 0.0000, -0.0000, 0.0000, 1.3327, 0.0471, -0.6612, 0.0000, 0.0000, 0.0000
2.3000, 0.0000, 0.0000, 0.0000, 0.0000, 0.0000, 0.0000, 0.0338, 0.0975, -0.2319, 0.0069, -0.0002, 0.0060, 236, 893745, 0.0000, 0.0000, -0.0000, 0.0000, 1.3327, 0.0470, -0.6612, 0.0000, 0.0000, 0.0000
2.3200, 0.0000, 0.0000, 0.0000, 0.0000, 0.0000, 0.0000, 0.0342, 0.0976, -0.2317, 0.0067, -0.0008, 0.0069, 237, 893745, 0.0000, 0.0000, -0.0000, 0.0000, 1.3327, 0.0471, -0.6611, 0.0000, 0.0000, 0.0000
2.3400, 0.0000, 0.0000, 0.0000, 0.0000, 0.0000, 0.0000, 0.0346, 0.0974, -0.2318, 0.0065, -0.0016, 0.0067, 238, 893745, 0.0000, 0.0000, -0.0000, 0.0000, 1.3327, 0.0471, -0.6612, 0.0000, 0.0000, 0.0000
2.3600, 0.0000, 0.0000, 0.0000, 0.0000, 0.0000, 0.0000, 0.0349, 0.0974, -0.2315, 0.0066, -0.0023, 0.0074, 239, 893745, 0.0000, 0.0000, -0.0000, 0.0000, 1.3326, 0.0471, -0.6611, 0.0000, 0.0000, 0.0000
2.3800, 0.0000, 0.0000, 0.0000, 0.0000, 0.0000, 0.0000, 0.0353, 0.0972, -0.2315, 0.0058, -0.0023, 0.0071, 240, 893745, 0.0000, 0.0000, -0.0000, 0.0000, 1.3327, 0.0470, -0.6611, 0.0000, 0.0000, 0.0000
2.4000, 0.0000, 0.0000, 0.0000, 0.0000, 0.0000, 0.0000, 0.0357, 0.0972, -0.2312, 0.0053, -0.0025, 0.0068, 241, 893745, 0.0000, 0.0000, -0.0000, 0.0000, 1.3327, 0.0471, -0.6612, 0.0000, 0.0000, 0.0000
2.4200, 0.0000, 0.0000, 0.0000, 0.0000, 0.0000, 0.0000, 0.0359, 0.0971, -0.2309, 0.0051, -0.0025, 0.0073, 242, 893745, 0.0000, 0.0000, -0.0000, 0.0000, 1.3327, 0.0471, -0.6611, 0.0000, 0.0000, 0.0000
2.4400, 0.0000, 0.0000, 0.0000, 0.0000, 0.0000, 0.0000, 0.0363, 0.0968, -0.2308, 0.0043, -0.0020, 0.0087, 243, 893745, 0.0000, 0.0000, -0.0000, 0.0000, 1.3326, 0.0470, -0.6612, 0.0000, 0.0000, 0.0000
2.4600, 0.0000, 0.0000, 0.0000, 0.0000, 0.0000, 0.0000, 0.0366, 0.0968, -0.2304, 0.0043, -0.0017, 0.0088, 244, 893745, 0.0000, 0.0000, -0.0000, 0.0000, 1.3327, 0.0471, -0.6611, 0.0000, 0.0000, 0.0000
2.4800, 0.0000, 0.0000, 0.0000, 0.0000, 0.0000, 0.0000, 0.0369, 0.0967, -0.2301, 0.0038, -0.0021, 0.0095, 245, 893745, 0.0000, 0.0000, -0.0000, 0.0000, 1.3327, 0.0471, -0.6611, 0.0000, 0.0000, 0.0000
2.5000, 0.0000, 0.0000, 0.0000, 0.0000, 0.0000, 0.0000, 0.0372, 0.0964, -0.2299, 0.0037, -0.0017, 0.0094, 246, 893745, 0.0000, 0.0000, -0.0000, 0.0000, 1.3327, 0.0471, -0.6612, 0.0000, 0.0000, 0.0000
2.5200, 0.0000, 0.0000, 0.0000, 0.0000, 0.0000, 0.0000, 0.0376, 0.0963, -0.2295, 0.0036, -0.0020, 0.0095, 247, 893745, 0.0000, 0.0000, -0.0000, 0.0000, 1.3327, 0.0471, -0.6611, 0.0000, 0.0000, 0.0000
2.5400, 0.0000, 0.0000, 0.0000, 0.0000, 0.0000, 0.0000, 0.0379, 0.0962, -0.2294, 0.0033, -0.0020, 0.0099, 248, 893745, 0.0000, 0.0000, -0.0000, 0.0000, 1.3326, 0.0470, -0.6611, 0.0000, 0.0000, 0.0000
2.5600, 0.0000, 0.0000, 0.0000, 0.0000, 0.0000, 0.0000, 0.0382, 0.0961, -0.2291, 0.0034, -0.0022, 0.0107, 249, 893745, 0.0000, 0.0000, -0.0000, 0.0000, 1.3326, 0.0471, -0.6611, 0.0000, 0.0000, 0.0000
2.5800, 0.0000, 0.0000, 0.0000, 0.0000, 0.0000, 0.0000, 0.0386, 0.0959, -0.2291, 0.0032, -0.0025, 0.0103, 250, 893745, 0.0000, 0.0000, -0.0000, 0.0000, 1.3327, 0.0471, -0.6611, 0.0000, 0.0000, 0.0000
2.6000, 0.0000, 0.0000, 0.0000, 0.0000, 0.0000, 0.0000, 0.0388, 0.0958, -0.2290, 0.0031, -0.0031, 0.0113, 251, 893745, 0.0000, 0.0000, -0.0000, 0.0000, 1.3326, 0.0470, -0.6610, 0.0000, 0.0000, 0.0000
2.6200, 0.0000, 0.0000, 0.0000, 0.0000, 0.0000, 0.0000, 0.0392, 0.0958, -0.2289, 0.0031, -0.0038, 0.0107, 252, 893745, 0.0000, 0.0000, -0.0000, 0.0000, 1.3326, 0.0471, -0.6609, 0.0000, 0.0000, 0.0000
2.6400, 0.0000, 0.0000, 0.0000, 0.0000, 0.0000, 0.0000, 0.0395, 0.0957, -0.2291, 0.0033, -0.0040, 0.0111, 253, 893745, 0.0000, 0.0000, -0.0000, 0.0000, 1.3326, 0.0470, -0.6610, 0.0000, 0.0000, 0.0000
2.6600, 0.0000, 0.0000, 0.0000, 0.0000, 0.0000, 0.0000, 0.0398, 0.0956, -0.2293, 0.0031, -0.0038, 0.0109, 254, 893745, 0.0000, 0.0000, -0.0000, 0.0000, 1.3326, 0.0470, -0.6610, 0.0000, 0.0000, 0.0000
2.6800, 0.0000, 0.0000, 0.0000, 0.0000, 0.0000, 0.0000, 0.0401, 0.0956, -0.2295, 0.0033, -0.0035, 0.0113, 255, 893745, 0.0000, 0.0000, -0.0000, 0.0000, 1.3327, 0.0470, -0.6611, 0.0000, 0.0000, 0.0000
2.7000, 0.0000, 0.0000, 0.0000, 0.0000, 0.0000, 0.0000, 0.0403, 0.0957, -0.2297, 0.0032, -0.0031, 0.0111, 256, 893745, 0.0000, 0.0000, -0.0000, 0.0000, 1.3327, 0.0471, -0.6611, 0.0000, 0.0000, 0.0000
2.7200, 0.0000, 0.0000, 0.0000, 0.0000, 0.0000, 0.0000, 0.0405, 0.0956, -0.2300, 0.0033, -0.0032, 0.0120, 257, 893745, 0.0000, 0.0000, -0.0000, 0.0000, 1.3326, 0.0471, -0.6611, 0.0000, 0.0000, 0.0000
2.7400, 0.0000, 0.0000, 0.0000, 0.0000, 0.0000, 0.0000, 0.0408, 0.0956, -0.2304, 0.0033, -0.0029, 0.0116, 258, 893745, 0.0000, 0.0000, -0.0000, 0.0000, 1.3326, 0.0471, -0.6611, 0.0000, 0.0000, 0.0000
2.7600, 0.0000, 0.0000, 0.0000, 0.0000, 0.0000, 0.0000, 0.0411, 0.0958, -0.2309, 0.0031, -0.0025, 0.0109, 259, 893745, 0.0000, 0.0000, -0.0000, 0.0000, 1.3327, 0.0471, -0.6611, 0.0000, 0.0000, 0.0000
2.7800, 0.0000, 0.0000, 0.0000, 0.0000, 0.0000, 0.0000, 0.0413, 0.0958, -0.2312, 0.0031, -0.0025, 0.0117, 260, 893745, 0.0000, 0.0000, -0.0000, 0.0000, 1.3326, 0.0471, -0.6611, 0.0000, 0.0000, 0.0000
2.8000, 0.0000, 0.0000, 0.0000, 0.0000, 0.0000, 0.0000, 0.0416, 0.0958, -0.2318, 0.0029, -0.0022, 0.0111, 261, 893745, 0.0000, 0.0000, -0.0000, 0.0000, 1.3326, 0.0471, -0.6611, 0.0000, 0.0000, 0.0000
2.8200, 0.0000, 0.0000, 0.0000, 0.0000, 0.0000, 0.0000, 0.0419, 0.0959, -0.2321, 0.0029, -0.0021, 0.0113, 262, 893745, 0.0000, 0.0000, -0.0000, 0.0000, 1.3326, 0.0471, -0.6611, 0.0000, 0.0000, 0.0000
2.8400, 0.0000, 0.0000, 0.0000, 0.0000, 0.0000, 0.0000, 0.0420, 0.0960, -0.2325, 0.0028, -0.0020, 0.0114, 263, 893745, 0.0000, 0.0000, -0.0000, 0.0000, 1.3327, 0.0471, -0.6611, 0.0000, 0.0000, 0.0000
2.8600, 0.0000, 0.0000, 0.0000, 0.0000, 0.0000, 0.0000, 0.0422, 0.0960, -0.2330, 0.0029, -0.0015, 0.0107, 264, 893745, 0.0000, 0.0000, -0.0000, 0.0000, 1.3327, 0.0471, -0.6611, 0.0000, 0.0000, 0.0000
2.8800, 0.0000, 0.0000, 0.0000, 0.0000, 0.0000, 0.0000, 0.0425, 0.0960, -0.2332, 0.0026, -0.0013, 0.0100, 265, 893745, 0.0000, 0.0000, -0.0000, 0.0000, 1.3326, 0.0471, -0.6612, 0.0000, 0.0000, 0.0000
2.9000, 0.0000, 0.0000, 0.0000, 0.0000, 0.0000, 0.0000, 0.0427, 0.0960, -0.2335, 0.0026, -0.0011, 0.0096, 266, 893745, 0.0000, 0.0000, -0.0000, 0.0000, 1.3327, 0.0471, -0.6612, 0.0000, 0.0000, 0.0000
2.9200, 0.0000, 0.0000, 0.0000, 0.0000, 0.0000, 0.0000, 0.0428, 0.0960, -0.2337, 0.0027, -0.0012, 0.0088, 267, 893745, 0.0000, 0.0000, -0.0000, 0.0000, 1.3327, 0.0470, -0.6611, 0.0000, 0.0000, 0.0000
2.9400, 0.0000, 0.0000, 0.0000, 0.0000, 0.0000, 0.0000, 0.0430, 0.0960, -0.2339, 0.0027, -0.0015, 0.0085, 268, 893745, 0.0000, 0.0000, -0.0000, 0.0000, 1.3326, 0.0470, -0.6610, 0.0000, 0.0000, 0.0000
2.9600, 0.0000, 0.0000, 0.0000, 0.0000, 0.0000, 0.0000, 0.0432, 0.0958, -0.2341, 0.0026, -0.0010, 0.0078, 269, 893745, 0.0000, 0.0000, -0.0000, 0.0000, 1.3326, 0.0470, -0.6610, 0.0000, 0.0000, 0.0000
2.9800, 0.0000, 0.0000, 0.0000, 0.0000, 0.0000, 0.0000, 0.0431, 0.0958, -0.2343, 0.0029, -0.0003, 0.0078, 270, 893745, 0.0000, 0.0000, -0.0000, 0.0000, 1.3326, 0.0470, -0.6609, 0.0000, 0.0000, 0.0000
3.0000, 0.0000, 0.0000, 0.0000, 0.0000, 0.0000, 0.0000, 0.0433, 0.0957, -0.2344, 0.0023, -0.0001, 0.0082, 271, 893745, 0.0000, 0.0000, -0.0000, 0.0000, 1.3326, 0.0470, -0.6610, 0.0000, 0.0000, 0.0000
3.0190, 0.0000, 0.0000, 0.0000, 0.0000, 0.0000, 0.0000, 0.0434, 0.0956, -0.2345, 0.0022, -0.0004, 0.0085, 272, 893745, 0.0000, 0.0000, -0.0000, 0.0000, 1.3325, 0.0470, -0.6610, 0.0000, 0.0000, 0.0000
3.0400, 0.0000, 0.0000, 0.0000, 0.0000, 0.0000, 0.0000, 0.0434, 0.0955, -0.2346, 0.0024, -0.0010, 0.0089, 273, 893745, 0.0000, 0.0000, -0.0000, 0.0000, 1.3326, 0.0470, -0.6609, 0.0000, 0.0000, 0.0000
3.0600, 0.0000, 0.0000, 0.0000, 0.0000, 0.0000, 0.0000, 0.0436, 0.0954, -0.2347, 0.0020, -0.0010, 0.0092, 274, 893745, 0.0000, 0.0000, -0.0000, 0.0000, 1.3326, 0.0470, -0.6610, 0.0000, 0.0000, 0.0000
3.0800, 0.0000, 0.0000, 0.0000, 0.0000, 0.0000, 0.0000, 0.0435, 0.0953, -0.2347, 0.0023, -0.0013, 0.0089, 275, 893745, 0.0000, 0.0000, -0.0000, 0.0000, 1.3326, 0.0470, -0.6610, 0.0000, 0.0000, 0.0000
3.1000, 0.0000, 0.0000, 0.0000, 0.0000, 0.0000, 0.0000, 0.0434, 0.0950, -0.2348, 0.0022, -0.0015, 0.0092, 276, 893745, 0.0000, 0.0000, -0.0000, 0.0000, 1.3325, 0.0470, -0.6610, 0.0000, 0.0000, 0.0000
3.1200, 0.0000, 0.0000, 0.0000, 0.0000, 0.0000, 0.0000, 0.0435, 0.0950, -0.2348, 0.0022, -0.0018, 0.0094, 277, 893745, 0.0000, 0.0000, -0.0000, 0.0000, 1.3326, 0.0470, -0.6610, 0.0000, 0.0000, 0.0000
3.1400, 0.0000, 0.0000, 0.0000, 0.0000, 0.0000, 0.0000, 0.0435, 0.0950, -0.2347, 0.0020, -0.0020, 0.0099, 278, 893745, 0.0000, 0.0000, -0.0000, 0.0000, 1.3327, 0.0471, -0.6610, 0.0000, 0.0000, 0.0000
3.1600, 0.0000, 0.0000, 0.0000, 0.0000, 0.0000, 0.0000, 0.0436, 0.0947, -0.2348, 0.0018, -0.0021, 0.0101, 279, 893745, 0.0000, 0.0000, -0.0000, 0.0000, 1.3326, 0.0471, -0.6611, 0.0000, 0.0000, 0.0000
3.1800, 0.0000, 0.0000, 0.0000, 0.0000, 0.0000, 0.0000, 0.0436, 0.0947, -0.2347, 0.0020, -0.0027, 0.0113, 280, 893745, 0.0000, 0.0000, -0.0000, 0.0000, 1.3325, 0.0470, -0.6610, 0.0000, 0.0000, 0.0000
3.2000, 0.0000, 0.0000, 0.0000, 0.0000, 0.0000, 0.0000, 0.0436, 0.0945, -0.2348, 0.0018, -0.0027, 0.0117, 281, 893745, 0.0000, 0.0000, -0.0000, 0.0000, 1.3327, 0.0471, -0.6610, 0.0000, 0.0000, 0.0000
3.2200, 0.0000, 0.0000, 0.0000, 0.0000, 0.0000, 0.0000, 0.0435, 0.0945, -0.2348, 0.0017, -0.0027, 0.0129, 282, 893745, 0.0000, 0.0000, -0.0000, 0.0000, 1.3326, 0.0471, -0.6611, 0.0000, 0.0000, 0.0000
3.2400, 0.0000, 0.0000, 0.0000, 0.0000, 0.0000, 0.0000, 0.0434, 0.0943, -0.2349, 0.0015, -0.0026, 0.0126, 283, 893745, 0.0000, 0.0000, -0.0000, 0.0000, 1.3326, 0.0471, -0.6610, 0.0000, 0.0000, 0.0000
3.2600, 0.0000, 0.0000, 0.0000, 0.0000, 0.0000, 0.0000, 0.0435, 0.0942, -0.2350, 0.0012, -0.0022, 0.0128, 284, 893745, 0.0000, 0.0000, -0.0000, 0.0000, 1.3326, 0.0471, -0.6611, 0.0000, 0.0000, 0.0000
3.2800, 0.0000, 0.0000, 0.0000, 0.0000, 0.0000, 0.0000, 0.0434, 0.0943, -0.2351, 0.0012, -0.0021, 0.0133, 285, 893745, 0.0000, 0.0000, -0.0000, 0.0000, 1.3326, 0.0472, -0.6610, 0.0000, 0.0000, 0.0000
3.3000, 0.0000, 0.0000, 0.0000, 0.0000, 0.0000, 0.0000, 0.0433, 0.0941, -0.2352, 0.0007, -0.0017, 0.0137, 286, 893745, 0.0000, 0.0000, -0.0000, 0.0000, 1.3326, 0.0471, -0.6611, 0.0000, 0.0000, 0.0000
3.3200, 0.0000, 0.0000, 0.0000, 0.0000, 0.0000, 0.0000, 0.0433, 0.0940, -0.2354, 0.0010, -0.0013, 0.0138, 287, 893745, 0.0000, 0.0000, -0.0000, 0.0000, 1.3326, 0.0470, -0.6611, 0.0000, 0.0000, 0.0000
3.3400, 0.0000, 0.0000, 0.0000, 0.0000, 0.0000, 0.0000, 0.0432, 0.0940, -0.2355, 0.0009, -0.0016, 0.0142, 288, 893745, 0.0000, 0.0000, -0.0000, 0.0000, 1.3326, 0.0471, -0.6610, 0.0000, 0.0000, 0.0000
3.3600, 0.0000, 0.0000, 0.0000, 0.0000, 0.0000, 0.0000, 0.0432, 0.0940, -0.2357, 0.0006, -0.0018, 0.0140, 289, 893745, 0.0000, 0.0000, -0.0000, 0.0000, 1.3326, 0.0471, -0.6611, 0.0000, 0.0000, 0.0000
3.3800, 0.0000, 0.0000, 0.0000, 0.0000, 0.0000, 0.0000, 0.0431, 0.0939, -0.2359, 0.0008, -0.0017, 0.0143, 290, 893745, 0.0000, 0.0000, -0.0000, 0.0000, 1.3326, 0.0471, -0.6610, 0.0000, 0.0000, 0.0000
3.4000, 0.0000, 0.0000, 0.0000, 0.0000, 0.0000, 0.0000, 0.0431, 0.0938, -0.2362, 0.0003, -0.0013, 0.0146, 291, 893745, 0.0000, 0.0000, -0.0000, 0.0000, 1.3325, 0.0470, -0.6610, 0.0000, 0.0000, 0.0000
3.4200, 0.0000, 0.0000, 0.0000, 0.0000, 0.0000, 0.0000, 0.0430, 0.0939, -0.2363, 0.0004, -0.0014, 0.0145, 292, 893745, 0.0000, 0.0000, -0.0000, 0.0000, 1.3326, 0.0471, -0.6610, 0.0000, 0.0000, 0.0000
3.4400, 0.0000, 0.0000, 0.0000, 0.0000, 0.0000, 0.0000, 0.0429, 0.0939, -0.2364, 0.0005, -0.0016, 0.0137, 293, 893745, 0.0000, 0.0000, -0.0000, 0.0000, 1.3326, 0.0471, -0.6610, 0.0000, 0.0000, 0.0000
3.4600, 0.0000, 0.0000, 0.0000, 0.0000, 0.0000, 0.0000, 0.0429, 0.0938, -0.2366, 0.0002, -0.0021, 0.0139, 294, 893745, 0.0000, 0.0000, -0.0000, 0.0000, 1.3326, 0.0471, -0.6611, 0.0000, 0.0000, 0.0000
3.4800, 0.0000, 0.0000, 0.0000, 0.0000, 0.0000, 0.0000, 0.0429, 0.0938, -0.2366, 0.0005, -0.0027, 0.0134, 295, 893745, 0.0000, 0.0000, -0.0000, 0.0000, 1.3326, 0.0471, -0.6611, 0.0000, 0.0000, 0.0000
3.5000, 0.0000, 0.0000, 0.0000, 0.0000, 0.0000, 0.0000, 0.0428, 0.0939, -0.2366, 0.0005, -0.0030, 0.0136, 296, 893745, 0.0000, 0.0000, -0.0000, 0.0000, 1.3327, 0.0471, -0.6611, 0.0000, 0.0000, 0.0000
3.5200, 0.0000, 0.0000, 0.0000, 0.0000, 0.0000, 0.0000, 0.0427, 0.0940, -0.2367, 0.0005, -0.0034, 0.0133, 297, 893745, 0.0000, 0.0000, -0.0000, 0.0000, 1.3326, 0.0471, -0.6612, 0.0000, 0.0000, 0.0000
3.5400, 0.0000, 0.0000, 0.0000, 0.0000, 0.0000, 0.0000, 0.0427, 0.0939, -0.2366, 0.0005, -0.0034, 0.0127, 298, 893745, 0.0000, 0.0000, -0.0000, 0.0000, 1.3327, 0.0470, -0.6611, 0.0000, 0.0000, 0.0000
3.5600, 0.0000, 0.0000, 0.0000, 0.0000, 0.0000, 0.0000, 0.0427, 0.0940, -0.2367, 0.0005, -0.0032, 0.0124, 299, 893745, 0.0000, 0.0000, -0.0000, 0.0000, 1.3327, 0.0471, -0.6611, 0.0000, 0.0000, 0.0000
3.5800, 0.0000, 0.0000, 0.0000, 0.0000, 0.0000, 0.0000, 0.0426, 0.0942, -0.2366, 0.0007, -0.0035, 0.0125, 300, 893745, 0.0000, 0.0000, -0.0000, 0.0000, 1.3327, 0.0471, -0.6611, 0.0000, 0.0000, 0.0000
3.6000, 0.0000, 0.0000, 0.0000, 0.0000, 0.0000, 0.0000, 0.0425, 0.0942, -0.2365, 0.0012, -0.0040, 0.0118, 301, 893745, 0.0000, 0.0000, -0.0000, 0.0000, 1.3326, 0.0471, -0.6611, 0.0000, 0.0000, 0.0000
3.6200, 0.0000, 0.0000, 0.0000, 0.0000, 0.0000, 0.0000, 0.0425, 0.0941, -0.2365, 0.0011, -0.0040, 0.0113, 302, 893745, 0.0000, 0.0000, -0.0000, 0.0000, 1.3327, 0.0471, -0.6612, 0.0000, 0.0000, 0.0000
3.6400, 0.0000, 0.0000, 0.0000, 0.0000, 0.0000, 0.0000, 0.0425, 0.0943, -0.2363, 0.0014, -0.0043, 0.0110, 303, 893745, 0.0000, 0.0000, -0.0000, 0.0000, 1.3327, 0.0471, -0.6611, 0.0000, 0.0000, 0.0000
3.6600, 0.0000, 0.0000, 0.0000, 0.0000, 0.0000, 0.0000, 0.0424, 0.0944, -0.2363, 0.0013, -0.0040, 0.0100, 304, 893745, 0.0000, 0.0000, -0.0000, 0.0000, 1.3327, 0.0471, -0.6611, 0.0000, 0.0000, 0.0000
3.6800, 0.0000, 0.0000, 0.0000, 0.0000, 0.0000, 0.0000, 0.0424, 0.0943, -0.2361, 0.0012, -0.0039, 0.0103, 305, 893745, 0.0000, 0.0000, -0.0000, 0.0000, 1.3327, 0.0471, -0.6612, 0.0000, 0.0000, 0.0000
3.7000, 0.0000, 0.0000, 0.0000, 0.0000, 0.0000, 0.0000, 0.0423, 0.0944, -0.2359, 0.0009, -0.0038, 0.0110, 306, 893745, 0.0000, 0.0000, -0.0000, 0.0000, 1.3326, 0.0471, -0.6611, 0.0000, 0.0000, 0.0000
3.7200, 0.0000, 0.0000, 0.0000, 0.0000, 0.0000, 0.0000, 0.0423, 0.0945, -0.2356, 0.0011, -0.0034, 0.0118, 307, 893745, 0.0000, 0.0000, -0.0000, 0.0000, 1.3327, 0.0471, -0.6611, 0.0000, 0.0000, 0.0000
3.7400, 0.0000, 0.0000, 0.0000, 0.0000, 0.0000, 0.0000, 0.0422, 0.0946, -0.2353, 0.0008, -0.0027, 0.0121, 308, 893745, 0.0000, 0.0000, -0.0000, 0.0000, 1.3326, 0.0471, -0.6611, 0.0000, 0.0000, 0.0000
3.7600, 0.0000, 0.0000, 0.0000, 0.0000, 0.0000, 0.0000, 0.0420, 0.0945, -0.2348, 0.0009, -0.0020, 0.0119, 309, 893745, 0.0000, 0.0000, -0.0000, 0.0000, 1.3326, 0.0470, -0.6609, 0.0000, 0.0000, 0.0000
3.7800, 0.0000, 0.0000, 0.0000, 0.0000, 0.0000, 0.0000, 0.0420, 0.0946, -0.2345, 0.0010, -0.0017, 0.0121, 310, 893745, 0.0000, 0.0000, -0.0000, 0.0000, 1.3326, 0.0470, -0.6610, 0.0000, 0.0000, 0.0000
3.7990, 0.0000, 0.0000, 0.0000, 0.0000, 0.0000, 0.0000, 0.0419, 0.0947, -0.2340, 0.0010, -0.0015, 0.0132, 311, 893745, 0.0000, 0.0000, -0.0000, 0.0000, 1.3326, 0.0471, -0.6611, 0.0000, 0.0000, 0.0000
3.8200, 0.0000, 0.0000, 0.0000, 0.0000, 0.0000, 0.0000, 0.0418, 0.0947, -0.2335, 0.0010, -0.0017, 0.0130, 312, 893745, 0.0000, 0.0000, -0.0000, 0.0000, 1.3326, 0.0470, -0.6611, 0.0000, 0.0000, 0.0000
3.8400, 0.0000, 0.0000, 0.0000, 0.0000, 0.0000, 0.0000, 0.0416, 0.0945, -0.2332, 0.0010, -0.0020, 0.0134, 313, 893745, 0.0000, 0.0000, -0.0000, 0.0000, 1.3327, 0.0470, -0.6611, 0.0000, 0.0000, 0.0000
3.8600, 0.0000, 0.0000, 0.0000, 0.0000, 0.0000, 0.0000, 0.0414, 0.0946, -0.2327, 0.0009, -0.0022, 0.0125, 314, 893745, 0.0000, 0.0000, -0.0000, 0.0000, 1.3326, 0.0471, -0.6610, 0.0000, 0.0000, 0.0000
3.8800, 0.0000, 0.0000, 0.0000, 0.0000, 0.0000, 0.0000, 0.0411, 0.0946, -0.2323, 0.0009, -0.0019, 0.0127, 315, 893745, 0.0000, 0.0000, -0.0000, 0.0000, 1.3326, 0.0470, -0.6611, 0.0000, 0.0000, 0.0000
3.9000, 0.0000, 0.0000, 0.0000, 0.0000, 0.0000, 0.0000, 0.0411, 0.0946, -0.2320, 0.0009, -0.0018, 0.0134, 316, 893745, 0.0000, 0.0000, -0.0000, 0.0000, 1.3326, 0.0470, -0.6611, 0.0000, 0.0000, 0.0000
3.9200, 0.0000, 0.0000, 0.0000, 0.0000, 0.0000, 0.0000, 0.0410, 0.0944, -0.2315, 0.0005, -0.0018, 0.0140, 317, 893745, 0.0000, 0.0000, -0.0000, 0.0000, 1.3327, 0.0470, -0.6610, 0.0000, 0.0000, 0.0000
3.9400, 0.0000, 0.0000, 0.0000, 0.0000, 0.0000, 0.0000, 0.0408, 0.0946, -0.2313, 0.0005, -0.0020, 0.0142, 318, 893745, 0.0000, 0.0000, -0.0000, 0.0000, 1.3327, 0.0470, -0.6611, 0.0000, 0.0000, 0.0000
3.9600, 0.0000, 0.0000, 0.0000, 0.0000, 0.0000, 0.0000, 0.0406, 0.0944, -0.2309, 0.0004, -0.0021, 0.0147, 319, 893745, 0.0000, 0.0000, -0.0000, 0.0000, 1.3327, 0.0471, -0.6611, 0.0000, 0.0000, 0.0000
3.9800, 0.0000, 0.0000, 0.0000, 0.0000, 0.0000, 0.0000, 0.0405, 0.0943, -0.2306, 0.0005, -0.0026, 0.0140, 320, 893745, 0.0000, 0.0000, -0.0000, 0.0000, 1.3326, 0.0470, -0.6611, 0.0000, 0.0000, 0.0000
4.0000, 0.0000, 0.0000, 0.0000, 0.0000, 0.0000, 0.0000, 0.0404, 0.0943, -0.2301, 0.0005, -0.0032, 0.0135, 321, 893745, 0.0000, 0.0000, -0.0000, 0.0000, 1.3326, 0.0471, -0.6611, 0.0000, 0.0000, 0.0000
4.0200, 0.0000, 0.0000, 0.0000, 0.0000, 0.0000, 0.0000, 0.0404, 0.0943, -0.2298, 0.0002, -0.0042, 0.0137, 322, 893745, 0.0000, 0.0000, -0.0000, 0.0000, 1.3327, 0.0471, -0.6611, 0.0000, 0.0000, 0.0000
4.0400, 0.0000, 0.0000, 0.0000, 0.0000, 0.0000, 0.0000, 0.0403, 0.0943, -0.2294, 0.0003, -0.0049, 0.0130, 323, 893745, 0.0000, 0.0000, -0.0000, 0.0000, 1.3326, 0.0471, -0.6611, 0.0000, 0.0000, 0.0000
4.0600, 0.0000, 0.0000, 0.0000, 0.0000, 0.0000, 0.0000, 0.0402, 0.0942, -0.2291, 0.0003, -0.0050, 0.0128, 324, 893745, 0.0000, 0.0000, -0.0000, 0.0000, 1.3326, 0.0470, -0.6611, 0.0000, 0.0000, 0.0000
4.0800, 0.0000, 0.0000, 0.0000, 0.0000, 0.0000, 0.0000, 0.0400, 0.0943, -0.2286, 0.0004, -0.0050, 0.0130, 325, 893745, 0.0000, 0.0000, -0.0000, 0.0000, 1.3327, 0.0471, -0.6611, 0.0000, 0.0000, 0.0000
4.1000, 0.0000, 0.0000, 0.0000, 0.0000, 0.0000, 0.0000, 0.0401, 0.0944, -0.2284, 0.0001, -0.0049, 0.0132, 326, 893745, 0.0000, 0.0000, -0.0000, 0.0000, 1.3326, 0.0471, -0.6611, 0.0000, 0.0000, 0.0000
4.1200, 0.0000, 0.0000, 0.0000, 0.0000, 0.0000, 0.0000, 0.0400, 0.0944, -0.2280, -0.0001, -0.0050, 0.0136, 327, 893745, 0.0000, 0.0000, -0.0000, 0.0000, 1.3326, 0.0471, -0.6611, 0.0000, 0.0000, 0.0000
4.1400, 0.0000, 0.0000, 0.0000, 0.0000, 0.0000, 0.0000, 0.0399, 0.0943, -0.2278, -0.0004, -0.0054, 0.0134, 328, 893745, 0.0000, 0.0000, -0.0000, 0.0000, 1.3327, 0.0471, -0.6611, 0.0000, 0.0000, 0.0000
4.1600, 0.0000, 0.0000, 0.0000, 0.0000, 0.0000, 0.0000, 0.0399, 0.0944, -0.2273, -0.0007, -0.0057, 0.0130, 329, 893745, 0.0000, 0.0000, -0.0000, 0.0000, 1.3327, 0.0471, -0.6611, 0.0000, 0.0000, 0.0000
4.1800, 0.0000, 0.0000, 0.0000, 0.0000, 0.0000, 0.0000, 0.0399, 0.0944, -0.2270, -0.0011, -0.0052, 0.0128, 330, 893745, 0.0000, 0.0000, -0.0000, 0.0000, 1.3327, 0.0471, -0.6611, 0.0000, 0.0000, 0.0000
4.1990, 0.0000, 0.0000, 0.0000, 0.0000, 0.0000, 0.0000, 0.0397, 0.0942, -0.2266, -0.0017, -0.0046, 0.0131, 331, 893745, 0.0000, 0.0000, -0.0000, 0.0000, 1.3327, 0.0470, -0.6612, 0.0000, 0.0000, 0.0000
4.2200, 0.0000, 0.0000, 0.0000, 0.0000, 0.0000, 0.0000, 0.0396, 0.0942, -0.2263, -0.0015, -0.0036, 0.0133, 332, 893745, 0.0000, 0.0000, -0.0000, 0.0000, 1.3327, 0.0470, -0.6611, 0.0000, 0.0000, 0.0000
4.2400, 0.0000, 0.0000, 0.0000, 0.0000, 0.0000, 0.0000, 0.0396, 0.0943, -0.2260, -0.0018, -0.0031, 0.0137, 333, 893745, 0.0000, 0.0000, -0.0000, 0.0000, 1.3327, 0.0471, -0.6611, 0.0000, 0.0000, 0.0000
4.2600, 0.0000, 0.0000, 0.0000, 0.0000, 0.0000, 0.0000, 0.0396, 0.0942, -0.2257, -0.0018, -0.0035, 0.0155, 334, 893745, 0.0000, 0.0000, -0.0000, 0.0000, 1.3326, 0.0470, -0.6612, 0.0000, 0.0000, 0.0000
4.2800, 0.0000, 0.0000, 0.0000, 0.0000, 0.0000, 0.0000, 0.0397, 0.0942, -0.2255, -0.0019, -0.0034, 0.0154, 335, 893745, 0.0000, 0.0000, -0.0000, 0.0000, 1.3327, 0.0471, -0.6611, 0.0000, 0.0000, 0.0000
4.3000, 0.0000, 0.0000, 0.0000, 0.0000, 0.0000, 0.0000, 0.0396, 0.0942, -0.2254, -0.0020, -0.0035, 0.0161, 336, 893745, 0.0000, 0.0000, -0.0000, 0.0000, 1.3327, 0.0470, -0.6611, 0.0000, 0.0000, 0.0000
4.3200, 0.0000, 0.0000, 0.0000, 0.0000, 0.0000, 0.0000, 0.0397, 0.0943, -0.2250, -0.0018, -0.0033, 0.0157, 337, 893745, 0.0000, 0.0000, -0.0000, 0.0000, 1.3327, 0.0471, -0.6611, 0.0000, 0.0000, 0.0000
4.3400, 0.0000, 0.0000, 0.0000, 0.0000, 0.0000, 0.0000, 0.0397, 0.0941, -0.2248, -0.0019, -0.0031, 0.0148, 338, 893745, 0.0000, 0.0000, -0.0000, 0.0000, 1.3327, 0.0471, -0.6612, 0.0000, 0.0000, 0.0000
4.3600, 0.0000, 0.0000, 0.0000, 0.0000, 0.0000, 0.0000, 0.0397, 0.0941, -0.2245, -0.0020, -0.0032, 0.0157, 339, 893745, 0.0000, 0.0000, -0.0000, 0.0000, 1.3326, 0.0470, -0.6612, 0.0000, 0.0000, 0.0000
4.3800, 0.0000, 0.0000, 0.0000, 0.0000, 0.0000, 0.0000, 0.0398, 0.0943, -0.2243, -0.0020, -0.0033, 0.0157, 340, 893745, 0.0000, 0.0000, -0.0000, 0.0000, 1.3327, 0.0471, -0.6611, 0.0000, 0.0000, 0.0000
4.4000, 0.0000, 0.0000, 0.0000, 0.0000, 0.0000, 0.0000, 0.0398, 0.0943, -0.2240, -0.0016, -0.0032, 0.0164, 341, 893745, 0.0000, 0.0000, -0.0000, 0.0000, 1.3327, 0.0470, -0.6612, 0.0000, 0.0000, 0.0000
4.4200, 0.0000, 0.0000, 0.0000, 0.0000, 0.0000, 0.0000, 0.0399, 0.0944, -0.2237, -0.0018, -0.0032, 0.0171, 342, 893745, 0.0000, 0.0000, -0.0000, 0.0000, 1.3326, 0.0471, -0.6611, 0.0000, 0.0000, 0.0000
4.4400, 0.0000, 0.0000, 0.0000, 0.0000, 0.0000, 0.0000, 0.0399, 0.0945, -0.2233, -0.0015, -0.0028, 0.0178, 343, 893745, 0.0000, 0.0000, -0.0000, 0.0000, 1.3327, 0.0471, -0.6611, 0.0000, 0.0000, 0.0000
4.4600, 0.0000, 0.0000, 0.0000, 0.0000, 0.0000, 0.0000, 0.0399, 0.0948, -0.2230, -0.0014, -0.0020, 0.0182, 344, 893745, 0.0000, 0.0000, -0.0000, 0.0000, 1.3327, 0.0471, -0.6612, 0.0000, 0.0000, 0.0000
4.4800, 0.0000, 0.0000, 0.0000, 0.0000, 0.0000, 0.0000, 0.0398, 0.0949, -0.2227, -0.0014, -0.0010, 0.0191, 345, 893745, 0.0000, 0.0000, -0.0000, 0.0000, 1.3327, 0.0471, -0.6611, 0.0000, 0.0000, 0.0000
4.5000, 0.0000, 0.0000, 0.0000, 0.0000, 0.0000, 0.0000, 0.0400, 0.0951, -0.2224, -0.0014, -0.0003, 0.0196, 346, 893745, 0.0000, 0.0000, -0.0000, 0.0000, 1.3326, 0.0470, -0.6612, 0.0000, 0.0000, 0.0000
4.5200, 0.0000, 0.0000, 0.0000, 0.0000, 0.0000, 0.0000, 0.0400, 0.0955, -0.2221, -0.0011, -0.0001, 0.0187, 347, 893745, 0.0000, 0.0000, -0.0000, 0.0000, 1.3327, 0.0471, -0.6611, 0.0000, 0.0000, 0.0000
4.5400, 0.0000, 0.0000, 0.0000, 0.0000, 0.0000, 0.0000, 0.0401, 0.0957, -0.2218, -0.0009, -0.0001, 0.0187, 348, 893745, 0.0000, 0.0000, -0.0000, 0.0000, 1.3327, 0.0471, -0.6611, 0.0000, 0.0000, 0.0000
4.5600, 0.0000, 0.0000, 0.0000, 0.0000, 0.0000, 0.0000, 0.0402, 0.0960, -0.2216, -0.0004, -0.0006, 0.0182, 349, 893745, 0.0000, 0.0000, -0.0000, 0.0000, 1.3326, 0.0471, -0.6612, 0.0000, 0.0000, 0.0000
4.5800, 0.0000, 0.0000, 0.0000, 0.0000, 0.0000, 0.0000, 0.0403, 0.0962, -0.2214, 0.0000, -0.0008, 0.0172, 350, 893745, 0.0000, 0.0000, -0.0000, 0.0000, 1.3327, 0.0470, -0.6611, 0.0000, 0.0000, 0.0000
4.6000, 0.0000, 0.0000, 0.0000, 0.0000, 0.0000, 0.0000, 0.0404, 0.0967, -0.2212, 0.0002, -0.0017, 0.0171, 351, 893745, 0.0000, 0.0000, -0.0000, 0.0000, 1.3327, 0.0471, -0.6611, 0.0000, 0.0000, 0.0000
4.6200, 0.0000, 0.0000, 0.0000, 0.0000, 0.0000, 0.0000, 0.0404, 0.0970, -0.2210, 0.0005, -0.0027, 0.0159, 352, 893745, 0.0000, 0.0000, -0.0000, 0.0000, 1.3327, 0.0471, -0.6612, 0.0000, 0.0000, 0.0000
4.6400, 0.0000, 0.0000, 0.0000, 0.0000, 0.0000, 0.0000, 0.0405, 0.0972, -0.2205, 0.0011, -0.0034, 0.0159, 353, 893745, 0.0000, 0.0000, -0.0000, 0.0000, 1.3326, 0.0471, -0.6611, 0.0000, 0.0000, 0.0000
4.6600, 0.0000, 0.0000, 0.0000, 0.0000, 0.0000, 0.0000, 0.0407, 0.0976, -0.2201, 0.0017, -0.0042, 0.0152, 354, 893745, 0.0000, 0.0000, -0.0000, 0.0000, 1.3327, 0.0471, -0.6611, 0.0000, 0.0000, 0.0000
4.6800, 0.0000, 0.0000, 0.0000, 0.0000, 0.0000, 0.0000, 0.0407, 0.0979, -0.2196, 0.0020, -0.0045, 0.0140, 355, 893745, 0.0000, 0.0000, -0.0000, 0.0000, 1.3327, 0.0471, -0.6611, 0.0000, 0.0000, 0.0000
4.7000, 0.0000, 0.0000, 0.0000, 0.0000, 0.0000, 0.0000, 0.0408, 0.0983, -0.2190, 0.0027, -0.0052, 0.0129, 356, 893745, 0.0000, 0.0000, -0.0000, 0.0000, 1.3327, 0.0471, -0.6611, 0.0000, 0.0000, 0.0000
4.7200, 0.0000, 0.0000, 0.0000, 0.0000, 0.0000, 0.0000, 0.0409, 0.0985, -0.2187, 0.0026, -0.0056, 0.0122, 357, 893745, 0.0000, 0.0000, -0.0000, 0.0000, 1.3326, 0.0471, -0.6612, 0.0000, 0.0000, 0.0000
4.7400, 0.0000, 0.0000, 0.0000, 0.0000, 0.0000, 0.0000, 0.0411, 0.0989, -0.2180, 0.0033, -0.0058, 0.0122, 358, 893745, 0.0000, 0.0000, -0.0000, 0.0000, 1.3327, 0.0471, -0.6611, 0.0000, 0.0000, 0.0000
4.7600, 0.0000, 0.0000, 0.0000, 0.0000, 0.0000, 0.0000, 0.0413, 0.0994, -0.2175, 0.0034, -0.0061, 0.0117, 359, 893745, 0.0000, 0.0000, -0.0000, 0.0000, 1.3328, 0.0472, -0.6611, 0.0000, 0.0000, 0.0000
4.7800, 0.0000, 0.0000, 0.0000, 0.0000, 0.0000, 0.0000, 0.0414, 0.0996, -0.2170, 0.0037, -0.0061, 0.0124, 360, 893745, 0.0000, 0.0000, -0.0000, 0.0000, 1.3327, 0.0471, -0.6612, 0.0000, 0.0000, 0.0000
4.8000, 0.0000, 0.0000, 0.0000, 0.0000, 0.0000, 0.0000, 0.0417, 0.1000, -0.2163, 0.0039, -0.0063, 0.0129, 361, 893745, 0.0000, 0.0000, -0.0000, 0.0000, 1.3326, 0.0471, -0.6611, 0.0000, 0.0000, 0.0000
4.8190, 0.0000, 0.0000, 0.0000, 0.0000, 0.0000, 0.0000, 0.0420, 0.1004, -0.2159, 0.0043, -0.0062, 0.0120, 362, 893745, 0.0000, 0.0000, -0.0000, 0.0000, 1.3327, 0.0471, -0.6611, 0.0000, 0.0000, 0.0000
4.8400, 0.0000, 0.0000, 0.0000, 0.0000, 0.0000, 0.0000, 0.0423, 0.1007, -0.2152, 0.0043, -0.0061, 0.0123, 363, 893745, 0.0000, 0.0000, -0.0000, 0.0000, 1.3327, 0.0471, -0.6611, 0.0000, 0.0000, 0.0000
4.8600, 0.0000, 0.0000, 0.0000, 0.0000, 0.0000, 0.0000, 0.0427, 0.1011, -0.2146, 0.0045, -0.0062, 0.0112, 364, 893745, 0.0000, 0.0000, -0.0000, 0.0000, 1.3327, 0.0471, -0.6612, 0.0000, 0.0000, 0.0000
4.8800, 0.0000, 0.0000, 0.0000, 0.0000, 0.0000, 0.0000, 0.0432, 0.1013, -0.2141, 0.0045, -0.0066, 0.0111, 365, 893745, 0.0000, 0.0000, -0.0000, 0.0000, 1.3327, 0.0470, -0.6611, 0.0000, 0.0000, 0.0000
4.9000, 0.0000, 0.0000, 0.0000, 0.0000, 0.0000, 0.0000, 0.0437, 0.1018, -0.2135, 0.0050, -0.0070, 0.0104, 366, 893745, 0.0000, 0.0000, -0.0000, 0.0000, 1.3327, 0.0471, -0.6611, 0.0000, 0.0000, 0.0000
4.9200, 0.0000, 0.0000, 0.0000, 0.0000, 0.0000, 0.0000, 0.0442, 0.1020, -0.2132, 0.0053, -0.0071, 0.0091, 367, 893745, 0.0000, 0.0000, -0.0000, 0.0000, 1.3327, 0.0471, -0.6612, 0.0000, 0.0000, 0.0000
4.9400, 0.0000, 0.0000, 0.0000, 0.0000, 0.0000, 0.0000, 0.0446, 0.1023, -0.2126, 0.0054, -0.0066, 0.0088, 368, 893745, 0.0000, 0.0000, -0.0000, 0.0000, 1.3326, 0.0470, -0.6611, 0.0000, 0.0000, 0.0000
4.9600, 0.0000, 0.0000, 0.0000, 0.0000, 0.0000, 0.0000, 0.0451, 0.1027, -0.2120, 0.0057, -0.0055, 0.0088, 369, 893745, 0.0000, 0.0000, -0.0000, 0.0000, 1.3327, 0.0471, -0.6611, 0.0000, 0.0000, 0.0000
4.9800, 0.0000, 0.0000, 0.0000, 0.0000, 0.0000, 0.0000, 0.0455, 0.1029, -0.2114, 0.0062, -0.0046, 0.0083, 370, 893745, 0.0000, 0.0000, -0.0000, 0.0000, 1.3326, 0.0471, -0.6612, 0.0000, 0.0000, 0.0000
5.0000, 0.0000, 0.0000, 0.0000, 0.0000, 0.0000, 0.0000, 0.0460, 0.1031, -0.2108, 0.0060, -0.0037, 0.0080, 371, 893745, 0.0000, 0.0000, -0.0000, 0.0000, 1.3327, 0.0471, -0.6611, 0.0000, 0.0000, 0.0000
5.0200, 0.0000, 0.0000, 0.0000, 0.0000, 0.0000, 0.0000, 0.0465, 0.1030, -0.2103, 0.0066, -0.0031, 0.0060, 372, 893745, 0.0000, 0.0000, -0.0000, 0.0000, 1.3327, 0.0471, -0.6612, 0.0000, 0.0000, 0.0000
5.0390, 0.0000, 0.0000, 0.0000, 0.0000, 0.0000, 0.0000, 0.0470, 0.1033, -0.2096, 0.0067, -0.0025, 0.0059, 373, 893745, 0.0000, 0.0000, -0.0006, 0.0000, 1.3327, 0.0471, -0.6611, 0.0000, 0.0000, -0.0040
5.0600, 0.0000, 0.0000, 0.0000, 0.0000, 0.0000, 0.0000, 0.0476, 0.1033, -0.2091, 0.0068, -0.0023, 0.0064, 374, 893745, 0.0000, 0.0000, -0.0017, 0.0000, 1.3327, 0.0471, -0.6611, 0.0000, 0.0000, -0.0078
5.0800, 0.0000, 0.0000, 0.0000, 0.0000, 0.0000, 0.0000, 0.0483, 0.1035, -0.2086, 0.0071, -0.0016, 0.0061, 375, 893745, 0.0000, 0.0000, -0.0032, 0.0000, 1.3326, 0.0471, -0.6612, 0.0000, 0.0000, -0.0120
5.1000, 0.0000, 0.0000, 0.0000, 0.0000, 0.0000, 0.0000, 0.0488, 0.1036, -0.2081, 0.0070, -0.0007, 0.0072, 376, 893745, 0.0000, 0.0000, -0.0051, 0.0000, 1.3327, 0.0471, -0.6612, 0.0000, 0.0000, -0.0160
5.1200, 0.0000, 0.0000, 0.0000, 0.0000, 0.0000, 0.0000, 0.0494, 0.1036, -0.2076, 0.0075, -0.0005, 0.0071, 377, 893745, 0.0000, 0.0000, -0.0074, 0.0000, 1.3327, 0.0471, -0.6611, 0.0000, 0.0000, -0.0200
5.1400, 0.0000, 0.0000, 0.0000, 0.0000, 0.0000, 0.0000, 0.0499, 0.1038, -0.2072, 0.0077, 0.0002, 0.0083, 378, 893745, 0.0000, 0.0000, -0.0099, 0.0000, 1.3326, 0.0471, -0.6612, 0.0000, 0.0000, -0.0240
5.1600, 0.0000, 0.0000, 0.0000, 0.0000, 0.0000, 0.0000, 0.0504, 0.1037, -0.2069, 0.0083, 0.0011, 0.0082, 379, 893745, 0.0000, 0.0000, -0.0126, 0.0000, 1.3326, 0.0471, -0.6612, 0.0000, 0.0000, -0.0280
5.1800, 0.0000, 0.0000, 0.0000, 0.0000, 0.0000, 0.0000, 0.0511, 0.1038, -0.2065, 0.0088, 0.0017, 0.0080, 380, 893745, 0.0000, 0.0000, -0.0155, 0.0000, 1.3326, 0.0471, -0.6611, 0.0000, 0.0000, -0.0320
5.2000, 0.0000, 0.0000, 0.0000, 0.0000, 0.0000, 0.0000, 0.0516, 0.1038, -0.2061, 0.0093, 0.0023, 0.0080, 381, 893745, 0.0000, 0.0000, -0.0186, 0.0000, 1.3327, 0.0471, -0.6611, 0.0000, 0.0000, -0.0360
5.2200, 0.0000, 0.0000, 0.0000, 0.0000, 0.0000, 0.0000, 0.0520, 0.1037, -0.2060, 0.0094, 0.0032, 0.0079, 382, 893745, 0.0000, 0.0000, -0.0218, 0.0000, 1.3326, 0.0471, -0.6612, 0.0000, 0.0000, -0.0400
5.2400, 0.0000, 0.0000, 0.0000, 0.0000, 0.0000, 0.0000, 0.0526, 0.1037, -0.2058, 0.0099, 0.0040, 0.0082, 383, 893745, 0.0000, 0.0000, -0.0251, 0.0000, 1.3327, 0.0471, -0.6611, 0.0000, 0.0000, -0.0440
5.2600, 0.0000, 0.0000, 0.0000, 0.0000, 0.0000, 0.0000, 0.0530, 0.1037, -0.2055, 0.0102, 0.0043, 0.0088, 384, 893745, 0.0000, 0.0000, -0.0286, 0.0000, 1.3326, 0.0471, -0.6611, 0.0000, 0.0000, -0.0480
5.2800, 0.0000, 0.0000, 0.0000, 0.0000, 0.0000, 0.0000, 0.0536, 0.1037, -0.2054, 0.0106, 0.0048, 0.0099, 385, 893745, 0.0000, 0.0000, -0.0321, 0.0000, 1.3327, 0.0471, -0.6612, 0.0000, 0.0000, -0.0520
5.3000, 0.0000, 0.0000, 0.0000, 0.0000, 0.0000, 0.0000, 0.0540, 0.1036, -0.2053, 0.0109, 0.0056, 0.0105, 386, 893745, 0.0000, 0.0000, -0.0357, 0.0000, 1.3328, 0.0471, -0.6612, 0.0000, 0.0000, -0.0560
5.3200, 0.0000, 0.0000, 0.0000, 0.0000, 0.0000, 0.0000, 0.0543, 0.1035, -0.2053, 0.0115, 0.0065, 0.0109, 387, 893745, 0.0000, 0.0000, -0.0393, 0.0000, 1.3327, 0.0470, -0.6611, 0.0000, 0.0000, -0.0600
5.3400, 0.0000, 0.0000, 0.0000, 0.0000, 0.0000, 0.0000, 0.0547, 0.1036, -0.2052, 0.0116, 0.0070, 0.0115, 388, 893745, 0.0000, 0.0000, -0.0430, 0.0000, 1.3326, 0.0472, -0.6612, 0.0000, 0.0000, -0.0640
5.3600, 0.0000, 0.0000, 0.0000, 0.0000, 0.0000, 0.0000, 0.0550, 0.1034, -0.2052, 0.0119, 0.0074, 0.0122, 389, 893745, 0.0000, 0.0000, -0.0468, 0.0000, 1.3326, 0.0471, -0.6612, 0.0000, 0.0000, -0.0680
5.3800, 0.0000, 0.0000, 0.0000, 0.0000, 0.0000, 0.0000, 0.0554, 0.1032, -0.2053, 0.0124, 0.0080, 0.0124, 390, 893745, 0.0000, 0.0000, -0.0505, 0.0000, 1.3327, 0.0470, -0.6611, 0.0000, 0.0000, -0.0720
5.4000, 0.0000, 0.0000, 0.0000, 0.0000, 0.0000, 0.0000, 0.0558, 0.1032, -0.2054, 0.0127, 0.0077, 0.0133, 391, 893745, 0.0000, 0.0000, -0.0544, 0.0000, 1.3327, 0.0470, -0.6611, 0.0000, 0.0000, -0.0760
5.4300, 0.0000, 0.0000, 0.0000, 0.0000, 0.0000, 0.0000, 0.0561, 0.1033, -0.2054, 0.0127, 0.0076, 0.0143, 392, 893745, 0.0000, 0.0000, -0.0582, 0.0000, 1.3327, 0.0471, -0.6611, 0.0000, 0.0000, -0.0800
5.4400, 0.0000, 0.0000, 0.0000, 0.0000, 0.0000, 0.0000, 0.0564, 0.1031, -0.2056, 0.0131, 0.0079, 0.0145, 393, 893745, 0.0000, 0.0000, -0.0624, 0.0000, 1.3326, 0.0471, -0.6612, 0.0000, 0.0000, -0.0860
5.4600, 0.0000, 0.0000, 0.0000, 0.0000, 0.0000, 0.0000, 0.0566, 0.1029, -0.2058, 0.0132, 0.0075, 0.0149, 394, 893745, 0.0000, 0.0000, -0.0662, 0.0000, 1.3327, 0.0470, -0.6612, 0.0000, 0.0000, -0.0880
5.4800, 0.0000, 0.0000, 0.0000, 0.0000, 0.0000, 0.0000, 0.0569, 0.1029, -0.2059, 0.0133, 0.0077, 0.0152, 395, 893745, 0.0000, 0.0000, -0.0701, 0.0000, 1.3327, 0.0471, -0.6611, 0.0000, 0.0000, -0.0920
5.5000, 0.0000, 0.0000, 0.0000, 0.0000, 0.0000, 0.0000, 0.0572, 0.1029, -0.2061, 0.0134, 0.0083, 0.0149, 396, 893745, 0.0000, 0.0000, -0.0740, 0.0000, 1.3327, 0.0471, -0.6612, 0.0000, 0.0000, -0.0960
5.5200, 0.0000, 0.0000, 0.0000, 0.0000, 0.0000, 0.0000, 0.0573, 0.1028, -0.2063, 0.0135, 0.0082, 0.0150, 397, 893745, 0.0000, 0.0000, -0.0779, 0.0000, 1.3327, 0.0471, -0.6612, 0.0000, 0.0000, -0.1000
5.5400, 0.0000, 0.0000, 0.0000, 0.0000, 0.0000, 0.0000, 0.0575, 0.1025, -0.2066, 0.0137, 0.0081, 0.0146, 398, 893745, 0.0000, 0.0000, -0.0818, 0.0000, 1.3327, 0.0471, -0.6611, 0.0000, 0.0000, -0.1040
5.5600, 0.0000, 0.0000, 0.0000, 0.0000, 0.0000, 0.0000, 0.0577, 0.1026, -0.2068, 0.0138, 0.0078, 0.0142, 399, 893745, 0.0000, 0.0000, -0.0857, 0.0000, 1.3327, 0.0471, -0.6612, 0.0000, 0.0000, -0.1080
5.5800, 0.0000, 0.0000, 0.0000, 0.0000, 0.0000, 0.0000, 0.0579, 0.1025, -0.2073, 0.0136, 0.0076, 0.0150, 400, 893745, 0.0000, 0.0000, -0.0897, 0.0000, 1.3327, 0.0471, -0.6611, 0.0000, 0.0000, -0.1120
5.6000, 0.0000, 0.0000, 0.0000, 0.0000, 0.0000, 0.0000, 0.0580, 0.1023, -0.2076, 0.0139, 0.0073, 0.0152, 401, 893745, 0.0000, 0.0000, -0.0936, 0.0000, 1.3327, 0.0471, -0.6611, 0.0000, 0.0000, -0.1160
5.6200, 0.0000, 0.0000, 0.0000, 0.0000, 0.0000, 0.0000, 0.0581, 0.1022, -0.2082, 0.0140, 0.0073, 0.0144, 402, 893745, 0.0000, 0.0000, -0.0976, 0.0000, 1.3327, 0.0471, -0.6611, 0.0000, 0.0000, -0.1200
5.6400, 0.0000, 0.0000, 0.0000, 0.0000, 0.0000, 0.0000, 0.0581, 0.1022, -0.2086, 0.0140, 0.0072, 0.0156, 403, 893745, 0.0000, 0.0000, -0.1015, 0.0000, 1.3327, 0.0471, -0.6611, 0.0000, 0.0000, -0.1240
5.6600, 0.0000, 0.0000, 0.0000, 0.0000, 0.0000, 0.0000, 0.0583, 0.1022, -0.2092, 0.0142, 0.0071, 0.0158, 404, 893745, 0.0000, 0.0000, -0.1055, 0.0000, 1.3326, 0.0471, -0.6612, 0.0000, 0.0000, -0.1280
5.6800, 0.0000, 0.0000, 0.0000, 0.0000, 0.0000, 0.0000, 0.0583, 0.1020, -0.2098, 0.0141, 0.0075, 0.0162, 405, 893745, 0.0000, 0.0000, -0.1095, 0.0000, 1.3327, 0.0470, -0.6611, 0.0000, 0.0000, -0.1320
5.7000, 0.0000, 0.0000, 0.0000, 0.0000, 0.0000, 0.0000, 0.0581, 0.1020, -0.2106, 0.0142, 0.0083, 0.0164, 406, 893745, 0.0000, 0.0000, -0.1135, 0.0000, 1.3327, 0.0471, -0.6612, 0.0000, 0.0000, -0.1360
5.7200, 0.0000, 0.0000, 0.0000, 0.0000, 0.0000, 0.0000, 0.0581, 0.1022, -0.2114, 0.0142, 0.0089, 0.0159, 407, 893745, 0.0000, 0.0000, -0.1174, 0.0000, 1.3327, 0.0472, -0.6611, 0.0000, 0.0000, -0.1400
5.7400, 0.0000, 0.0000, 0.0000, 0.0000, 0.0000, 0.0000, 0.0580, 0.1020, -0.2123, 0.0141, 0.0094, 0.0163, 408, 893745, 0.0000, 0.0000, -0.1214, 0.0000, 1.3327, 0.0470, -0.6612, 0.0000, 0.0000, -0.1440
5.7600, 0.0000, 0.0000, 0.0000, 0.0000, 0.0000, 0.0000, 0.0580, 0.1021, -0.2131, 0.0136, 0.0094, 0.0166, 409, 893745, 0.0000, 0.0000, -0.1254, 0.0000, 1.3327, 0.0471, -0.6611, 0.0000, 0.0000, -0.1480
5.7800, 0.0000, 0.0000, 0.0000, 0.0000, 0.0000, 0.0000, 0.0579, 0.1022, -0.2141, 0.0135, 0.0092, 0.0174, 410, 893745, 0.0000, 0.0000, -0.1294, 0.0000, 1.3327, 0.0471, -0.6611, 0.0000, 0.0000, -0.1520
5.8000, 0.0000, 0.0000, 0.0000, 0.0000, 0.0000, 0.0000, 0.0578, 0.1022, -0.2152, 0.0133, 0.0088, 0.0160, 411, 893745, 0.0000, 0.0000, -0.1334, 0.0000, 1.3327, 0.0471, -0.6612, 0.0000, 0.0000, -0.1560
5.8200, 0.0000, 0.0000, 0.0000, 0.0000, 0.0000, 0.0000, 0.0576, 0.1022, -0.2163, 0.0128, 0.0083, 0.0169, 412, 893745, 0.0000, 0.0000, -0.1374, 0.0000, 1.3327, 0.0471, -0.6612, 0.0000, 0.0000, -0.1600
5.8400, 0.0000, 0.0000, 0.0000, 0.0000, 0.0000, 0.0000, 0.0575, 0.1022, -0.2175, 0.0129, 0.0076, 0.0155, 413, 893745, 0.0000, 0.0000, -0.1414, 0.0000, 1.3327, 0.0471, -0.6611, 0.0000, 0.0000, -0.1640
5.8600, 0.0000, 0.0000, 0.0000, 0.0000, 0.0000, 0.0000, 0.0572, 0.1023, -0.2188, 0.0130, 0.0072, 0.0155, 414, 893745, 0.0000, 0.0000, -0.1454, 0.0000, 1.3327, 0.0471, -0.6612, 0.0000, 0.0000, -0.1680
5.8800, 0.0000, 0.0000, 0.0000, 0.0000, 0.0000, 0.0000, 0.0570, 0.1024, -0.2200, 0.0126, 0.0063, 0.0151, 415, 893745, 0.0000, 0.0000, -0.1494, 0.0000, 1.3326, 0.0471, -0.6611, 0.0000, 0.0000, -0.1720
5.9000, 0.0000, 0.0000, 0.0000, 0.0000, 0.0000, 0.0000, 0.0568, 0.1024, -0.2215, 0.0123, 0.0063, 0.0146, 416, 893745, 0.0000, 0.0000, -0.1534, 0.0000, 1.3327, 0.0471, -0.6611, 0.0000, 0.0000, -0.1760
5.9300, 0.0000, 0.0000, 0.0000, 0.0000, 0.0000, 0.0000, 0.0567, 0.1026, -0.2228, 0.0120, 0.0064, 0.0160, 417, 893745, 0.0000, 0.0000, -0.1574, 0.0000, 1.3327, 0.0471, -0.6611, 0.0000, 0.0000, -0.1800
5.9400, 0.0000, 0.0000, 0.0000, 0.0000, 0.0000, 0.0000, 0.0564, 0.1026, -0.2244, 0.0119, 0.0062, 0.0160, 418, 893745, 0.0000, 0.0000, -0.1617, 0.0000, 1.3327, 0.0471, -0.6611, 0.0000, 0.0000, -0.1860
