time (s), accel_x (m/s^2), accel_y (m/s^2), accel_z (m/s^2), gyro_x (rad/s), gyro_y (rad/s), gyro_z (rad/s), x (m), y (m), z (m), yaw (rad), pitch (rad), roll (rad), mocap_counter, counter, desired x, desired y, desired z, desired yaw
0.0000, 0.0000, 0.0000, 0.0000, 0.0000, 0.0000, 0.0000, 0.0451, -0.0026, -0.0843, 0.0000, 0.0011, 0.0014, 188, 46042, -0.0016, -0.0000, 0.0010, 0.0000, 1.0601, 0.0135, -0.6586, 0.0000, 0.0000, 0.0000
0.0210, 0.0000, 0.0000, 0.0000, 0.0000, 0.0000, 0.0000, 0.0449, -0.0024, -0.0841, -0.0000, 0.0010, 0.0015, 189, 46042, -0.0013, -0.0000, 0.0008, 0.0000, 1.0602, 0.0136, -0.6586, 0.0000, 0.0000, 0.0000
0.0410, 0.0000, 0.0000, 0.0000, 0.0000, 0.0000, 0.0000, 0.0449, -0.0024, -0.0843, 0.0003, 0.0009, 0.0014, 190, 46042, -0.0015, -0.0000, 0.0009, 0.0000, 1.0601, 0.0137, -0.6587, 0.0000, 0.0000, 0.0000
0.0610, 0.0000, 0.0000, 0.0000, 0.0000, 0.0000, 0.0000, 0.0450, -0.0025, -0.0842, -0.0000, 0.0014, 0.0017, 191, 46042, -0.0014, -0.0000, 0.0009, 0.0000, 1.0601, 0.0136, -0.6586, 0.0000, 0.0000, 0.0000
0.0810, 0.0000, 0.0000, 0.0000, 0.0000, 0.0000, 0.0000, 0.0450, -0.0026, -0.0842, 0.0002, 0.0011, 0.0010, 192, 46042, -0.0014, -0.0000, 0.0009, 0.0000, 1.0602, 0.0135, -0.6586, 0.0000, 0.0000, 0.0000
0.1010, 0.0000, 0.0000, 0.0000, 0.0000, 0.0000, 0.0000, 0.0449, -0.0025, -0.0843, 0.0001, 0.0010, 0.0015, 193, 46042, -0.0015, -0.0000, 0.0009, 0.0000, 1.0601, 0.0136, -0.6586, 0.0000, 0.0000, 0.0000
0.1210, 0.0000, 0.0000, 0.0000, 0.0000, 0.0000, 0.0000, 0.0451, -0.0025, -0.0842, -0.0001, 0.0008, 0.0012, 194, 46042, -0.0013, -0.0000, 0.0008, 0.0000, 1.0602, 0.0137, -0.6586, 0.0000, 0.0000, 0.0000
0.1410, 0.0000, 0.0000, 0.0000, 0.0000, 0.0000, 0.0000, 0.0452, -0.0027, -0.0843, -0.0001, 0.0006, 0.0012, 195, 46042, -0.0015, -0.0000, 0.0010, 0.0000, 1.0601, 0.0136, -0.6586, 0.0000, 0.0000, 0.0000
0.1610, 0.0000, 0.0000, 0.0000, 0.0000, 0.0000, 0.0000, 0.0451, -0.0026, -0.0842, -0.0002, 0.0009, 0.0012, 196, 46042, -0.0014, -0.0000, 0.0009, 0.0000, 1.0602, 0.0136, -0.6586, 0.0000, 0.0000, 0.0000
0.1810, 0.0000, 0.0000, 0.0000, 0.0000, 0.0000, 0.0000, 0.0452, -0.0026, -0.0842, -0.0001, 0.0009, 0.0013, 197, 46042, -0.0014, -0.0000, 0.0009, 0.0000, 1.0602, 0.0136, -0.6586, 0.0000, 0.0000, 0.0000
0.2010, 0.0000, 0.0000, 0.0000, 0.0000, 0.0000, 0.0000, 0.0449, -0.0024, -0.0843, 0.0003, 0.0008, 0.0010, 198, 46042, -0.0015, -0.0000, 0.0009, 0.0000, 1.0601, 0.0136, -0.6586, 0.0000, 0.0000, 0.0000
0.2210, 0.0000, 0.0000, 0.0000, 0.0000, 0.0000, 0.0000, 0.0450, -0.0025, -0.0842, -0.0001, 0.0013, 0.0016, 199, 46042, -0.0014, -0.0000, 0.0009, 0.0000, 1.0602, 0.0136, -0.6586, 0.0000, 0.0000, 0.0000
0.2410, 0.0000, 0.0000, 0.0000, 0.0000, 0.0000, 0.0000, 0.0450, -0.0026, -0.0842, 0.0000, 0.0009, 0.0011, 200, 46042, -0.0015, -0.0000, 0.0009, 0.0000, 1.0601, 0.0136, -0.6586, 0.0000, 0.0000, 0.0000
0.2610, 0.0000, 0.0000, 0.0000, 0.0000, 0.0000, 0.0000, 0.0450, -0.0025, -0.0843, 0.0001, 0.0010, 0.0012, 201, 46042, -0.0014, -0.0000, 0.0009, 0.0000, 1.0602, 0.0137, -0.6586, 0.0000, 0.0000, 0.0000
0.2810, 0.0000, 0.0000, 0.0000, 0.0000, 0.0000, 0.0000, 0.0450, -0.0025, -0.0842, 0.0000, 0.0012, 0.0015, 202, 46042, -0.0015, -0.0000, 0.0009, 0.0000, 1.0601, 0.0136, -0.6586, 0.0000, 0.0000, 0.0000
0.3010, 0.0000, 0.0000, 0.0000, 0.0000, 0.0000, 0.0000, 0.0450, -0.0026, -0.0842, 0.0001, 0.0007, 0.0006, 203, 46042, -0.0015, -0.0000, 0.0009, 0.0000, 1.0601, 0.0135, -0.6586, 0.0000, 0.0000, 0.0000
0.3210, 0.0000, 0.0000, 0.0000, 0.0000, 0.0000, 0.0000, 0.0452, -0.0026, -0.0842, 0.0001, 0.0009, 0.0018, 204, 46042, -0.0014, -0.0000, 0.0008, 0.0000, 1.0602, 0.0137, -0.6586, 0.0000, 0.0000, 0.0000
0.3410, 0.0000, 0.0000, 0.0000, 0.0000, 0.0000, 0.0000, 0.0450, -0.0026, -0.0842, -0.0001, 0.0008, 0.0011, 205, 46042, -0.0015, -0.0000, 0.0009, 0.0000, 1.0602, 0.0137, -0.6586, 0.0000, 0.0000, 0.0000
0.3610, 0.0000, 0.0000, 0.0000, 0.0000, 0.0000, 0.0000, 0.0449, -0.0025, -0.0843, 0.0001, 0.0012, 0.0014, 206, 46042, -0.0014, -0.0000, 0.0009, 0.0000, 1.0601, 0.0136, -0.6586, 0.0000, 0.0000, 0.0000
0.3810, 0.0000, 0.0000, 0.0000, 0.0000, 0.0000, 0.0000, 0.0449, -0.0024, -0.0841, 0.0001, 0.0012, 0.0014, 207, 46042, -0.0015, -0.0000, 0.0009, 0.0000, 1.0601, 0.0136, -0.6586, 0.0000, 0.0000, 0.0000
0.4000, 0.0000, 0.0000, 0.0000, 0.0000, 0.0000, 0.0000, 0.0449, -0.0025, -0.0842, 0.0000, 0.0012, 0.0010, 208, 46042, -0.0015, -0.0000, 0.0009, 0.0000, 1.0601, 0.0136, -0.6586, 0.0000, 0.0000, 0.0000
0.4210, 0.0000, 0.0000, 0.0000, 0.0000, 0.0000, 0.0000, 0.0450, -0.0025, -0.0843, 0.0003, 0.0012, 0.0011, 209, 46042, -0.0014, -0.0000, 0.0009, 0.0000, 1.0601, 0.0137, -0.6587, 0.0000, 0.0000, 0.0000
0.4410, 0.0000, 0.0000, 0.0000, 0.0000, 0.0000, 0.0000, 0.0449, -0.0026, -0.0842, 0.0000, 0.0013, 0.0014, 210, 46042, -0.0015, -0.0000, 0.0009, 0.0000, 1.0601, 0.0136, -0.6586, 0.0000, 0.0000, 0.0000
0.4610, 0.0000, 0.0000, 0.0000, 0.0000, 0.0000, 0.0000, 0.0450, -0.0025, -0.0843, 0.0001, 0.0011, 0.0011, 211, 46042, -0.0014, -0.0000, 0.0009, 0.0000, 1.0602, 0.0136, -0.6586, 0.0000, 0.0000, 0.0000
0.4810, 0.0000, 0.0000, 0.0000, 0.0000, 0.0000, 0.0000, 0.0450, -0.0025, -0.0841, 0.0000, 0.0010, 0.0015, 212, 46042, -0.0015, -0.0000, 0.0009, 0.0000, 1.0601, 0.0137, -0.6586, 0.0000, 0.0000, 0.0000
0.5000, 0.0000, 0.0000, 0.0000, 0.0000, 0.0000, 0.0000, 0.0451, -0.0026, -0.0843, -0.0001, 0.0008, 0.0014, 213, 46042, -0.0014, -0.0000, 0.0009, 0.0000, 1.0601, 0.0136, -0.6586, 0.0000, 0.0000, 0.0000
0.5210, 0.0000, 0.0000, 0.0000, 0.0000, 0.0000, 0.0000, 0.0452, -0.0026, -0.0843, -0.0001, 0.0009, 0.0011, 214, 46042, -0.0015, -0.0000, 0.0009, 0.0000, 1.0601, 0.0136, -0.6586, 0.0000, 0.0000, 0.0000
0.5410, 0.0000, 0.0000, 0.0000, 0.0000, 0.0000, 0.0000, 0.0452, -0.0026, -0.0842, 0.0002, 0.0007, 0.0010, 215, 46042, -0.0014, -0.0000, 0.0009, 0.0000, 1.0602, 0.0136, -0.6586, 0.0000, 0.0000, 0.0000
0.5610, 0.0000, 0.0000, 0.0000, 0.0000, 0.0000, 0.0000, 0.0451, -0.0026, -0.0843, 0.0000, 0.0012, 0.0017, 216, 46042, -0.0014, -0.0000, 0.0009, 0.0000, 1.0602, 0.0136, -0.6587, 0.0000, 0.0000, 0.0000
0.5810, 0.0000, 0.0000, 0.0000, 0.0000, 0.0000, 0.0000, 0.0449, -0.0025, -0.0842, 0.0000, 0.0012, 0.0014, 217, 46042, -0.0015, -0.0000, 0.0010, 0.0000, 1.0601, 0.0136, -0.6586, 0.0000, 0.0000, 0.0000
0.6000, 0.0000, 0.0000, 0.0000, 0.0000, 0.0000, 0.0000, 0.0449, -0.0025, -0.0843, 0.0001, 0.0010, 0.0012, 218, 46042, -0.0014, -0.0000, 0.0009, 0.0000, 1.0601, 0.0136, -0.6586, 0.0000, 0.0000, 0.0000
0.6210, 0.0000, 0.0000, 0.0000, 0.0000, 0.0000, 0.0000, 0.0449, -0.0025, -0.0842, 0.0001, 0.0009, 0.0013, 219, 46042, -0.0015, -0.0000, 0.0009, 0.0000, 1.0602, 0.0136, -0.6586, 0.0000, 0.0000, 0.0000
0.6410, 0.0000, 0.0000, 0.0000, 0.0000, 0.0000, 0.0000, 0.0450, -0.0025, -0.0841, 0.0001, 0.0007, 0.0011, 220, 46042, -0.0014, -0.0000, 0.0008, 0.0000, 1.0602, 0.0136, -0.6586, 0.0000, 0.0000, 0.0000
0.6610, 0.0000, 0.0000, 0.0000, 0.0000, 0.0000, 0.0000, 0.0450, -0.0025, -0.0842, 0.0002, 0.0006, 0.0012, 221, 46042, -0.0015, -0.0000, 0.0009, 0.0000, 1.0601, 0.0136, -0.6586, 0.0000, 0.0000, 0.0000
0.6810, 0.0000, 0.0000, 0.0000, 0.0000, 0.0000, 0.0000, 0.0450, -0.0026, -0.0842, -0.0002, 0.0010, 0.0011, 222, 46042, -0.0014, -0.0000, 0.0009, 0.0000, 1.0602, 0.0137, -0.6586, 0.0000, 0.0000, 0.0000
0.7010, 0.0000, 0.0000, 0.0000, 0.0000, 0.0000, 0.0000, 0.0452, -0.0026, -0.0842, 0.0000, 0.0005, 0.0014, 223, 46042, -0.0014, -0.0000, 0.0009, 0.0000, 1.0602, 0.0136, -0.6586, 0.0000, 0.0000, 0.0000
0.7210, 0.0000, 0.0000, 0.0000, 0.0000, 0.0000, 0.0000, 0.0450, -0.0025, -0.0843, 0.0001, 0.0006, 0.0012, 224, 46042, -0.0015, -0.0000, 0.0009, 0.0000, 1.0601, 0.0136, -0.6586, 0.0000, 0.0000, 0.0000
0.7410, 0.0000, 0.0000, 0.0000, 0.0000, 0.0000, 0.0000, 0.0451, -0.0026, -0.0841, -0.0001, 0.0009, 0.0013, 225, 46042, -0.0013, -0.0000, 0.0008, 0.0000, 1.0602, 0.0136, -0.6586, 0.0000, 0.0000, 0.0000
0.7610, 0.0000, 0.0000, 0.0000, 0.0000, 0.0000, 0.0000, 0.0449, -0.0025, -0.0842, 0.0001, 0.0008, 0.0006, 226, 46042, -0.0015, -0.0000, 0.0009, 0.0000, 1.0601, 0.0136, -0.6586, 0.0000, 0.0000, 0.0000
0.7810, 0.0000, 0.0000, 0.0000, 0.0000, 0.0000, 0.0000, 0.0449, -0.0024, -0.0843, 0.0002, 0.0009, 0.0012, 227, 46042, -0.0014, -0.0000, 0.0009, 0.0000, 1.0601, 0.0137, -0.6586, 0.0000, 0.0000, 0.0000
0.8000, 0.0000, 0.0000, 0.0000, 0.0000, 0.0000, 0.0000, 0.0450, -0.0025, -0.0842, -0.0001, 0.0009, 0.0013, 228, 46042, -0.0015, -0.0000, 0.0009, 0.0000, 1.0601, 0.0136, -0.6587, 0.0000, 0.0000, 0.0000
0.8210, 0.0000, 0.0000, 0.0000, 0.0000, 0.0000, 0.0000, 0.0449, -0.0024, -0.0843, -0.0001, 0.0010, 0.0012, 229, 46042, -0.0015, -0.0000, 0.0009, 0.0000, 1.0601, 0.0135, -0.6586, 0.0000, 0.0000, 0.0000
0.8410, 0.0000, 0.0000, 0.0000, 0.0000, 0.0000, 0.0000, 0.0452, -0.0024, -0.0846, -0.0002, 0.0006, 0.0011, 230, 46042, -0.0014, -0.0000, 0.0009, 0.0000, 1.0602, 0.0136, -0.6586, 0.0000, 0.0000, 0.0000
0.8610, 0.0000, 0.0000, 0.0000, 0.0000, 0.0000, 0.0000, 0.0453, -0.0023, -0.0850, -0.0002, -0.0001, 0.0011, 231, 46042, -0.0015, -0.0000, 0.0010, 0.0000, 1.0601, 0.0136, -0.6586, 0.0000, 0.0000, 0.0000
0.8800, 0.0000, 0.0000, 0.0000, 0.0000, 0.0000, 0.0000, 0.0452, -0.0022, -0.0854, -0.0000, -0.0001, 0.0019, 232, 46042, -0.0014, -0.0000, 0.0009, 0.0000, 1.0601, 0.0136, -0.6586, 0.0000, 0.0000, 0.0000
0.9000, 0.0000, 0.0000, 0.0000, 0.0000, 0.0000, 0.0000, 0.0453, -0.0023, -0.0858, 0.0005, -0.0010, 0.0026, 233, 46042, -0.0015, -0.0000, 0.0009, 0.0000, 1.0602, 0.0136, -0.6586, 0.0000, 0.0000, 0.0000
0.9210, 0.0000, 0.0000, 0.0000, 0.0000, 0.0000, 0.0000, 0.0453, -0.0022, -0.0868, 0.0007, -0.0019, 0.0042, 234, 46042, -0.0014, -0.0000, 0.0008, 0.0000, 1.0602, 0.0136, -0.6586, 0.0000, 0.0000, 0.0000
0.9410, 0.0000, 0.0000, 0.0000, 0.0000, 0.0000, 0.0000, 0.0453, -0.0019, -0.0880, 0.0006, -0.0013, 0.0086, 235, 46042, -0.0015, -0.0000, 0.0009, 0.0000, 1.0601, 0.0136, -0.6587, 0.0000, 0.0000, 0.0000
0.9610, 0.0000, 0.0000, 0.0000, 0.0000, 0.0000, 0.0000, 0.0450, -0.0017, -0.0895, 0.0012, 0.0021, 0.0136, 236, 46042, -0.0015, -0.0000, 0.0009, 0.0000, 1.0601, 0.0136, -0.6586, 0.0000, 0.0000, 0.0000
0.9810, 0.0000, 0.0000, 0.0000, 0.0000, 0.0000, 0.0000, 0.0449, -0.0013, -0.0920, 0.0010, 0.0043, 0.0181, 237, 46042, -0.0014, -0.0000, 0.0009, 0.0000, 1.0602, 0.0136, -0.6586, 0.0000, 0.0000, 0.0000
1.0000, 0.0000, 0.0000, 0.0000, 0.0000, 0.0000, 0.0000, 0.0447, -0.0011, -0.0948, 0.0014, 0.0047, 0.0213, 238, 46042, -0.0014, -0.0000, 0.0009, 0.0000, 1.0602, 0.0137, -0.6586, 0.0000, 0.0000, 0.0000
1.0210, 0.0000, 0.0000, 0.0000, 0.0000, 0.0000, 0.0000, 0.0445, -0.0009, -0.0982, 0.0015, 0.0064, 0.0238, 239, 46042, -0.0015, -0.0000, 0.0009, 0.0000, 1.0601, 0.0136, -0.6586, 0.0000, 0.0000, 0.0000
1.0410, 0.0000, 0.0000, 0.0000, 0.0000, 0.0000, 0.0000, 0.0442, -0.0007, -0.1020, 0.0018, 0.0074, 0.0260, 240, 46042, -0.0014, -0.0000, 0.0009, 0.0000, 1.0601, 0.0136, -0.6586, 0.0000, 0.0000, 0.0000
1.0610, 0.0000, 0.0000, 0.0000, 0.0000, 0.0000, 0.0000, 0.0439, -0.0003, -0.1059, 0.0013, 0.0088, 0.0278, 241, 46042, -0.0015, -0.0000, 0.0010, 0.0000, 1.0601, 0.0136, -0.6585, 0.0000, 0.0000, 0.0000
1.0810, 0.0000, 0.0000, 0.0000, 0.0000, 0.0000, 0.0000, 0.0434, -0.0000, -0.1104, 0.0018, 0.0101, 0.0286, 242, 46042, -0.0013, -0.0000, 0.0008, 0.0000, 1.0601, 0.0136, -0.6587, 0.0000, 0.0000, 0.0000
1.1000, 0.0000, 0.0000, 0.0000, 0.0000, 0.0000, 0.0000, 0.0430, 0.0004, -0.1151, 0.0018, 0.0118, 0.0284, 243, 46042, -0.0015, -0.0000, 0.0010, 0.0000, 1.0601, 0.0136, -0.6586, 0.0000, 0.0000, 0.0000
1.1210, 0.0000, 0.0000, 0.0000, 0.0000, 0.0000, 0.0000, 0.0425, 0.0007, -0.1200, 0.0016, 0.0128, 0.0279, 244, 46042, -0.0014, -0.0000, 0.0008, 0.0000, 1.0602, 0.0135, -0.6586, 0.0000, 0.0000, 0.0000
1.1410, 0.0000, 0.0000, 0.0000, 0.0000, 0.0000, 0.0000, 0.0418, 0.0014, -0.1249, 0.0018, 0.0135, 0.0292, 245, 46042, -0.0015, -0.0000, 0.0009, 0.0000, 1.0601, 0.0136, -0.6586, 0.0000, 0.0000, 0.0000
1.1610, 0.0000, 0.0000, 0.0000, 0.0000, 0.0000, 0.0000, 0.0413, 0.0020, -0.1300, 0.0017, 0.0128, 0.0294, 246, 46042, -0.0014, -0.0000, 0.0009, 0.0000, 1.0602, 0.0137, -0.6586, 0.0000, 0.0000, 0.0000
1.1810, 0.0000, 0.0000, 0.0000, 0.0000, 0.0000, 0.0000, 0.0405, 0.0027, -0.1352, 0.0015, 0.0131, 0.0295, 247, 46042, -0.0015, -0.0000, 0.0009, 0.0000, 1.0601, 0.0135, -0.6586, 0.0000, 0.0000, 0.0000
1.2000, 0.0000, 0.0000, 0.0000, 0.0000, 0.0000, 0.0000, 0.0396, 0.0037, -0.1406, 0.0014, 0.0132, 0.0293, 248, 46042, -0.0014, -0.0000, 0.0009, 0.0000, 1.0602, 0.0136, -0.6586, 0.0000, 0.0000, 0.0000
1.2210, 0.0000, 0.0000, 0.0000, 0.0000, 0.0000, 0.0000, 0.0386, 0.0046, -0.1460, 0.0014, 0.0130, 0.0281, 249, 46042, -0.0014, -0.0000, 0.0009, 0.0000, 1.0601, 0.0137, -0.6588, 0.0000, 0.0000, 0.0000
1.2410, 0.0000, 0.0000, 0.0000, 0.0000, 0.0000, 0.0000, 0.0374, 0.0056, -0.1514, 0.0014, 0.0134, 0.0293, 250, 46042, -0.0015, -0.0000, 0.0009, 0.0000, 1.0601, 0.0136, -0.6587, 0.0000, 0.0000, 0.0000
1.2610, 0.0000, 0.0000, 0.0000, 0.0000, 0.0000, 0.0000, 0.0361, 0.0067, -0.1566, 0.0013, 0.0130, 0.0287, 251, 46042, -0.0014, -0.0000, 0.0009, 0.0000, 1.0601, 0.0136, -0.6586, 0.0000, 0.0000, 0.0000
1.2810, 0.0000, 0.0000, 0.0000, 0.0000, 0.0000, 0.0000, 0.0347, 0.0079, -0.1619, 0.0011, 0.0126, 0.0285, 252, 46042, -0.0015, -0.0000, 0.0009, 0.0000, 1.0601, 0.0136, -0.6587, 0.0000, 0.0000, 0.0000
1.3000, 0.0000, 0.0000, 0.0000, 0.0000, 0.0000, 0.0000, 0.0333, 0.0091, -0.1670, 0.0010, 0.0119, 0.0279, 253, 46042, -0.0014, -0.0000, 0.0009, 0.0000, 1.0601, 0.0136, -0.6586, 0.0000, 0.0000, 0.0000
1.3210, 0.0000, 0.0000, 0.0000, 0.0000, 0.0000, 0.0000, 0.0318, 0.0103, -0.1720, 0.0011, 0.0107, 0.0268, 254, 46042, -0.0014, -0.0000, 0.0009, 0.0000, 1.0602, 0.0136, -0.6586, 0.0000, 0.0000, 0.0000
1.3400, 0.0000, 0.0000, 0.0000, 0.0000, 0.0000, 0.0000, 0.0302, 0.0117, -0.1767, 0.0008, 0.0088, 0.0254, 255, 46042, -0.0015, -0.0000, 0.0009, 0.0000, 1.0601, 0.0136, -0.6586, 0.0000, 0.0000, 0.0000
1.3600, 0.0000, 0.0000, 0.0000, 0.0000, 0.0000, 0.0000, 0.0287, 0.0132, -0.1812, 0.0008, 0.0074, 0.0248, 256, 46042, -0.0014, -0.0000, 0.0008, 0.0000, 1.0602, 0.0137, -0.6586, 0.0000, 0.0000, 0.0000
1.3810, 0.0000, 0.0000, 0.0000, 0.0000, 0.0000, 0.0000, 0.0271, 0.0148, -0.1856, 0.0007, 0.0052, 0.0237, 257, 46042, -0.0015, -0.0000, 0.0010, 0.0000, 1.0601, 0.0136, -0.6586, 0.0000, 0.0000, 0.0000
1.4000, 0.0000, 0.0000, 0.0000, 0.0000, 0.0000, 0.0000, 0.0254, 0.0164, -0.1896, 0.0007, 0.0030, 0.0221, 258, 46042, -0.0014, -0.0000, 0.0009, 0.0000, 1.0601, 0.0136, -0.6585, 0.0000, 0.0000, 0.0000
1.4210, 0.0000, 0.0000, 0.0000, 0.0000, 0.0000, 0.0000, 0.0238, 0.0181, -0.1932, 0.0009, 0.0004, 0.0209, 259, 46042, -0.0014, -0.0000, 0.0009, 0.0000, 1.0602, 0.0136, -0.6586, 0.0000, 0.0000, 0.0000
1.4410, 0.0000, 0.0000, 0.0000, 0.0000, 0.0000, 0.0000, 0.0221, 0.0198, -0.1968, 0.0010, -0.0023, 0.0193, 260, 46042, -0.0015, -0.0000, 0.0010, 0.0000, 1.0601, 0.0136, -0.6586, 0.0000, 0.0000, 0.0000
1.4610, 0.0000, 0.0000, 0.0000, 0.0000, 0.0000, 0.0000, 0.0203, 0.0216, -0.2001, 0.0005, -0.0036, 0.0200, 261, 46042, -0.0014, -0.0000, 0.0009, 0.0000, 1.0601, 0.0136, -0.6586, 0.0000, 0.0000, 0.0000
1.4810, 0.0000, 0.0000, 0.0000, 0.0000, 0.0000, 0.0000, 0.0185, 0.0233, -0.2030, 0.0001, -0.0052, 0.0192, 262, 46042, -0.0015, -0.0000, 0.0009, 0.0000, 1.0602, 0.0135, -0.6586, 0.0000, 0.0000, 0.0000
1.5000, 0.0000, 0.0000, 0.0000, 0.0000, 0.0000, 0.0000, 0.0167, 0.0255, -0.2058, 0.0002, -0.0067, 0.0187, 263, 46042, -0.0014, -0.0000, 0.0008, 0.0000, 1.0602, 0.0137, -0.6587, 0.0000, 0.0000, 0.0000
1.5210, 0.0000, 0.0000, 0.0000, 0.0000, 0.0000, 0.0000, 0.0149, 0.0273, -0.2084, -0.0002, -0.0083, 0.0183, 264, 46042, -0.0015, -0.0000, 0.0009, 0.0000, 1.0601, 0.0137, -0.6586, 0.0000, 0.0000, 0.0000
1.5410, 0.0000, 0.0000, 0.0000, 0.0000, 0.0000, 0.0000, 0.0132, 0.0293, -0.2107, -0.0005, -0.0100, 0.0173, 265, 46042, -0.0014, -0.0000, 0.0009, 0.0000, 1.0601, 0.0136, -0.6586, 0.0000, 0.0000, 0.0000
1.5610, 0.0000, 0.0000, 0.0000, 0.0000, 0.0000, 0.0000, 0.0115, 0.0314, -0.2130, -0.0007, -0.0118, 0.0164, 266, 46042, -0.0015, -0.0000, 0.0009, 0.0000, 1.0601, 0.0136, -0.6586, 0.0000, 0.0000, 0.0000
1.5810, 0.0000, 0.0000, 0.0000, 0.0000, 0.0000, 0.0000, 0.0098, 0.0335, -0.2150, -0.0010, -0.0131, 0.0165, 267, 46042, -0.0014, -0.0000, 0.0009, 0.0000, 1.0602, 0.0137, -0.6586, 0.0000, 0.0000, 0.0000
1.6000, 0.0000, 0.0000, 0.0000, 0.0000, 0.0000, 0.0000, 0.0081, 0.0355, -0.2172, -0.0009, -0.0146, 0.0149, 268, 46042, -0.0015, -0.0000, 0.0009, 0.0000, 1.0602, 0.0136, -0.6586, 0.0000, 0.0000, 0.0000
1.6200, 0.0000, 0.0000, 0.0000, 0.0000, 0.0000, 0.0000, 0.0064, 0.0375, -0.2192, -0.0013, -0.0156, 0.0129, 269, 46042, -0.0014, -0.0000, 0.0009, 0.0000, 1.0601, 0.0136, -0.6586, 0.0000, 0.0000, 0.0000
1.6410, 0.0000, 0.0000, 0.0000, 0.0000, 0.0000, 0.0000, 0.0047, 0.0397, -0.2210, -0.0013, -0.0167, 0.0115, 270, 46042, -0.0014, -0.0000, 0.0009, 0.0000, 1.0602, 0.0136, -0.6586, 0.0000, 0.0000, 0.0000
1.6610, 0.0000, 0.0000, 0.0000, 0.0000, 0.0000, 0.0000, 0.0031, 0.0416, -0.2229, -0.0014, -0.0178, 0.0093, 271, 46042, -0.0014, -0.0000, 0.0009, 0.0000, 1.0602, 0.0136, -0.6587, 0.0000, 0.0000, 0.0000
1.6810, 0.0000, 0.0000, 0.0000, 0.0000, 0.0000, 0.0000, 0.0016, 0.0437, -0.2248, -0.0013, -0.0188, 0.0075, 272, 46042, -0.0015, -0.0000, 0.0009, 0.0000, 1.0601, 0.0136, -0.6586, 0.0000, 0.0000, 0.0000
1.7000, 0.0000, 0.0000, 0.0000, 0.0000, 0.0000, 0.0000, -0.0000, 0.0456, -0.2267, -0.0017, -0.0200, 0.0051, 273, 46042, -0.0013, -0.0000, 0.0008, 0.0000, 1.0602, 0.0136, -0.6586, 0.0000, 0.0000, 0.0000
1.7210, 0.0000, 0.0000, 0.0000, 0.0000, 0.0000, 0.0000, -0.0016, 0.0477, -0.2284, -0.0024, -0.0208, 0.0029, 274, 46042, -0.0016, -0.0000, 0.0010, 0.0000, 1.0601, 0.0136, -0.6585, 0.0000, 0.0000, 0.0000
1.7410, 0.0000, 0.0000, 0.0000, 0.0000, 0.0000, 0.0000, -0.0030, 0.0496, -0.2303, -0.0023, -0.0216, 0.0016, 275, 46042, -0.0013, -0.0000, 0.0008, 0.0000, 1.0602, 0.0136, -0.6587, 0.0000, 0.0000, 0.0000
1.7610, 0.0000, 0.0000, 0.0000, 0.0000, 0.0000, 0.0000, -0.0043, 0.0515, -0.2321, -0.0025, -0.0223, 0.0005, 276, 46042, -0.0015, -0.0000, 0.0009, 0.0000, 1.0601, 0.0136, -0.6587, 0.0000, 0.0000, 0.0000
1.7810, 0.0000, 0.0000, 0.0000, 0.0000, 0.0000, 0.0000, -0.0056, 0.0535, -0.2336, -0.0033, -0.0230, -0.0008, 277, 46042, -0.0014, -0.0000, 0.0009, 0.0000, 1.0602, 0.0136, -0.6585, 0.0000, 0.0000, 0.0000
1.8000, 0.0000, 0.0000, 0.0000, 0.0000, 0.0000, 0.0000, -0.0069, 0.0553, -0.2354, -0.0032, -0.0239, -0.0013, 278, 46042, -0.0014, -0.0000, 0.0009, 0.0000, 1.0602, 0.0136, -0.6586, 0.0000, 0.0000, 0.0000
1.8210, 0.0000, 0.0000, 0.0000, 0.0000, 0.0000, 0.0000, -0.0081, 0.0571, -0.2369, -0.0034, -0.0247, -0.0030, 279, 46042, -0.0015, -0.0000, 0.0010, 0.0000, 1.0601, 0.0136, -0.6586, 0.0000, 0.0000, 0.0000
1.8410, 0.0000, 0.0000, 0.0000, 0.0000, 0.0000, 0.0000, -0.0092, 0.0587, -0.2384, -0.0041, -0.0254, -0.0046, 280, 46042, -0.0013, -0.0000, 0.0008, 0.0000, 1.0602, 0.0135, -0.6586, 0.0000, 0.0000, 0.0000
1.8610, 0.0000, 0.0000, 0.0000, 0.0000, 0.0000, 0.0000, -0.0102, 0.0603, -0.2397, -0.0042, -0.0261, -0.0065, 281, 46042, -0.0015, -0.0000, 0.0010, 0.0000, 1.0601, 0.0136, -0.6586, 0.0000, 0.0000, 0.0000
1.8810, 0.0000, 0.0000, 0.0000, 0.0000, 0.0000, 0.0000, -0.0111, 0.0621, -0.2411, -0.0047, -0.0261, -0.0074, 282, 46042, -0.0013, -0.0000, 0.0008, 0.0000, 1.0602, 0.0137, -0.6586, 0.0000, 0.0000, 0.0000
1.9000, 0.0000, 0.0000, 0.0000, 0.0000, 0.0000, 0.0000, -0.0119, 0.0635, -0.2423, -0.0052, -0.0263, -0.0079, 283, 46042, -0.0015, -0.0000, 0.0009, 0.0000, 1.0602, 0.0136, -0.6587, 0.0000, 0.0000, 0.0000
1.9210, 0.0000, 0.0000, 0.0000, 0.0000, 0.0000, 0.0000, -0.0128, 0.0649, -0.2434, -0.0050, -0.0259, -0.0091, 284, 46042, -0.0015, -0.0000, 0.0009, 0.0000, 1.0601, 0.0136, -0.6585, 0.0000, 0.0000, 0.0000
1.9410, 0.0000, 0.0000, 0.0000, 0.0000, 0.0000, 0.0000, -0.0134, 0.0662, -0.2445, -0.0056, -0.0259, -0.0089, 285, 46042, -0.0014, -0.0000, 0.0008, 0.0000, 1.0602, 0.0137, -0.6586, 0.0000, 0.0000, 0.0000
1.9610, 0.0000, 0.0000, 0.0000, 0.0000, 0.0000, 0.0000, -0.0140, 0.0676, -0.2455, -0.0059, -0.0259, -0.0095, 286, 46042, -0.0015, -0.0000, 0.0009, 0.0000, 1.0601, 0.0136, -0.6586, 0.0000, 0.0000, 0.0000
1.9810, 0.0000, 0.0000, 0.0000, 0.0000, 0.0000, 0.0000, -0.0146, 0.0687, -0.2465, -0.0062, -0.0256, -0.0094, 287, 46042, -0.0013, -0.0000, 0.0008, 0.0000, 1.0602, 0.0136, -0.6586, 0.0000, 0.0000, 0.0000
2.0010, 0.0000, 0.0000, 0.0000, 0.0000, 0.0000, 0.0000, -0.0151, 0.0698, -0.2474, -0.0067, -0.0255, -0.0090, 288, 46042, -0.0015, -0.0000, 0.0010, 0.0000, 1.0601, 0.0136, -0.6586, 0.0000, 0.0000, 0.0000
2.0210, 0.0000, 0.0000, 0.0000, 0.0000, 0.0000, 0.0000, -0.0155, 0.0710, -0.2482, -0.0070, -0.0251, -0.0089, 289, 46042, -0.0014, -0.0000, 0.0009, 0.0000, 1.0601, 0.0136, -0.6585, 0.0000, 0.0000, 0.0000
2.0410, 0.0000, 0.0000, 0.0000, 0.0000, 0.0000, 0.0000, -0.0158, 0.0719, -0.2491, -0.0072, -0.0242, -0.0082, 290, 46042, -0.0014, -0.0000, 0.0009, 0.0000, 1.0602, 0.0136, -0.6586, 0.0000, 0.0000, 0.0000
2.0610, 0.0000, 0.0000, 0.0000, 0.0000, 0.0000, 0.0000, -0.0161, 0.0728, -0.2499, -0.0075, -0.0236, -0.0082, 291, 46042, -0.0015, -0.0000, 0.0009, 0.0000, 1.0601, 0.0136, -0.6586, 0.0000, 0.0000, 0.0000
2.0810, 0.0000, 0.0000, 0.0000, 0.0000, 0.0000, 0.0000, -0.0163, 0.0736, -0.2505, -0.0079, -0.0233, -0.0087, 292, 46042, -0.0013, -0.0000, 0.0008, 0.0000, 1.0602, 0.0136, -0.6586, 0.0000, 0.0000, 0.0000
2.1000, 0.0000, 0.0000, 0.0000, 0.0000, 0.0000, 0.0000, -0.0163, 0.0744, -0.2512, -0.0085, -0.0226, -0.0088, 293, 46042, -0.0016, -0.0000, 0.0010, 0.0000, 1.0601, 0.0136, -0.6586, 0.0000, 0.0000, 0.0000
2.1210, 0.0000, 0.0000, 0.0000, 0.0000, 0.0000, 0.0000, -0.0163, 0.0750, -0.2518, -0.0087, -0.0222, -0.0089, 294, 46042, -0.0013, -0.0000, 0.0008, 0.0000, 1.0601, 0.0136, -0.6587, 0.0000, 0.0000, 0.0000
2.1410, 0.0000, 0.0000, 0.0000, 0.0000, 0.0000, 0.0000, -0.0163, 0.0755, -0.2522, -0.0090, -0.0211, -0.0086, 295, 46042, -0.0015, -0.0000, 0.0009, 0.0000, 1.0602, 0.0136, -0.6586, 0.0000, 0.0000, 0.0000
2.1610, 0.0000, 0.0000, 0.0000, 0.0000, 0.0000, 0.0000, -0.0163, 0.0760, -0.2527, -0.0092, -0.0200, -0.0083, 296, 46042, -0.0014, -0.0000, 0.0009, 0.0000, 1.0601, 0.0136, -0.6586, 0.0000, 0.0000, 0.0000
2.1810, 0.0000, 0.0000, 0.0000, 0.0000, 0.0000, 0.0000, -0.0162, 0.0765, -0.2531, -0.0094, -0.0187, -0.0072, 297, 46042, -0.0014, -0.0000, 0.0009, 0.0000, 1.0602, 0.0137, -0.6587, 0.0000, 0.0000, 0.0000
2.2000, 0.0000, 0.0000, 0.0000, 0.0000, 0.0000, 0.0000, -0.0160, 0.0767, -0.2536, -0.0099, -0.0181, -0.0068, 298, 46042, -0.0015, -0.0000, 0.0009, 0.0000, 1.0601, 0.0136, -0.6586, 0.0000, 0.0000, 0.0000
2.2210, 0.0000, 0.0000, 0.0000, 0.0000, 0.0000, 0.0000, -0.0157, 0.0770, -0.2539, -0.0100, -0.0173, -0.0059, 299, 46042, -0.0014, -0.0000, 0.0009, 0.0000, 1.0602, 0.0136, -0.6586, 0.0000, 0.0000, 0.0000
2.2410, 0.0000, 0.0000, 0.0000, 0.0000, 0.0000, 0.0000, -0.0155, 0.0772, -0.2544, -0.0102, -0.0161, -0.0050, 300, 46042, -0.0014, -0.0000, 0.0009, 0.0000, 1.0602, 0.0136, -0.6586, 0.0000, 0.0000, 0.0000
2.2610, 0.0000, 0.0000, 0.0000, 0.0000, 0.0000, 0.0000, -0.0151, 0.0774, -0.2547, -0.0104, -0.0150, -0.0040, 301, 46042, -0.0015, -0.0000, 0.0009, 0.0000, 1.0602, 0.0136, -0.6586, 0.0000, 0.0000, 0.0000
2.2810, 0.0000, 0.0000, 0.0000, 0.0000, 0.0000, 0.0000, -0.0148, 0.0774, -0.2552, -0.0109, -0.0140, -0.0022, 302, 46042, -0.0014, -0.0000, 0.0009, 0.0000, 1.0601, 0.0136, -0.6586, 0.0000, 0.0000, 0.0000
2.3000, 0.0000, 0.0000, 0.0000, 0.0000, 0.0000, 0.0000, -0.0144, 0.0776, -0.2555, -0.0109, -0.0132, -0.0021, 303, 46042, -0.0015, -0.0000, 0.0009, 0.0000, 1.0602, 0.0136, -0.6586, 0.0000, 0.0000, 0.0000
2.3210, 0.0000, 0.0000, 0.0000, 0.0000, 0.0000, 0.0000, -0.0139, 0.0775, -0.2559, -0.0113, -0.0124, -0.0013, 304, 46042, -0.0014, -0.0000, 0.0009, 0.0000, 1.0602, 0.0136, -0.6586, 0.0000, 0.0000, 0.0000
2.3410, 0.0000, 0.0000, 0.0000, 0.0000, 0.0000, 0.0000, -0.0134, 0.0774, -0.2562, -0.0118, -0.0119, -0.0012, 305, 46042, -0.0015, -0.0000, 0.0009, 0.0000, 1.0601, 0.0136, -0.6586, 0.0000, 0.0000, 0.0000
2.3610, 0.0000, 0.0000, 0.0000, 0.0000, 0.0000, 0.0000, -0.0129, 0.0773, -0.2564, -0.0122, -0.0111, -0.0008, 306, 46042, -0.0014, -0.0000, 0.0009, 0.0000, 1.0601, 0.0136, -0.6586, 0.0000, 0.0000, 0.0000
2.3810, 0.0000, 0.0000, 0.0000, 0.0000, 0.0000, 0.0000, -0.0124, 0.0772, -0.2566, -0.0123, -0.0107, 0.0010, 307, 46042, -0.0015, -0.0000, 0.0009, 0.0000, 1.0602, 0.0136, -0.6586, 0.0000, 0.0000, 0.0000
2.4000, 0.0000, 0.0000, 0.0000, 0.0000, 0.0000, 0.0000, -0.0119, 0.0771, -0.2568, -0.0131, -0.0100, 0.0023, 308, 46042, -0.0015, -0.0000, 0.0009, 0.0000, 1.0601, 0.0136, -0.6585, 0.0000, 0.0000, 0.0000
2.4210, 0.0000, 0.0000, 0.0000, 0.0000, 0.0000, 0.0000, -0.0113, 0.0769, -0.2570, -0.0131, -0.0093, 0.0032, 309, 46042, -0.0014, -0.0000, 0.0008, 0.0000, 1.0602, 0.0136, -0.6586, 0.0000, 0.0000, 0.0000
2.4410, 0.0000, 0.0000, 0.0000, 0.0000, 0.0000, 0.0000, -0.0107, 0.0767, -0.2570, -0.0132, -0.0080, 0.0040, 310, 46042, -0.0015, -0.0000, 0.0009, 0.0000, 1.0602, 0.0136, -0.6586, 0.0000, 0.0000, 0.0000
2.4610, 0.0000, 0.0000, 0.0000, 0.0000, 0.0000, 0.0000, -0.0100, 0.0764, -0.2572, -0.0137, -0.0072, 0.0043, 311, 46042, -0.0013, -0.0000, 0.0008, 0.0000, 1.0602, 0.0136, -0.6586, 0.0000, 0.0000, 0.0000
2.4810, 0.0000, 0.0000, 0.0000, 0.0000, 0.0000, 0.0000, -0.0095, 0.0760, -0.2572, -0.0136, -0.0064, 0.0037, 312, 46042, -0.0015, -0.0000, 0.0010, 0.0000, 1.0601, 0.0136, -0.6586, 0.0000, 0.0000, 0.0000
2.5000, 0.0000, 0.0000, 0.0000, 0.0000, 0.0000, 0.0000, -0.0089, 0.0756, -0.2572, -0.0136, -0.0054, 0.0040, 313, 46042, -0.0014, -0.0000, 0.0009, 0.0000, 1.0602, 0.0136, -0.6586, 0.0000, 0.0000, 0.0000
2.5210, 0.0000, 0.0000, 0.0000, 0.0000, 0.0000, 0.0000, -0.0083, 0.0752, -0.2573, -0.0138, -0.0045, 0.0050, 314, 46042, -0.0014, -0.0000, 0.0009, 0.0000, 1.0602, 0.0136, -0.6586, 0.0000, 0.0000, 0.0000
2.5410, 0.0000, 0.0000, 0.0000, 0.0000, 0.0000, 0.0000, -0.0078, 0.0749, -0.2573, -0.0139, -0.0035, 0.0057, 315, 46042, -0.0015, -0.0000, 0.0010, 0.0000, 1.0601, 0.0136, -0.6586, 0.0000, 0.0000, 0.0000
2.5600, 0.0000, 0.0000, 0.0000, 0.0000, 0.0000, 0.0000, -0.0072, 0.0744, -0.2573, -0.0141, -0.0026, 0.0066, 316, 46042, -0.0013, -0.0000, 0.0008, 0.0000, 1.0602, 0.0136, -0.6586, 0.0000, 0.0000, 0.0000
2.5810, 0.0000, 0.0000, 0.0000, 0.0000, 0.0000, 0.0000, -0.0067, 0.0739, -0.2574, -0.0145, -0.0014, 0.0082, 317, 46042, -0.0016, -0.0000, 0.0010, 0.0000, 1.0601, 0.0135, -0.6586, 0.0000, 0.0000, 0.0000
2.6000, 0.0000, 0.0000, 0.0000, 0.0000, 0.0000, 0.0000, -0.0062, 0.0737, -0.2574, -0.0147, -0.0009, 0.0093, 318, 46042, -0.0014, -0.0000, 0.0008, 0.0000, 1.0602, 0.0136, -0.6585, 0.0000, 0.0000, 0.0000
2.6210, 0.0000, 0.0000, 0.0000, 0.0000, 0.0000, 0.0000, -0.0057, 0.0732, -0.2575, -0.0150, -0.0007, 0.0100, 319, 46042, -0.0015, -0.0000, 0.0009, 0.0000, 1.0602, 0.0136, -0.6587, 0.0000, 0.0000, 0.0000
2.6410, 0.0000, 0.0000, 0.0000, 0.0000, 0.0000, 0.0000, -0.0052, 0.0727, -0.2576, -0.0156, -0.0012, 0.0106, 320, 46042, -0.0014, -0.0000, 0.0009, 0.0000, 1.0601, 0.0136, -0.6586, 0.0000, 0.0000, 0.0000
2.6610, 0.0000, 0.0000, 0.0000, 0.0000, 0.0000, 0.0000, -0.0047, 0.0723, -0.2577, -0.0157, -0.0013, 0.0113, 321, 46042, -0.0014, -0.0000, 0.0009, 0.0000, 1.0602, 0.0136, -0.6586, 0.0000, 0.0000, 0.0000
2.6810, 0.0000, 0.0000, 0.0000, 0.0000, 0.0000, 0.0000, -0.0042, 0.0719, -0.2578, -0.0156, -0.0018, 0.0115, 322, 46042, -0.0015, -0.0000, 0.0009, 0.0000, 1.0601, 0.0136, -0.6586, 0.0000, 0.0000, 0.0000
2.7000, 0.0000, 0.0000, 0.0000, 0.0000, 0.0000, 0.0000, -0.0038, 0.0714, -0.2579, -0.0159, -0.0016, 0.0119, 323, 46042, -0.0014, -0.0000, 0.0008, 0.0000, 1.0602, 0.0136, -0.6587, 0.0000, 0.0000, 0.0000
2.7210, 0.0000, 0.0000, 0.0000, 0.0000, 0.0000, 0.0000, -0.0034, 0.0710, -0.2579, -0.0159, -0.0017, 0.0121, 324, 46042, -0.0015, -0.0000, 0.0010, 0.0000, 1.0601, 0.0135, -0.6586, 0.0000, 0.0000, 0.0000
2.7410, 0.0000, 0.0000, 0.0000, 0.0000, 0.0000, 0.0000, -0.0030, 0.0706, -0.2579, -0.0161, -0.0015, 0.0122, 325, 46042, -0.0014, -0.0000, 0.0009, 0.0000, 1.0602, 0.0136, -0.6586, 0.0000, 0.0000, 0.0000
2.7610, 0.0000, 0.0000, 0.0000, 0.0000, 0.0000, 0.0000, -0.0026, 0.0701, -0.2579, -0.0162, -0.0010, 0.0126, 326, 46042, -0.0015, -0.0000, 0.0009, 0.0000, 1.0602, 0.0136, -0.6586, 0.0000, 0.0000, 0.0000
2.7810, 0.0000, 0.0000, 0.0000, 0.0000, 0.0000, 0.0000, -0.0024, 0.0698, -0.2579, -0.0165, -0.0003, 0.0120, 327, 46042, -0.0015, -0.0000, 0.0009, 0.0000, 1.0601, 0.0136, -0.6586, 0.0000, 0.0000, 0.0000
2.8000, 0.0000, 0.0000, 0.0000, 0.0000, 0.0000, 0.0000, -0.0021, 0.0692, -0.2579, -0.0167, 0.0010, 0.0127, 328, 46042, -0.0014, -0.0000, 0.0009, 0.0000, 1.0602, 0.0136, -0.6586, 0.0000, 0.0000, 0.0000
2.8210, 0.0000, 0.0000, 0.0000, 0.0000, 0.0000, 0.0000, -0.0018, 0.0689, -0.2578, -0.0170, 0.0014, 0.0129, 329, 46042, -0.0015, -0.0000, 0.0009, 0.0000, 1.0602, 0.0136, -0.6586, 0.0000, 0.0000, 0.0000
2.8400, 0.0000, 0.0000, 0.0000, 0.0000, 0.0000, 0.0000, -0.0016, 0.0685, -0.2578, -0.0171, 0.0019, 0.0135, 330, 46042, -0.0014, -0.0000, 0.0009, 0.0000, 1.0601, 0.0136, -0.6587, 0.0000, 0.0000, 0.0000
2.8600, 0.0000, 0.0000, 0.0000, 0.0000, 0.0000, 0.0000, -0.0014, 0.0681, -0.2579, -0.0169, 0.0027, 0.0140, 331, 46042, -0.0015, -0.0000, 0.0009, 0.0000, 1.0601, 0.0136, -0.6586, 0.0000, 0.0000, 0.0000
2.8810, 0.0000, 0.0000, 0.0000, 0.0000, 0.0000, 0.0000, -0.0012, 0.0677, -0.2579, -0.0175, 0.0030, 0.0145, 332, 46042, -0.0014, -0.0000, 0.0009, 0.0000, 1.0602, 0.0136, -0.6586, 0.0000, 0.0000, 0.0000
2.9000, 0.0000, 0.0000, 0.0000, 0.0000, 0.0000, 0.0000, -0.0010, 0.0673, -0.2580, -0.0173, 0.0032, 0.0146, 333, 46042, -0.0014, -0.0000, 0.0009, 0.0000, 1.0602, 0.0136, -0.6587, 0.0000, 0.0000, 0.0000
2.9210, 0.0000, 0.0000, 0.0000, 0.0000, 0.0000, 0.0000, -0.0009, 0.0669, -0.2581, -0.0176, 0.0030, 0.0145, 334, 46042, -0.0015, -0.0000, 0.0009, 0.0000, 1.0601, 0.0136, -0.6586, 0.0000, 0.0000, 0.0000
2.9400, 0.0000, 0.0000, 0.0000, 0.0000, 0.0000, 0.0000, -0.0009, 0.0664, -0.2585, -0.0176, 0.0032, 0.0143, 335, 46042, -0.0014, -0.0000, 0.0009, 0.0000, 1.0601, 0.0135, -0.6586, 0.0000, 0.0000, 0.0000
2.9610, 0.0000, 0.0000, 0.0000, 0.0000, 0.0000, 0.0000, -0.0009, 0.0661, -0.2585, -0.0174, 0.0032, 0.0137, 336, 46042, -0.0015, -0.0000, 0.0009, 0.0000, 1.0602, 0.0136, -0.6585, 0.0000, 0.0000, 0.0000
2.9810, 0.0000, 0.0000, 0.0000, 0.0000, 0.0000, 0.0000, -0.0009, 0.0657, -0.2587, -0.0174, 0.0031, 0.0136, 337, 46042, -0.0014, -0.0000, 0.0009, 0.0000, 1.0602, 0.0136, -0.6586, 0.0000, 0.0000, 0.0000
3.0000, 0.0000, 0.0000, 0.0000, 0.0000, 0.0000, 0.0000, -0.0009, 0.0653, -0.2590, -0.0173, 0.0024, 0.0135, 338, 46042, -0.0015, -0.0000, 0.0009, 0.0000, 1.0601, 0.0136, -0.6586, 0.0000, 0.0000, 0.0000
3.0200, 0.0000, 0.0000, 0.0000, 0.0000, 0.0000, 0.0000, -0.0009, 0.0650, -0.2591, -0.0174, 0.0021, 0.0133, 339, 46042, -0.0015, -0.0000, 0.0009, 0.0000, 1.0601, 0.0136, -0.6585, 0.0000, 0.0000, 0.0000
3.0410, 0.0000, 0.0000, 0.0000, 0.0000, 0.0000, 0.0000, -0.0010, 0.0646, -0.2593, -0.0169, 0.0013, 0.0134, 340, 46042, -0.0014, -0.0000, 0.0009, 0.0000, 1.0602, 0.0136, -0.6587, 0.0000, 0.0000, 0.0000
3.0610, 0.0000, 0.0000, 0.0000, 0.0000, 0.0000, 0.0000, -0.0010, 0.0644, -0.2595, -0.0171, 0.0010, 0.0136, 341, 46042, -0.0015, -0.0000, 0.0009, 0.0000, 1.0601, 0.0137, -0.6586, 0.0000, 0.0000, 0.0000
3.0810, 0.0000, 0.0000, 0.0000, 0.0000, 0.0000, 0.0000, -0.0011, 0.0640, -0.2598, -0.0170, 0.0010, 0.0136, 342, 46042, -0.0013, -0.0000, 0.0008, 0.0000, 1.0602, 0.0136, -0.6586, 0.0000, 0.0000, 0.0000
3.1000, 0.0000, 0.0000, 0.0000, 0.0000, 0.0000, 0.0000, -0.0013, 0.0636, -0.2600, -0.0166, 0.0009, 0.0135, 343, 46042, -0.0015, -0.0000, 0.0010, 0.0000, 1.0602, 0.0136, -0.6586, 0.0000, 0.0000, 0.0000
3.1210, 0.0000, 0.0000, 0.0000, 0.0000, 0.0000, 0.0000, -0.0016, 0.0633, -0.2601, -0.0169, 0.0009, 0.0135, 344, 46042, -0.0014, -0.0000, 0.0009, 0.0000, 1.0602, 0.0137, -0.6586, 0.0000, 0.0000, 0.0000
3.1410, 0.0000, 0.0000, 0.0000, 0.0000, 0.0000, 0.0000, -0.0018, 0.0630, -0.2604, -0.0168, 0.0009, 0.0139, 345, 46042, -0.0015, -0.0000, 0.0009, 0.0000, 1.0601, 0.0136, -0.6587, 0.0000, 0.0000, 0.0000
3.1610, 0.0000, 0.0000, 0.0000, 0.0000, 0.0000, 0.0000, -0.0020, 0.0627, -0.2605, -0.0165, 0.0004, 0.0141, 346, 46042, -0.0014, -0.0000, 0.0009, 0.0000, 1.0602, 0.0136, -0.6586, 0.0000, 0.0000, 0.0000
3.1800, 0.0000, 0.0000, 0.0000, 0.0000, 0.0000, 0.0000, -0.0021, 0.0623, -0.2606, -0.0166, -0.0001, 0.0144, 347, 46042, -0.0014, -0.0000, 0.0009, 0.0000, 1.0602, 0.0136, -0.6585, 0.0000, 0.0000, 0.0000
3.2000, 0.0000, 0.0000, 0.0000, 0.0000, 0.0000, 0.0000, -0.0024, 0.0621, -0.2607, -0.0163, -0.0010, 0.0146, 348, 46042, -0.0015, -0.0000, 0.0009, 0.0000, 1.0601, 0.0136, -0.6586, 0.0000, 0.0000, 0.0000
3.2210, 0.0000, 0.0000, 0.0000, 0.0000, 0.0000, 0.0000, -0.0026, 0.0618, -0.2608, -0.0163, -0.0018, 0.0153, 349, 46042, -0.0014, -0.0000, 0.0009, 0.0000, 1.0601, 0.0136, -0.6586, 0.0000, 0.0000, 0.0000
3.2410, 0.0000, 0.0000, 0.0000, 0.0000, 0.0000, 0.0000, -0.0028, 0.0615, -0.2608, -0.0161, -0.0029, 0.0155, 350, 46042, -0.0015, -0.0000, 0.0009, 0.0000, 1.0601, 0.0135, -0.6586, 0.0000, 0.0000, 0.0000
3.2610, 0.0000, 0.0000, 0.0000, 0.0000, 0.0000, 0.0000, -0.0030, 0.0613, -0.2606, -0.0158, -0.0040, 0.0149, 351, 46042, -0.0014, -0.0000, 0.0009, 0.0000, 1.0602, 0.0136, -0.6585, 0.0000, 0.0000, 0.0000
3.2810, 0.0000, 0.0000, 0.0000, 0.0000, 0.0000, 0.0000, -0.0031, 0.0611, -0.2606, -0.0156, -0.0048, 0.0142, 352, 46042, -0.0014, -0.0000, 0.0009, 0.0000, 1.0602, 0.0136, -0.6587, 0.0000, 0.0000, 0.0000
3.3000, 0.0000, 0.0000, 0.0000, 0.0000, 0.0000, 0.0000, -0.0034, 0.0608, -0.2606, -0.0159, -0.0049, 0.0145, 353, 46042, -0.0016, -0.0000, 0.0010, 0.0000, 1.0601, 0.0136, -0.6586, 0.0000, 0.0000, 0.0000
3.3210, 0.0000, 0.0000, 0.0000, 0.0000, 0.0000, 0.0000, -0.0036, 0.0606, -0.2604, -0.0154, -0.0049, 0.0147, 354, 46042, -0.0014, -0.0000, 0.0009, 0.0000, 1.0602, 0.0136, -0.6586, 0.0000, 0.0000, 0.0000
3.3410, 0.0000, 0.0000, 0.0000, 0.0000, 0.0000, 0.0000, -0.0039, 0.0605, -0.2603, -0.0155, -0.0050, 0.0157, 355, 46042, -0.0015, -0.0000, 0.0009, 0.0000, 1.0602, 0.0136, -0.6586, 0.0000, 0.0000, 0.0000
3.3610, 0.0000, 0.0000, 0.0000, 0.0000, 0.0000, 0.0000, -0.0040, 0.0602, -0.2602, -0.0152, -0.0053, 0.0160, 356, 46042, -0.0014, -0.0000, 0.0009, 0.0000, 1.0602, 0.0136, -0.6586, 0.0000, 0.0000, 0.0000
3.3810, 0.0000, 0.0000, 0.0000, 0.0000, 0.0000, 0.0000, -0.0042, 0.0601, -0.2600, -0.0149, -0.0057, 0.0159, 357, 46042, -0.0014, -0.0000, 0.0009, 0.0000, 1.0602, 0.0136, -0.6586, 0.0000, 0.0000, 0.0000
3.4000, 0.0000, 0.0000, 0.0000, 0.0000, 0.0000, 0.0000, -0.0045, 0.0599, -0.2599, -0.0147, -0.0063, 0.0165, 358, 46042, -0.0015, -0.0000, 0.0009, 0.0000, 1.0601, 0.0136, -0.6586, 0.0000, 0.0000, 0.0000
3.4210, 0.0000, 0.0000, 0.0000, 0.0000, 0.0000, 0.0000, -0.0046, 0.0598, -0.2597, -0.0149, -0.0064, 0.0173, 359, 46042, -0.0013, -0.0000, 0.0008, 0.0000, 1.0602, 0.0136, -0.6586, 0.0000, 0.0000, 0.0000
3.4410, 0.0000, 0.0000, 0.0000, 0.0000, 0.0000, 0.0000, -0.0049, 0.0596, -0.2595, -0.0144, -0.0065, 0.0173, 360, 46042, -0.0015, -0.0000, 0.0009, 0.0000, 1.0601, 0.0136, -0.6586, 0.0000, 0.0000, 0.0000
3.4610, 0.0000, 0.0000, 0.0000, 0.0000, 0.0000, 0.0000, -0.0050, 0.0595, -0.2594, -0.0146, -0.0067, 0.0173, 361, 46042, -0.0014, -0.0000, 0.0009, 0.0000, 1.0602, 0.0136, -0.6586, 0.0000, 0.0000, 0.0000
3.4810, 0.0000, 0.0000, 0.0000, 0.0000, 0.0000, 0.0000, -0.0052, 0.0594, -0.2592, -0.0145, -0.0072, 0.0168, 362, 46042, -0.0014, -0.0000, 0.0009, 0.0000, 1.0602, 0.0136, -0.6586, 0.0000, 0.0000, 0.0000
3.5000, 0.0000, 0.0000, 0.0000, 0.0000, 0.0000, 0.0000, -0.0053, 0.0594, -0.2590, -0.0144, -0.0072, 0.0161, 363, 46042, -0.0015, -0.0000, 0.0010, 0.0000, 1.0601, 0.0136, -0.6586, 0.0000, 0.0000, 0.0000
3.5210, 0.0000, 0.0000, 0.0000, 0.0000, 0.0000, 0.0000, -0.0054, 0.0592, -0.2591, -0.0141, -0.0074, 0.0163, 364, 46042, -0.0013, -0.0000, 0.0008, 0.0000, 1.0601, 0.0136, -0.6587, 0.0000, 0.0000, 0.0000
3.5400, 0.0000, 0.0000, 0.0000, 0.0000, 0.0000, 0.0000, -0.0055, 0.0592, -0.2588, -0.0139, -0.0074, 0.0168, 365, 46042, -0.0016, -0.0000, 0.0010, 0.0000, 1.0601, 0.0135, -0.6586, 0.0000, 0.0000, 0.0000
3.5610, 0.0000, 0.0000, 0.0000, 0.0000, 0.0000, 0.0000, -0.0055, 0.0593, -0.2588, -0.0138, -0.0075, 0.0173, 366, 46042, -0.0013, -0.0000, 0.0008, 0.0000, 1.0602, 0.0137, -0.6586, 0.0000, 0.0000, 0.0000
3.5810, 0.0000, 0.0000, 0.0000, 0.0000, 0.0000, 0.0000, -0.0057, 0.0593, -0.2588, -0.0136, -0.0080, 0.0176, 367, 46042, -0.0015, -0.0000, 0.0009, 0.0000, 1.0601, 0.0136, -0.6587, 0.0000, 0.0000, 0.0000
3.6000, 0.0000, 0.0000, 0.0000, 0.0000, 0.0000, 0.0000, -0.0058, 0.0593, -0.2588, -0.0135, -0.0080, 0.0180, 368, 46042, -0.0014, -0.0000, 0.0009, 0.0000, 1.0601, 0.0136, -0.6586, 0.0000, 0.0000, 0.0000
3.6210, 0.0000, 0.0000, 0.0000, 0.0000, 0.0000, 0.0000, -0.0059, 0.0594, -0.2588, -0.0134, -0.0080, 0.0184, 369, 46042, -0.0014, -0.0000, 0.0009, 0.0000, 1.0601, 0.0136, -0.6586, 0.0000, 0.0000, 0.0000
3.6410, 0.0000, 0.0000, 0.0000, 0.0000, 0.0000, 0.0000, -0.0060, 0.0596, -0.2587, -0.0135, -0.0078, 0.0186, 370, 46042, -0.0014, -0.0000, 0.0009, 0.0000, 1.0602, 0.0137, -0.6586, 0.0000, 0.0000, 0.0000
3.6610, 0.0000, 0.0000, 0.0000, 0.0000, 0.0000, 0.0000, -0.0059, 0.0596, -0.2587, -0.0132, -0.0074, 0.0178, 371, 46042, -0.0013, -0.0000, 0.0008, 0.0000, 1.0602, 0.0136, -0.6587, 0.0000, 0.0000, 0.0000
3.6810, 0.0000, 0.0000, 0.0000, 0.0000, 0.0000, 0.0000, -0.0060, 0.0596, -0.2587, -0.0131, -0.0074, 0.0172, 372, 46042, -0.0016, -0.0000, 0.0010, 0.0000, 1.0601, 0.0135, -0.6586, 0.0000, 0.0000, 0.0000
3.7000, 0.0000, 0.0000, 0.0000, 0.0000, 0.0000, 0.0000, -0.0060, 0.0598, -0.2586, -0.0130, -0.0075, 0.0170, 373, 46042, -0.0014, -0.0000, 0.0008, 0.0000, 1.0602, 0.0137, -0.6586, 0.0000, 0.0000, 0.0000
3.7210, 0.0000, 0.0000, 0.0000, 0.0000, 0.0000, 0.0000, -0.0061, 0.0599, -0.2587, -0.0130, -0.0072, 0.0175, 374, 46042, -0.0015, -0.0000, 0.0009, 0.0000, 1.0601, 0.0136, -0.6586, 0.0000, 0.0000, 0.0000
3.7410, 0.0000, 0.0000, 0.0000, 0.0000, 0.0000, 0.0000, -0.0061, 0.0600, -0.2587, -0.0127, -0.0068, 0.0171, 375, 46042, -0.0014, -0.0000, 0.0009, 0.0000, 1.0602, 0.0136, -0.6586, 0.0000, 0.0000, 0.0000
3.7610, 0.0000, 0.0000, 0.0000, 0.0000, 0.0000, 0.0000, -0.0061, 0.0601, -0.2589, -0.0128, -0.0069, 0.0173, 376, 46042, -0.0015, -0.0000, 0.0009, 0.0000, 1.0602, 0.0136, -0.6586, 0.0000, 0.0000, 0.0000
3.7810, 0.0000, 0.0000, 0.0000, 0.0000, 0.0000, 0.0000, -0.0061, 0.0604, -0.2589, -0.0124, -0.0077, 0.0176, 377, 46042, -0.0015, -0.0000, 0.0009, 0.0000, 1.0601, 0.0136, -0.6586, 0.0000, 0.0000, 0.0000
3.8000, 0.0000, 0.0000, 0.0000, 0.0000, 0.0000, 0.0000, -0.0061, 0.0606, -0.2591, -0.0123, -0.0077, 0.0183, 378, 46042, -0.0013, -0.0000, 0.0008, 0.0000, 1.0602, 0.0136, -0.6586, 0.0000, 0.0000, 0.0000
3.8210, 0.0000, 0.0000, 0.0000, 0.0000, 0.0000, 0.0000, -0.0060, 0.0607, -0.2592, -0.0123, -0.0082, 0.0182, 379, 46042, -0.0015, -0.0000, 0.0009, 0.0000, 1.0601, 0.0135, -0.6586, 0.0000, 0.0000, 0.0000
3.8410, 0.0000, 0.0000, 0.0000, 0.0000, 0.0000, 0.0000, -0.0060, 0.0610, -0.2592, -0.0119, -0.0081, 0.0179, 380, 46042, -0.0013, -0.0000, 0.0008, 0.0000, 1.0602, 0.0136, -0.6586, 0.0000, 0.0000, 0.0000
3.8610, 0.0000, 0.0000, 0.0000, 0.0000, 0.0000, 0.0000, -0.0060, 0.0613, -0.2593, -0.0117, -0.0074, 0.0181, 381, 46042, -0.0015, -0.0000, 0.0009, 0.0000, 1.0601, 0.0136, -0.6587, 0.0000, 0.0000, 0.0000
3.8810, 0.0000, 0.0000, 0.0000, 0.0000, 0.0000, 0.0000, -0.0060, 0.0615, -0.2594, -0.0117, -0.0070, 0.0179, 382, 46042, -0.0014, -0.0000, 0.0009, 0.0000, 1.0601, 0.0136, -0.6586, 0.0000, 0.0000, 0.0000
3.9000, 0.0000, 0.0000, 0.0000, 0.0000, 0.0000, 0.0000, -0.0058, 0.0616, -0.2593, -0.0115, -0.0071, 0.0171, 383, 46042, -0.0014, -0.0000, 0.0009, 0.0000, 1.0602, 0.0135, -0.6586, 0.0000, 0.0000, 0.0000
3.9210, 0.0000, 0.0000, 0.0000, 0.0000, 0.0000, 0.0000, -0.0058, 0.0620, -0.2593, -0.0111, -0.0075, 0.0164, 384, 46042, -0.0014, -0.0000, 0.0009, 0.0000, 1.0602, 0.0136, -0.6586, 0.0000, 0.0000, 0.0000
3.9410, 0.0000, 0.0000, 0.0000, 0.0000, 0.0000, 0.0000, -0.0057, 0.0624, -0.2593, -0.0113, -0.0073, 0.0166, 385, 46042, -0.0014, -0.0000, 0.0009, 0.0000, 1.0602, 0.0137, -0.6586, 0.0000, 0.0000, 0.0000
3.9610, 0.0000, 0.0000, 0.0000, 0.0000, 0.0000, 0.0000, -0.0057, 0.0627, -0.2592, -0.0109, -0.0075, 0.0164, 386, 46042, -0.0015, -0.0000, 0.0009, 0.0000, 1.0601, 0.0136, -0.6586, 0.0000, 0.0000, 0.0000
3.9810, 0.0000, 0.0000, 0.0000, 0.0000, 0.0000, 0.0000, -0.0056, 0.0631, -0.2592, -0.0109, -0.0076, 0.0163, 387, 46042, -0.0014, -0.0000, 0.0009, 0.0000, 1.0601, 0.0136, -0.6586, 0.0000, 0.0000, 0.0000
4.0000, 0.0000, 0.0000, 0.0000, 0.0000, 0.0000, 0.0000, -0.0055, 0.0635, -0.2592, -0.0109, -0.0073, 0.0163, 388, 46042, -0.0014, -0.0000, 0.0008, 0.0000, 1.0602, 0.0136, -0.6586, 0.0000, 0.0000, 0.0000
4.0210, 0.0000, 0.0000, 0.0000, 0.0000, 0.0000, 0.0000, -0.0054, 0.0640, -0.2592, -0.0106, -0.0077, 0.0159, 389, 46042, -0.0015, -0.0000, 0.0009, 0.0000, 1.0601, 0.0136, -0.6586, 0.0000, 0.0000, 0.0000
4.0410, 0.0000, 0.0000, 0.0000, 0.0000, 0.0000, 0.0000, -0.0052, 0.0644, -0.2592, -0.0105, -0.0080, 0.0161, 390, 46042, -0.0014, -0.0000, 0.0009, 0.0000, 1.0601, 0.0136, -0.6586, 0.0000, 0.0000, 0.0000
4.0610, 0.0000, 0.0000, 0.0000, 0.0000, 0.0000, 0.0000, -0.0051, 0.0649, -0.2590, -0.0105, -0.0082, 0.0163, 391, 46042, -0.0016, -0.0000, 0.0010, 0.0000, 1.0601, 0.0136, -0.6585, 0.0000, 0.0000, 0.0000
4.0810, 0.0000, 0.0000, 0.0000, 0.0000, 0.0000, 0.0000, -0.0049, 0.0654, -0.2590, -0.0102, -0.0081, 0.0168, 392, 46042, -0.0013, -0.0000, 0.0008, 0.0000, 1.0602, 0.0136, -0.6586, 0.0000, 0.0000, 0.0000
4.1000, 0.0000, 0.0000, 0.0000, 0.0000, 0.0000, 0.0000, -0.0048, 0.0658, -0.2589, -0.0102, -0.0081, 0.0167, 393, 46042, -0.0015, -0.0000, 0.0009, 0.0000, 1.0601, 0.0136, -0.6587, 0.0000, 0.0000, 0.0000
4.1210, 0.0000, 0.0000, 0.0000, 0.0000, 0.0000, 0.0000, -0.0046, 0.0663, -0.2587, -0.0100, -0.0080, 0.0168, 394, 46042, -0.0014, -0.0000, 0.0009, 0.0000, 1.0602, 0.0136, -0.6586, 0.0000, 0.0000, 0.0000
4.1410, 0.0000, 0.0000, 0.0000, 0.0000, 0.0000, 0.0000, -0.0044, 0.0669, -0.2585, -0.0096, -0.0076, 0.0166, 395, 46042, -0.0014, -0.0000, 0.0009, 0.0000, 1.0602, 0.0136, -0.6586, 0.0000, 0.0000, 0.0000
4.1610, 0.0000, 0.0000, 0.0000, 0.0000, 0.0000, 0.0000, -0.0043, 0.0674, -0.2584, -0.0096, -0.0071, 0.0162, 396, 46042, -0.0015, -0.0000, 0.0009, 0.0000, 1.0601, 0.0136, -0.6586, 0.0000, 0.0000, 0.0000
4.1810, 0.0000, 0.0000, 0.0000, 0.0000, 0.0000, 0.0000, -0.0040, 0.0679, -0.2582, -0.0093, -0.0065, 0.0162, 397, 46042, -0.0014, -0.0000, 0.0009, 0.0000, 1.0601, 0.0136, -0.6586, 0.0000, 0.0000, 0.0000
4.2000, 0.0000, 0.0000, 0.0000, 0.0000, 0.0000, 0.0000, -0.0038, 0.0685, -0.2580, -0.0089, -0.0066, 0.0159, 398, 46042, -0.0015, -0.0000, 0.0009, 0.0000, 1.0602, 0.0136, -0.6586, 0.0000, 0.0000, 0.0000
4.2210, 0.0000, 0.0000, 0.0000, 0.0000, 0.0000, 0.0000, -0.0036, 0.0691, -0.2577, -0.0090, -0.0063, 0.0160, 399, 46042, -0.0014, -0.0000, 0.0008, 0.0000, 1.0602, 0.0136, -0.6586, 0.0000, 0.0000, 0.0000
4.2410, 0.0000, 0.0000, 0.0000, 0.0000, 0.0000, 0.0000, -0.0033, 0.0698, -0.2575, -0.0087, -0.0062, 0.0155, 400, 46042, -0.0015, -0.0000, 0.0009, 0.0000, 1.0601, 0.0136, -0.6586, 0.0000, 0.0000, 0.0000
4.2610, 0.0000, 0.0000, 0.0000, 0.0000, 0.0000, 0.0000, -0.0031, 0.0702, -0.2572, -0.0083, -0.0060, 0.0145, 401, 46042, -0.0014, -0.0000, 0.0009, 0.0000, 1.0601, 0.0136, -0.6586, 0.0000, 0.0000, 0.0000
4.2810, 0.0000, 0.0000, 0.0000, 0.0000, 0.0000, 0.0000, -0.0028, 0.0708, -0.2570, -0.0083, -0.0053, 0.0142, 402, 46042, -0.0014, -0.0000, 0.0009, 0.0000, 1.0602, 0.0136, -0.6586, 0.0000, 0.0000, 0.0000
4.3000, 0.0000, 0.0000, 0.0000, 0.0000, 0.0000, 0.0000, -0.0026, 0.0716, -0.2567, -0.0078, -0.0044, 0.0134, 403, 46042, -0.0014, -0.0000, 0.0009, 0.0000, 1.0601, 0.0137, -0.6586, 0.0000, 0.0000, 0.0000
4.3210, 0.0000, 0.0000, 0.0000, 0.0000, 0.0000, 0.0000, -0.0024, 0.0721, -0.2565, -0.0076, -0.0034, 0.0122, 404, 46042, -0.0014, -0.0000, 0.0009, 0.0000, 1.0601, 0.0136, -0.6586, 0.0000, 0.0000, 0.0000
4.3410, 0.0000, 0.0000, 0.0000, 0.0000, 0.0000, 0.0000, -0.0021, 0.0727, -0.2563, -0.0072, -0.0032, 0.0115, 405, 46042, -0.0015, -0.0000, 0.0009, 0.0000, 1.0601, 0.0135, -0.6586, 0.0000, 0.0000, 0.0000
4.3610, 0.0000, 0.0000, 0.0000, 0.0000, 0.0000, 0.0000, -0.0018, 0.0734, -0.2561, -0.0071, -0.0031, 0.0111, 406, 46042, -0.0014, -0.0000, 0.0009, 0.0000, 1.0602, 0.0136, -0.6585, 0.0000, 0.0000, 0.0000
4.3810, 0.0000, 0.0000, 0.0000, 0.0000, 0.0000, 0.0000, -0.0016, 0.0740, -0.2559, -0.0066, -0.0031, 0.0106, 407, 46042, -0.0014, -0.0000, 0.0009, 0.0000, 1.0602, 0.0136, -0.6586, 0.0000, 0.0000, 0.0000
4.4000, 0.0000, 0.0000, 0.0000, 0.0000, 0.0000, 0.0000, -0.0014, 0.0745, -0.2557, -0.0068, -0.0029, 0.0105, 408, 46042, -0.0015, -0.0000, 0.0009, 0.0000, 1.0601, 0.0136, -0.6586, 0.0000, 0.0000, 0.0000
4.4210, 0.0000, 0.0000, 0.0000, 0.0000, 0.0000, 0.0000, -0.0013, 0.0751, -0.2553, -0.0061, -0.0028, 0.0099, 409, 46042, -0.0014, -0.0000, 0.0009, 0.0000, 1.0602, 0.0136, -0.6585, 0.0000, 0.0000, 0.0000
4.4410, 0.0000, 0.0000, 0.0000, 0.0000, 0.0000, 0.0000, -0.0011, 0.0758, -0.2549, -0.0060, -0.0025, 0.0092, 410, 46042, -0.0015, -0.0000, 0.0009, 0.0000, 1.0601, 0.0136, -0.6586, 0.0000, 0.0000, 0.0000
4.4610, 0.0000, 0.0000, 0.0000, 0.0000, 0.0000, 0.0000, -0.0009, 0.0764, -0.2544, -0.0059, -0.0022, 0.0084, 411, 46042, -0.0014, -0.0000, 0.0009, 0.0000, 1.0602, 0.0136, -0.6586, 0.0000, 0.0000, 0.0000
4.4810, 0.0000, 0.0000, 0.0000, 0.0000, 0.0000, 0.0000, -0.0006, 0.0769, -0.2538, -0.0056, -0.0020, 0.0079, 412, 46042, -0.0014, -0.0000, 0.0009, 0.0000, 1.0601, 0.0136, -0.6586, 0.0000, 0.0000, 0.0000
4.5000, 0.0000, 0.0000, 0.0000, 0.0000, 0.0000, 0.0000, -0.0005, 0.0776, -0.2531, -0.0056, -0.0017, 0.0079, 413, 46042, -0.0014, -0.0000, 0.0009, 0.0000, 1.0602, 0.0136, -0.6586, 0.0000, 0.0000, 0.0000
4.5210, 0.0000, 0.0000, 0.0000, 0.0000, 0.0000, 0.0000, -0.0003, 0.0782, -0.2523, -0.0053, -0.0017, 0.0074, 414, 46042, -0.0014, -0.0000, 0.0009, 0.0000, 1.0602, 0.0137, -0.6586, 0.0000, 0.0000, 0.0000
4.5410, 0.0000, 0.0000, 0.0000, 0.0000, 0.0000, 0.0000, -0.0002, 0.0786, -0.2515, -0.0051, -0.0014, 0.0075, 415, 46042, -0.0015, -0.0000, 0.0009, 0.0000, 1.0601, 0.0136, -0.6586, 0.0000, 0.0000, 0.0000
4.5610, 0.0000, 0.0000, 0.0000, 0.0000, 0.0000, 0.0000, -0.0001, 0.0791, -0.2507, -0.0046, -0.0015, 0.0064, 416, 46042, -0.0014, -0.0000, 0.0008, 0.0000, 1.0602, 0.0136, -0.6586, 0.0000, 0.0000, 0.0000
4.5810, 0.0000, 0.0000, 0.0000, 0.0000, 0.0000, 0.0000, -0.0000, 0.0796, -0.2500, -0.0045, -0.0016, 0.0064, 417, 46042, -0.0015, -0.0000, 0.0009, 0.0000, 1.0602, 0.0136, -0.6586, 0.0000, 0.0000, 0.0000
4.6000, 0.0000, 0.0000, 0.0000, 0.0000, 0.0000, 0.0000, -0.0000, 0.0801, -0.2492, -0.0042, -0.0022, 0.0055, 418, 46042, -0.0015, -0.0000, 0.0009, 0.0000, 1.0601, 0.0136, -0.6586, 0.0000, 0.0000, 0.0000
4.6210, 0.0000, 0.0000, 0.0000, 0.0000, 0.0000, 0.0000, 0.0001, 0.0805, -0.2487, -0.0040, -0.0028, 0.0049, 419, 46042, -0.0014, -0.0000, 0.0009, 0.0000, 1.0602, 0.0136, -0.6586, 0.0000, 0.0000, 0.0000
4.6410, 0.0000, 0.0000, 0.0000, 0.0000, 0.0000, 0.0000, 0.0001, 0.0809, -0.2480, -0.0039, -0.0031, 0.0047, 420, 46042, -0.0015, -0.0000, 0.0009, 0.0000, 1.0601, 0.0136, -0.6586, 0.0000, 0.0000, 0.0000
4.6610, 0.0000, 0.0000, 0.0000, 0.0000, 0.0000, 0.0000, 0.0001, 0.0814, -0.2473, -0.0036, -0.0038, 0.0044, 421, 46042, -0.0013, -0.0000, 0.0008, 0.0000, 1.0602, 0.0136, -0.6586, 0.0000, 0.0000, 0.0000
4.6810, 0.0000, 0.0000, 0.0000, 0.0000, 0.0000, 0.0000, 0.0001, 0.0817, -0.2468, -0.0035, -0.0039, 0.0048, 422, 46042, -0.0015, -0.0000, 0.0010, 0.0000, 1.0602, 0.0137, -0.6586, 0.0000, 0.0000, 0.0000
4.7000, 0.0000, 0.0000, 0.0000, 0.0000, 0.0000, 0.0000, 0.0001, 0.0819, -0.2462, -0.0033, -0.0044, 0.0047, 423, 46042, -0.0014, -0.0000, 0.0009, 0.0000, 1.0601, 0.0135, -0.6586, 0.0000, 0.0000, 0.0000
4.7210, 0.0000, 0.0000, 0.0000, 0.0000, 0.0000, 0.0000, 0.0000, 0.0822, -0.2457, -0.0029, -0.0050, 0.0047, 424, 46042, -0.0014, -0.0000, 0.0009, 0.0000, 1.0602, 0.0136, -0.6586, 0.0000, 0.0000, 0.0000
4.7410, 0.0000, 0.0000, 0.0000, 0.0000, 0.0000, 0.0000, -0.0000, 0.0826, -0.2451, -0.0030, -0.0053, 0.0041, 425, 46042, -0.0015, -0.0000, 0.0009, 0.0000, 1.0602, 0.0136, -0.6586, 0.0000, 0.0000, 0.0000
4.7610, 0.0000, 0.0000, 0.0000, 0.0000, 0.0000, 0.0000, -0.0000, 0.0828, -0.2446, -0.0025, -0.0059, 0.0031, 426, 46042, -0.0014, -0.0000, 0.0008, 0.0000, 1.0602, 0.0136, -0.6587, 0.0000, 0.0000, 0.0000
4.7810, 0.0000, 0.0000, 0.0000, 0.0000, 0.0000, 0.0000, -0.0002, 0.0829, -0.2442, -0.0025, -0.0061, 0.0023, 427, 46042, -0.0016, -0.0000, 0.0010, 0.0000, 1.0601, 0.0136, -0.6585, 0.0000, 0.0000, 0.0000
4.8000, 0.0000, 0.0000, 0.0000, 0.0000, 0.0000, 0.0000, -0.0003, 0.0831, -0.2439, -0.0025, -0.0066, 0.0022, 428, 46042, -0.0013, -0.0000, 0.0008, 0.0000, 1.0601, 0.0136, -0.6586, 0.0000, 0.0000, 0.0000
4.8210, 0.0000, 0.0000, 0.0000, 0.0000, 0.0000, 0.0000, -0.0004, 0.0833, -0.2434, -0.0020, -0.0065, 0.0020, 429, 46042, -0.0015, -0.0000, 0.0009, 0.0000, 1.0602, 0.0136, -0.6587, 0.0000, 0.0000, 0.0000
4.8410, 0.0000, 0.0000, 0.0000, 0.0000, 0.0000, 0.0000, -0.0005, 0.0833, -0.2433, -0.0019, -0.0071, 0.0018, 430, 46042, -0.0014, -0.0000, 0.0009, 0.0000, 1.0602, 0.0136, -0.6586, 0.0000, 0.0000, 0.0000
4.8610, 0.0000, 0.0000, 0.0000, 0.0000, 0.0000, 0.0000, -0.0005, 0.0833, -0.2431, -0.0018, -0.0076, 0.0018, 431, 46042, -0.0015, -0.0000, 0.0009, 0.0000, 1.0602, 0.0135, -0.6586, 0.0000, 0.0000, 0.0000
4.8810, 0.0000, 0.0000, 0.0000, 0.0000, 0.0000, 0.0000, -0.0007, 0.0833, -0.2429, -0.0015, -0.0076, 0.0022, 432, 46042, -0.0015, -0.0000, 0.0010, 0.0000, 1.0601, 0.0136, -0.6585, 0.0000, 0.0000, 0.0000
4.9000, 0.0000, 0.0000, 0.0000, 0.0000, 0.0000, 0.0000, -0.0007, 0.0833, -0.2430, -0.0014, -0.0084, 0.0027, 433, 46042, -0.0014, -0.0000, 0.0009, 0.0000, 1.0601, 0.0136, -0.6586, 0.0000, 0.0000, 0.0000
4.9210, 0.0000, 0.0000, 0.0000, 0.0000, 0.0000, 0.0000, -0.0007, 0.0833, -0.2429, -0.0014, -0.0093, 0.0033, 434, 46042, -0.0015, -0.0000, 0.0009, 0.0000, 1.0601, 0.0136, -0.6586, 0.0000, 0.0000, 0.0000
4.9410, 0.0000, 0.0000, 0.0000, 0.0000, 0.0000, 0.0000, -0.0007, 0.0831, -0.2427, -0.0012, -0.0095, 0.0028, 435, 46042, -0.0014, -0.0000, 0.0008, 0.0000, 1.0602, 0.0136, -0.6586, 0.0000, 0.0000, 0.0000
4.9610, 0.0000, 0.0000, 0.0000, 0.0000, 0.0000, 0.0000, -0.0007, 0.0829, -0.2427, -0.0012, -0.0094, 0.0025, 436, 46042, -0.0015, -0.0000, 0.0009, 0.0000, 1.0602, 0.0136, -0.6586, 0.0000, 0.0000, 0.0000
4.9810, 0.0000, 0.0000, 0.0000, 0.0000, 0.0000, 0.0000, -0.0007, 0.0827, -0.2426, -0.0010, -0.0095, 0.0018, 437, 46042, -0.0015, -0.0000, 0.0009, 0.0000, 1.0601, 0.0136, -0.6586, 0.0000, 0.0000, 0.0000
5.0000, 0.0000, 0.0000, 0.0000, 0.0000, 0.0000, 0.0000, -0.0007, 0.0822, -0.2425, -0.0007, -0.0097, 0.0016, 438, 46042, -0.0014, -0.0000, 0.0009, 0.0000, 1.0601, 0.0135, -0.6586, 0.0000, 0.0000, 0.0000
5.0210, 0.0000, 0.0000, 0.0000, 0.0000, 0.0000, 0.0000, -0.0006, 0.0820, -0.2422, -0.0005, -0.0101, 0.0013, 439, 46042, -0.0015, -0.0000, 0.0009, 0.0000, 1.0602, 0.0136, -0.6585, 0.0000, 0.0000, 0.0000
5.0410, 0.0000, 0.0000, 0.0000, 0.0000, 0.0000, 0.0000, -0.0005, 0.0816, -0.2422, -0.0007, -0.0102, 0.0018, 440, 46042, -0.0013, -0.0000, 0.0004, 0.0000, 1.0602, 0.0137, -0.6586, 0.0000, 0.0000, -0.0028
5.0610, 0.0000, 0.0000, 0.0000, 0.0000, 0.0000, 0.0000, -0.0005, 0.0812, -0.2421, -0.0005, -0.0104, 0.0028, 441, 46042, -0.0019, -0.0000, 0.0000, 0.0000, 1.0601, 0.0136, -0.6586, 0.0000, 0.0000, -0.0054
5.0810, 0.0000, 0.0000, 0.0000, 0.0000, 0.0000, 0.0000, -0.0005, 0.0809, -0.2421, -0.0007, -0.0103, 0.0038, 442, 46042, -0.0019, -0.0000, -0.0010, 0.0000, 1.0601, 0.0136, -0.6586, 0.0000, 0.0000, -0.0081
5.1000, 0.0000, 0.0000, 0.0000, 0.0000, 0.0000, 0.0000, -0.0004, 0.0805, -0.2421, -0.0004, -0.0099, 0.0053, 443, 46042, -0.0026, -0.0000, -0.0019, 0.0000, 1.0602, 0.0136, -0.6587, 0.0000, 0.0000, -0.0107
5.1210, 0.0000, 0.0000, 0.0000, 0.0000, 0.0000, 0.0000, -0.0003, 0.0801, -0.2421, -0.0006, -0.0096, 0.0066, 444, 46042, -0.0031, -0.0000, -0.0030, 0.0000, 1.0601, 0.0136, -0.6586, 0.0000, 0.0000, -0.0132
5.1410, 0.0000, 0.0000, 0.0000, 0.0000, 0.0000, 0.0000, -0.0001, 0.0794, -0.2422, -0.0004, -0.0090, 0.0074, 445, 46042, -0.0037, -0.0000, -0.0043, 0.0000, 1.0602, 0.0136, -0.6586, 0.0000, 0.0000, -0.0160
5.1610, 0.0000, 0.0000, 0.0000, 0.0000, 0.0000, 0.0000, 0.0000, 0.0789, -0.2421, -0.0003, -0.0093, 0.0085, 446, 46042, -0.0045, -0.0001, -0.0056, 0.0000, 1.0601, 0.0136, -0.6586, 0.0000, 0.0000, -0.0186
5.1810, 0.0000, 0.0000, 0.0000, 0.0000, 0.0000, 0.0000, 0.0003, 0.0784, -0.2422, -0.0002, -0.0095, 0.0093, 447, 46042, -0.0052, -0.0001, -0.0071, 0.0000, 1.0602, 0.0136, -0.6585, 0.0000, 0.0000, -0.0213
5.2000, 0.0000, 0.0000, 0.0000, 0.0000, 0.0000, 0.0000, 0.0005, 0.0779, -0.2423, -0.0005, -0.0094, 0.0103, 448, 46042, -0.0059, -0.0001, -0.0087, 0.0000, 1.0601, 0.0137, -0.6587, 0.0000, 0.0000, -0.0239
5.2200, 0.0000, 0.0000, 0.0000, 0.0000, 0.0000, 0.0000, 0.0008, 0.0773, -0.2423, -0.0001, -0.0093, 0.0109, 449, 46042, -0.0069, -0.0001, -0.0102, 0.0000, 1.0602, 0.0136, -0.6586, 0.0000, 0.0000, -0.0264
5.2410, 0.0000, 0.0000, 0.0000, 0.0000, 0.0000, 0.0000, 0.0010, 0.0768, -0.2423, -0.0004, -0.0093, 0.0120, 450, 46042, -0.0077, -0.0001, -0.0120, 0.0000, 1.0602, 0.0136, -0.6586, 0.0000, 0.0000, -0.0290
5.2610, 0.0000, 0.0000, 0.0000, 0.0000, 0.0000, 0.0000, 0.0012, 0.0763, -0.2423, -0.0004, -0.0087, 0.0129, 451, 46042, -0.0087, -0.0001, -0.0136, 0.0000, 1.0601, 0.0137, -0.6586, 0.0000, 0.0000, -0.0318
5.2810, 0.0000, 0.0000, 0.0000, 0.0000, 0.0000, 0.0000, 0.0015, 0.0757, -0.2423, -0.0001, -0.0082, 0.0135, 452, 46042, -0.0095, -0.0001, -0.0155, 0.0000, 1.0601, 0.0136, -0.6586, 0.0000, 0.0000, -0.0345
5.3000, 0.0000, 0.0000, 0.0000, 0.0000, 0.0000, 0.0000, 0.0019, 0.0751, -0.2421, -0.0002, -0.0077, 0.0145, 453, 46042, -0.0106, -0.0001, -0.0172, 0.0000, 1.0602, 0.0135, -0.6585, 0.0000, 0.0000, -0.0371
5.3210, 0.0000, 0.0000, 0.0000, 0.0000, 0.0000, 0.0000, 0.0022, 0.0747, -0.2420, -0.0000, -0.0071, 0.0153, 454, 46042, -0.0114, -0.0001, -0.0191, 0.0000, 1.0602, 0.0136, -0.6586, 0.0000, 0.0000, -0.0396
5.3410, 0.0000, 0.0000, 0.0000, 0.0000, 0.0000, 0.0000, 0.0026, 0.0742, -0.2419, 0.0004, -0.0062, 0.0162, 455, 46042, -0.0126, -0.0002, -0.0209, 0.0000, 1.0602, 0.0136, -0.6586, 0.0000, 0.0000, -0.0424
5.3610, 0.0000, 0.0000, 0.0000, 0.0000, 0.0000, 0.0000, 0.0029, 0.0737, -0.2417, 0.0004, -0.0059, 0.0170, 456, 46042, -0.0135, -0.0002, -0.0229, 0.0000, 1.0601, 0.0136, -0.6586, 0.0000, 0.0000, -0.0450
5.3810, 0.0000, 0.0000, 0.0000, 0.0000, 0.0000, 0.0000, 0.0032, 0.0732, -0.2416, 0.0007, -0.0055, 0.0177, 457, 46042, -0.0145, -0.0002, -0.0248, 0.0000, 1.0601, 0.0135, -0.6586, 0.0000, 0.0000, -0.0477
5.4000, 0.0000, 0.0000, 0.0000, 0.0000, 0.0000, 0.0000, 0.0037, 0.0728, -0.2412, 0.0006, -0.0049, 0.0181, 458, 46042, -0.0155, -0.0002, -0.0267, 0.0000, 1.0601, 0.0137, -0.6586, 0.0000, 0.0000, -0.0503
5.4210, 0.0000, 0.0000, 0.0000, 0.0000, 0.0000, 0.0000, 0.0041, 0.0723, -0.2411, 0.0006, -0.0041, 0.0175, 459, 46042, -0.0165, -0.0002, -0.0287, 0.0000, 1.0601, 0.0136, -0.6586, 0.0000, 0.0000, -0.0528
5.4410, 0.0000, 0.0000, 0.0000, 0.0000, 0.0000, 0.0000, 0.0045, 0.0719, -0.2409, 0.0010, -0.0035, 0.0172, 460, 46042, -0.0176, -0.0002, -0.0306, 0.0000, 1.0601, 0.0135, -0.6586, 0.0000, 0.0000, -0.0556
5.4610, 0.0000, 0.0000, 0.0000, 0.0000, 0.0000, 0.0000, 0.0049, 0.0716, -0.2405, 0.0009, -0.0030, 0.0171, 461, 46042, -0.0186, -0.0002, -0.0326, 0.0000, 1.0601, 0.0136, -0.6585, 0.0000, 0.0000, -0.0582
5.4810, 0.0000, 0.0000, 0.0000, 0.0000, 0.0000, 0.0000, 0.0053, 0.0713, -0.2404, 0.0010, -0.0023, 0.0177, 462, 46042, -0.0197, -0.0003, -0.0346, 0.0000, 1.0601, 0.0136, -0.6586, 0.0000, 0.0000, -0.0609
5.5000, 0.0000, 0.0000, 0.0000, 0.0000, 0.0000, 0.0000, 0.0057, 0.0710, -0.2401, 0.0008, -0.0012, 0.0187, 463, 46042, -0.0208, -0.0003, -0.0366, 0.0000, 1.0601, 0.0136, -0.6585, 0.0000, 0.0000, -0.0635
5.5210, 0.0000, 0.0000, 0.0000, 0.0000, 0.0000, 0.0000, 0.0061, 0.0707, -0.2399, 0.0012, 0.0001, 0.0193, 464, 46042, -0.0216, -0.0003, -0.0387, 0.0000, 1.0602, 0.0136, -0.6586, 0.0000, 0.0000, -0.0660
5.5410, 0.0000, 0.0000, 0.0000, 0.0000, 0.0000, 0.0000, 0.0065, 0.0704, -0.2397, 0.0011, 0.0016, 0.0197, 465, 46042, -0.0229, -0.0003, -0.0407, 0.0000, 1.0601, 0.0136, -0.6585, 0.0000, 0.0000, -0.0688
5.5600, 0.0000, 0.0000, 0.0000, 0.0000, 0.0000, 0.0000, 0.0069, 0.0702, -0.2394, 0.0014, 0.0028, 0.0191, 466, 46042, -0.0237, -0.0003, -0.0429, 0.0000, 1.0602, 0.0137, -0.6586, 0.0000, 0.0000, -0.0714
5.5810, 0.0000, 0.0000, 0.0000, 0.0000, 0.0000, 0.0000, 0.0072, 0.0698, -0.2393, 0.0016, 0.0039, 0.0191, 467, 46042, -0.0250, -0.0003, -0.0447, 0.0000, 1.0601, 0.0135, -0.6587, 0.0000, 0.0000, -0.0739
5.6000, 0.0000, 0.0000, 0.0000, 0.0000, 0.0000, 0.0000, 0.0076, 0.0696, -0.2392, 0.0018, 0.0049, 0.0186, 468, 46042, -0.0258, -0.0003, -0.0470, 0.0000, 1.0601, 0.0136, -0.6585, 0.0000, 0.0000, -0.0767
5.6200, 0.0000, 0.0000, 0.0000, 0.0000, 0.0000, 0.0000, 0.0080, 0.0695, -0.2391, 0.0020, 0.0058, 0.0186, 469, 46042, -0.0269, -0.0003, -0.0490, 0.0000, 1.0602, 0.0136, -0.6586, 0.0000, 0.0000, -0.0792
5.6410, 0.0000, 0.0000, 0.0000, 0.0000, 0.0000, 0.0000, 0.0082, 0.0692, -0.2392, 0.0022, 0.0069, 0.0185, 470, 46042, -0.0281, -0.0004, -0.0510, 0.0000, 1.0601, 0.0136, -0.6586, 0.0000, 0.0000, -0.0818
5.6610, 0.0000, 0.0000, 0.0000, 0.0000, 0.0000, 0.0000, 0.0085, 0.0690, -0.2393, 0.0023, 0.0075, 0.0185, 471, 46042, -0.0290, -0.0004, -0.0532, 0.0000, 1.0601, 0.0136, -0.6585, 0.0000, 0.0000, -0.0846
5.6810, 0.0000, 0.0000, 0.0000, 0.0000, 0.0000, 0.0000, 0.0087, 0.0690, -0.2394, 0.0025, 0.0081, 0.0192, 472, 46042, -0.0302, -0.0004, -0.0552, 0.0000, 1.0601, 0.0136, -0.6586, 0.0000, 0.0000, -0.0873
5.7000, 0.0000, 0.0000, 0.0000, 0.0000, 0.0000, 0.0000, 0.0089, 0.0690, -0.2396, 0.0027, 0.0083, 0.0193, 473, 46042, -0.0311, -0.0004, -0.0574, 0.0000, 1.0602, 0.0136, -0.6585, 0.0000, 0.0000, -0.0899
5.7210, 0.0000, 0.0000, 0.0000, 0.0000, 0.0000, 0.0000, 0.0090, 0.0689, -0.2398, 0.0026, 0.0085, 0.0191, 474, 46042, -0.0322, -0.0004, -0.0595, 0.0000, 1.0601, 0.0136, -0.6586, 0.0000, 0.0000, -0.0924
5.7410, 0.0000, 0.0000, 0.0000, 0.0000, 0.0000, 0.0000, 0.0091, 0.0690, -0.2400, 0.0026, 0.0088, 0.0187, 475, 46042, -0.0333, -0.0004, -0.0616, 0.0000, 1.0601, 0.0135, -0.6586, 0.0000, 0.0000, -0.0952
5.7610, 0.0000, 0.0000, 0.0000, 0.0000, 0.0000, 0.0000, 0.0092, 0.0689, -0.2403, 0.0028, 0.0090, 0.0180, 476, 46042, -0.0343, -0.0004, -0.0638, 0.0000, 1.0601, 0.0136, -0.6586, 0.0000, 0.0000, -0.0978
5.7810, 0.0000, 0.0000, 0.0000, 0.0000, 0.0000, 0.0000, 0.0091, 0.0690, -0.2407, 0.0027, 0.0091, 0.0174, 477, 46042, -0.0354, -0.0005, -0.0658, 0.0000, 1.0601, 0.0136, -0.6586, 0.0000, 0.0000, -0.1005
5.8000, 0.0000, 0.0000, 0.0000, 0.0000, 0.0000, 0.0000, 0.0092, 0.0690, -0.2411, 0.0028, 0.0097, 0.0169, 478, 46042, -0.0363, -0.0005, -0.0681, 0.0000, 1.0601, 0.0136, -0.6586, 0.0000, 0.0000, -0.1031
5.8210, 0.0000, 0.0000, 0.0000, 0.0000, 0.0000, 0.0000, 0.0091, 0.0690, -0.2415, 0.0029, 0.0105, 0.0162, 479, 46042, -0.0375, -0.0005, -0.0701, 0.0000, 1.0601, 0.0136, -0.6585, 0.0000, 0.0000, -0.1056
5.8410, 0.0000, 0.0000, 0.0000, 0.0000, 0.0000, 0.0000, 0.0089, 0.0692, -0.2421, 0.0029, 0.0110, 0.0159, 480, 46042, -0.0384, -0.0005, -0.0724, 0.0000, 1.0601, 0.0136, -0.6585, 0.0000, 0.0000, -0.1084
5.8610, 0.0000, 0.0000, 0.0000, 0.0000, 0.0000, 0.0000, 0.0087, 0.0692, -0.2426, 0.0031, 0.0112, 0.0160, 481, 46042, -0.0395, -0.0005, -0.0745, 0.0000, 1.0601, 0.0136, -0.6586, 0.0000, 0.0000, -0.1110
5.8810, 0.0000, 0.0000, 0.0000, 0.0000, 0.0000, 0.0000, 0.0086, 0.0693, -0.2431, 0.0034, 0.0113, 0.0154, 482, 46042, -0.0406, -0.0005, -0.0766, 0.0000, 1.0601, 0.0135, -0.6585, 0.0000, 0.0000, -0.1137
5.9000, 0.0000, 0.0000, 0.0000, 0.0000, 0.0000, 0.0000, 0.0083, 0.0695, -0.2437, 0.0034, 0.0116, 0.0151, 483, 46042, -0.0415, -0.0005, -0.0789, 0.0000, 1.0602, 0.0136, -0.6586, 0.0000, 0.0000, -0.1163
