time (s), accel_x (m/s^2), accel_y (m/s^2), accel_z (m/s^2), gyro_x (rad/s), gyro_y (rad/s), gyro_z (rad/s), x (m), y (m), z (m), yaw (rad), pitch (rad), roll (rad), mocap_counter, counter, desired x, desired y, desired z, desired yaw
0.0000, 0.0000, 0.0000, 0.0000, 0.0000, 0.0000, 0.0000, 0.0219, -0.0253, -0.0843, 0.0866, 0.0007, 0.0257, 153, 771640, 0.0000, 0.0000, -0.0000, 0.0000, 1.3670, 0.0743, -0.7526, 0.0000, 0.0000, 0.0000
0.0200, 0.0000, 0.0000, 0.0000, 0.0000, 0.0000, 0.0000, 0.0219, -0.0254, -0.0843, 0.0870, 0.0013, 0.0255, 154, 771640, 0.0000, 0.0000, -0.0000, 0.0000, 1.3670, 0.0743, -0.7526, 0.0000, 0.0000, 0.0000
0.0400, 0.0000, 0.0000, 0.0000, 0.0000, 0.0000, 0.0000, 0.0217, -0.0254, -0.0843, 0.0867, 0.0020, 0.0252, 155, 771640, 0.0000, 0.0000, -0.0000, 0.0000, 1.3671, 0.0743, -0.7527, 0.0000, 0.0000, 0.0000
0.0600, 0.0000, 0.0000, 0.0000, 0.0000, 0.0000, 0.0000, 0.0218, -0.0254, -0.0843, 0.0869, 0.0023, 0.0257, 156, 771640, 0.0000, 0.0000, -0.0000, 0.0000, 1.3670, 0.0743, -0.7526, 0.0000, 0.0000, 0.0000
0.0800, 0.0000, 0.0000, 0.0000, 0.0000, 0.0000, 0.0000, 0.0218, -0.0255, -0.0844, 0.0870, 0.0027, 0.0250, 157, 771640, 0.0000, 0.0000, -0.0000, 0.0000, 1.3670, 0.0742, -0.7527, 0.0000, 0.0000, 0.0000
0.1000, 0.0000, 0.0000, 0.0000, 0.0000, 0.0000, 0.0000, 0.0216, -0.0253, -0.0841, 0.0868, 0.0033, 0.0251, 158, 771640, 0.0000, 0.0000, -0.0000, 0.0000, 1.3673, 0.0746, -0.7527, 0.0000, 0.0000, 0.0000
0.1200, 0.0000, 0.0000, 0.0000, 0.0000, 0.0000, 0.0000, 0.0216, -0.0254, -0.0843, 0.0874, 0.0041, 0.0253, 159, 771640, 0.0000, 0.0000, -0.0000, 0.0000, 1.3670, 0.0744, -0.7527, 0.0000, 0.0000, 0.0000
0.1400, 0.0000, 0.0000, 0.0000, 0.0000, 0.0000, 0.0000, 0.0215, -0.0255, -0.0843, 0.0868, 0.0046, 0.0250, 160, 771640, 0.0000, 0.0000, -0.0000, 0.0000, 1.3670, 0.0742, -0.7528, 0.0000, 0.0000, 0.0000
0.1600, 0.0000, 0.0000, 0.0000, 0.0000, 0.0000, 0.0000, 0.0216, -0.0254, -0.0841, 0.0868, 0.0048, 0.0258, 161, 771640, 0.0000, 0.0000, -0.0000, 0.0000, 1.3669, 0.0746, -0.7526, 0.0000, 0.0000, 0.0000
0.1800, 0.0000, 0.0000, 0.0000, 0.0000, 0.0000, 0.0000, 0.0215, -0.0255, -0.0842, 0.0870, 0.0047, 0.0249, 162, 771640, 0.0000, 0.0000, -0.0000, 0.0000, 1.3668, 0.0743, -0.7528, 0.0000, 0.0000, 0.0000
0.2000, 0.0000, 0.0000, 0.0000, 0.0000, 0.0000, 0.0000, 0.0216, -0.0254, -0.0843, 0.0871, 0.0044, 0.0257, 163, 771640, 0.0000, 0.0000, -0.0000, 0.0000, 1.3668, 0.0741, -0.7528, 0.0000, 0.0000, 0.0000
0.2200, 0.0000, 0.0000, 0.0000, 0.0000, 0.0000, 0.0000, 0.0216, -0.0254, -0.0843, 0.0868, 0.0039, 0.0257, 164, 771640, 0.0000, 0.0000, -0.0000, 0.0000, 1.3669, 0.0741, -0.7528, 0.0000, 0.0000, 0.0000
0.2400, 0.0000, 0.0000, 0.0000, 0.0000, 0.0000, 0.0000, 0.0216, -0.0254, -0.0843, 0.0870, 0.0032, 0.0257, 165, 771640, 0.0000, 0.0000, -0.0000, 0.0000, 1.3670, 0.0743, -0.7528, 0.0000, 0.0000, 0.0000
0.2600, 0.0000, 0.0000, 0.0000, 0.0000, 0.0000, 0.0000, 0.0217, -0.0253, -0.0842, 0.0868, 0.0031, 0.0262, 166, 771640, 0.0000, 0.0000, -0.0000, 0.0000, 1.3669, 0.0742, -0.7528, 0.0000, 0.0000, 0.0000
0.2800, 0.0000, 0.0000, 0.0000, 0.0000, 0.0000, 0.0000, 0.0218, -0.0254, -0.0844, 0.0867, 0.0024, 0.0256, 167, 771640, 0.0000, 0.0000, -0.0000, 0.0000, 1.3669, 0.0741, -0.7529, 0.0000, 0.0000, 0.0000
0.3000, 0.0000, 0.0000, 0.0000, 0.0000, 0.0000, 0.0000, 0.0218, -0.0253, -0.0843, 0.0869, 0.0018, 0.0262, 168, 771640, 0.0000, 0.0000, -0.0000, 0.0000, 1.3667, 0.0741, -0.7527, 0.0000, 0.0000, 0.0000
0.3200, 0.0000, 0.0000, 0.0000, 0.0000, 0.0000, 0.0000, 0.0218, -0.0253, -0.0843, 0.0867, 0.0017, 0.0258, 169, 771640, 0.0000, 0.0000, -0.0000, 0.0000, 1.3669, 0.0745, -0.7526, 0.0000, 0.0000, 0.0000
0.3400, 0.0000, 0.0000, 0.0000, 0.0000, 0.0000, 0.0000, 0.0217, -0.0253, -0.0843, 0.0870, 0.0011, 0.0263, 170, 771640, 0.0000, 0.0000, -0.0000, 0.0000, 1.3668, 0.0745, -0.7527, 0.0000, 0.0000, 0.0000
0.3600, 0.0000, 0.0000, 0.0000, 0.0000, 0.0000, 0.0000, 0.0220, -0.0253, -0.0843, 0.0868, 0.0011, 0.0262, 171, 771640, 0.0000, 0.0000, -0.0000, 0.0000, 1.3668, 0.0739, -0.7528, 0.0000, 0.0000, 0.0000
0.3800, 0.0000, 0.0000, 0.0000, 0.0000, 0.0000, 0.0000, 0.0219, -0.0252, -0.0842, 0.0870, 0.0007, 0.0261, 172, 771640, 0.0000, 0.0000, -0.0000, 0.0000, 1.3669, 0.0741, -0.7530, 0.0000, 0.0000, 0.0000
0.4000, 0.0000, 0.0000, 0.0000, 0.0000, 0.0000, 0.0000, 0.0220, -0.0254, -0.0842, 0.0869, 0.0009, 0.0264, 173, 771640, 0.0000, 0.0000, -0.0000, 0.0000, 1.3669, 0.0742, -0.7529, 0.0000, 0.0000, 0.0000
0.4200, 0.0000, 0.0000, 0.0000, 0.0000, 0.0000, 0.0000, 0.0218, -0.0253, -0.0844, 0.0869, 0.0008, 0.0259, 174, 771640, 0.0000, 0.0000, -0.0000, 0.0000, 1.3669, 0.0740, -0.7529, 0.0000, 0.0000, 0.0000
0.4400, 0.0000, 0.0000, 0.0000, 0.0000, 0.0000, 0.0000, 0.0219, -0.0253, -0.0843, 0.0869, 0.0009, 0.0261, 175, 771640, 0.0000, 0.0000, -0.0000, 0.0000, 1.3669, 0.0743, -0.7528, 0.0000, 0.0000, 0.0000
0.4600, 0.0000, 0.0000, 0.0000, 0.0000, 0.0000, 0.0000, 0.0219, -0.0253, -0.0842, 0.0870, 0.0011, 0.0259, 176, 771640, 0.0000, 0.0000, -0.0000, 0.0000, 1.3671, 0.0743, -0.7527, 0.0000, 0.0000, 0.0000
0.4800, 0.0000, 0.0000, 0.0000, 0.0000, 0.0000, 0.0000, 0.0218, -0.0253, -0.0843, 0.0868, 0.0013, 0.0257, 177, 771640, 0.0000, 0.0000, -0.0000, 0.0000, 1.3669, 0.0742, -0.7530, 0.0000, 0.0000, 0.0000
0.5000, 0.0000, 0.0000, 0.0000, 0.0000, 0.0000, 0.0000, 0.0219, -0.0254, -0.0844, 0.0867, 0.0019, 0.0256, 178, 771640, 0.0000, 0.0000, -0.0000, 0.0000, 1.3672, 0.0742, -0.7528, 0.0000, 0.0000, 0.0000
0.5200, 0.0000, 0.0000, 0.0000, 0.0000, 0.0000, 0.0000, 0.0218, -0.0254, -0.0844, 0.0864, 0.0017, 0.0254, 179, 771640, 0.0000, 0.0000, -0.0000, 0.0000, 1.3672, 0.0741, -0.7528, 0.0000, 0.0000, 0.0000
0.5400, 0.0000, 0.0000, 0.0000, 0.0000, 0.0000, 0.0000, 0.0219, -0.0253, -0.0843, 0.0868, 0.0014, 0.0266, 180, 771640, 0.0000, 0.0000, -0.0000, 0.0000, 1.3672, 0.0743, -0.7528, 0.0000, 0.0000, 0.0000
0.5600, 0.0000, 0.0000, 0.0000, 0.0000, 0.0000, 0.0000, 0.0218, -0.0253, -0.0842, 0.0872, 0.0011, 0.0260, 181, 771640, 0.0000, 0.0000, -0.0000, 0.0000, 1.3672, 0.0743, -0.7527, 0.0000, 0.0000, 0.0000
0.5800, 0.0000, 0.0000, 0.0000, 0.0000, 0.0000, 0.0000, 0.0219, -0.0253, -0.0844, 0.0869, 0.0008, 0.0258, 182, 771640, 0.0000, 0.0000, -0.0000, 0.0000, 1.3670, 0.0743, -0.7527, 0.0000, 0.0000, 0.0000
0.6000, 0.0000, 0.0000, 0.0000, 0.0000, 0.0000, 0.0000, 0.0219, -0.0253, -0.0843, 0.0872, 0.0003, 0.0254, 183, 771640, 0.0000, 0.0000, -0.0000, 0.0000, 1.3671, 0.0744, -0.7526, 0.0000, 0.0000, 0.0000
0.6200, 0.0000, 0.0000, 0.0000, 0.0000, 0.0000, 0.0000, 0.0220, -0.0253, -0.0843, 0.0869, -0.0001, 0.0256, 184, 771640, 0.0000, 0.0000, -0.0000, 0.0000, 1.3670, 0.0744, -0.7526, 0.0000, 0.0000, 0.0000
0.6400, 0.0000, 0.0000, 0.0000, 0.0000, 0.0000, 0.0000, 0.0220, -0.0254, -0.0845, 0.0869, -0.0012, 0.0257, 185, 771640, 0.0000, 0.0000, -0.0000, 0.0000, 1.3670, 0.0743, -0.7526, 0.0000, 0.0000, 0.0000
0.6600, 0.0000, 0.0000, 0.0000, 0.0000, 0.0000, 0.0000, 0.0221, -0.0253, -0.0844, 0.0867, -0.0014, 0.0255, 186, 771640, 0.0000, 0.0000, -0.0000, 0.0000, 1.3668, 0.0743, -0.7524, 0.0000, 0.0000, 0.0000
0.6800, 0.0000, 0.0000, 0.0000, 0.0000, 0.0000, 0.0000, 0.0221, -0.0254, -0.0844, 0.0867, -0.0019, 0.0259, 187, 771640, 0.0000, 0.0000, -0.0000, 0.0000, 1.3667, 0.0745, -0.7524, 0.0000, 0.0000, 0.0000
0.7000, 0.0000, 0.0000, 0.0000, 0.0000, 0.0000, 0.0000, 0.0221, -0.0253, -0.0845, 0.0869, -0.0026, 0.0249, 188, 771640, 0.0000, 0.0000, -0.0000, 0.0000, 1.3669, 0.0744, -0.7525, 0.0000, 0.0000, 0.0000
0.7200, 0.0000, 0.0000, 0.0000, 0.0000, 0.0000, 0.0000, 0.0221, -0.0254, -0.0844, 0.0868, -0.0028, 0.0252, 189, 771640, 0.0000, 0.0000, -0.0000, 0.0000, 1.3668, 0.0743, -0.7524, 0.0000, 0.0000, 0.0000
0.7400, 0.0000, 0.0000, 0.0000, 0.0000, 0.0000, 0.0000, 0.0222, -0.0254, -0.0845, 0.0868, -0.0021, 0.0245, 190, 771640, 0.0000, 0.0000, -0.0000, 0.0000, 1.3670, 0.0742, -0.7526, 0.0000, 0.0000, 0.0000
0.7600, 0.0000, 0.0000, 0.0000, 0.0000, 0.0000, 0.0000, 0.0221, -0.0253, -0.0843, 0.0867, -0.0022, 0.0253, 191, 771640, 0.0000, 0.0000, -0.0000, 0.0000, 1.3670, 0.0743, -0.7526, 0.0000, 0.0000, 0.0000
0.7800, 0.0000, 0.0000, 0.0000, 0.0000, 0.0000, 0.0000, 0.0220, -0.0254, -0.0844, 0.0869, -0.0012, 0.0249, 192, 771640, 0.0000, 0.0000, -0.0000, 0.0000, 1.3669, 0.0743, -0.7526, 0.0000, 0.0000, 0.0000
0.8000, 0.0000, 0.0000, 0.0000, 0.0000, 0.0000, 0.0000, 0.0220, -0.0254, -0.0844, 0.0869, -0.0008, 0.0244, 193, 771640, 0.0000, 0.0000, -0.0000, 0.0000, 1.3668, 0.0742, -0.7526, 0.0000, 0.0000, 0.0000
0.8200, 0.0000, 0.0000, 0.0000, 0.0000, 0.0000, 0.0000, 0.0220, -0.0254, -0.0844, 0.0868, -0.0003, 0.0255, 194, 771640, 0.0000, 0.0000, -0.0000, 0.0000, 1.3669, 0.0742, -0.7526, 0.0000, 0.0000, 0.0000
0.8400, 0.0000, 0.0000, 0.0000, 0.0000, 0.0000, 0.0000, 0.0220, -0.0254, -0.0842, 0.0871, -0.0001, 0.0246, 195, 771640, 0.0000, 0.0000, -0.0000, 0.0000, 1.3667, 0.0744, -0.7523, 0.0000, 0.0000, 0.0000
0.8600, 0.0000, 0.0000, 0.0000, 0.0000, 0.0000, 0.0000, 0.0219, -0.0253, -0.0845, 0.0871, 0.0001, 0.0248, 196, 771640, 0.0000, 0.0000, -0.0000, 0.0000, 1.3667, 0.0745, -0.7522, 0.0000, 0.0000, 0.0000
0.8800, 0.0000, 0.0000, 0.0000, 0.0000, 0.0000, 0.0000, 0.0220, -0.0254, -0.0843, 0.0869, 0.0003, 0.0247, 197, 771640, 0.0000, 0.0000, -0.0000, 0.0000, 1.3667, 0.0744, -0.7525, 0.0000, 0.0000, 0.0000
0.9000, 0.0000, 0.0000, 0.0000, 0.0000, 0.0000, 0.0000, 0.0220, -0.0254, -0.0843, 0.0870, 0.0000, 0.0248, 198, 771640, 0.0000, 0.0000, -0.0000, 0.0000, 1.3669, 0.0744, -0.7524, 0.0000, 0.0000, 0.0000
0.9200, 0.0000, 0.0000, 0.0000, 0.0000, 0.0000, 0.0000, 0.0219, -0.0253, -0.0844, 0.0869, -0.0001, 0.0253, 199, 771640, 0.0000, 0.0000, -0.0000, 0.0000, 1.3669, 0.0743, -0.7524, 0.0000, 0.0000, 0.0000
0.9400, 0.0000, 0.0000, 0.0000, 0.0000, 0.0000, 0.0000, 0.0220, -0.0254, -0.0844, 0.0869, -0.0005, 0.0245, 200, 771640, 0.0000, 0.0000, -0.0000, 0.0000, 1.3669, 0.0743, -0.7524, 0.0000, 0.0000, 0.0000
0.9600, 0.0000, 0.0000, 0.0000, 0.0000, 0.0000, 0.0000, 0.0221, -0.0254, -0.0845, 0.0867, -0.0011, 0.0253, 201, 771640, 0.0000, 0.0000, -0.0000, 0.0000, 1.3668, 0.0742, -0.7524, 0.0000, 0.0000, 0.0000
0.9800, 0.0000, 0.0000, 0.0000, 0.0000, 0.0000, 0.0000, 0.0221, -0.0252, -0.0845, 0.0865, -0.0021, 0.0255, 202, 771640, 0.0000, 0.0000, -0.0000, 0.0000, 1.3669, 0.0744, -0.7524, 0.0000, 0.0000, 0.0000
1.0000, 0.0000, 0.0000, 0.0000, 0.0000, 0.0000, 0.0000, 0.0221, -0.0253, -0.0847, 0.0867, -0.0028, 0.0248, 203, 771640, 0.0000, 0.0000, -0.0000, 0.0000, 1.3669, 0.0743, -0.7525, 0.0000, 0.0000, 0.0000
1.0200, 0.0000, 0.0000, 0.0000, 0.0000, 0.0000, 0.0000, 0.0220, -0.0253, -0.0851, 0.0867, -0.0039, 0.0245, 204, 771640, 0.0000, 0.0000, -0.0000, 0.0000, 1.3669, 0.0742, -0.7525, 0.0000, 0.0000, 0.0000
1.0400, 0.0000, 0.0000, 0.0000, 0.0000, 0.0000, 0.0000, 0.0222, -0.0253, -0.0855, 0.0868, -0.0051, 0.0241, 205, 771640, 0.0000, 0.0000, -0.0000, 0.0000, 1.3669, 0.0743, -0.7524, 0.0000, 0.0000, 0.0000
1.0600, 0.0000, 0.0000, 0.0000, 0.0000, 0.0000, 0.0000, 0.0222, -0.0251, -0.0857, 0.0870, -0.0060, 0.0237, 206, 771640, 0.0000, 0.0000, -0.0000, 0.0000, 1.3669, 0.0746, -0.7524, 0.0000, 0.0000, 0.0000
1.0800, 0.0000, 0.0000, 0.0000, 0.0000, 0.0000, 0.0000, 0.0224, -0.0250, -0.0862, 0.0869, -0.0071, 0.0244, 207, 771640, 0.0000, 0.0000, -0.0000, 0.0000, 1.3670, 0.0744, -0.7525, 0.0000, 0.0000, 0.0000
1.1000, 0.0000, 0.0000, 0.0000, 0.0000, 0.0000, 0.0000, 0.0225, -0.0248, -0.0872, 0.0871, -0.0092, 0.0236, 208, 771640, 0.0000, 0.0000, -0.0000, 0.0000, 1.3668, 0.0743, -0.7523, 0.0000, 0.0000, 0.0000
1.1200, 0.0000, 0.0000, 0.0000, 0.0000, 0.0000, 0.0000, 0.0228, -0.0245, -0.0888, 0.0853, -0.0122, 0.0250, 209, 771640, 0.0000, 0.0000, -0.0000, 0.0000, 1.3669, 0.0743, -0.7524, 0.0000, 0.0000, 0.0000
1.1400, 0.0000, 0.0000, 0.0000, 0.0000, 0.0000, 0.0000, 0.0229, -0.0240, -0.0900, 0.0847, -0.0146, 0.0292, 210, 771640, 0.0000, 0.0000, -0.0000, 0.0000, 1.3670, 0.0745, -0.7525, 0.0000, 0.0000, 0.0000
1.1600, 0.0000, 0.0000, 0.0000, 0.0000, 0.0000, 0.0000, 0.0233, -0.0236, -0.0929, 0.0833, -0.0157, 0.0310, 211, 771640, 0.0000, 0.0000, -0.0000, 0.0000, 1.3671, 0.0744, -0.7525, 0.0000, 0.0000, 0.0000
1.1800, 0.0000, 0.0000, 0.0000, 0.0000, 0.0000, 0.0000, 0.0235, -0.0230, -0.0957, 0.0821, -0.0162, 0.0341, 212, 771640, 0.0000, 0.0000, -0.0000, 0.0000, 1.3671, 0.0745, -0.7525, 0.0000, 0.0000, 0.0000
1.2000, 0.0000, 0.0000, 0.0000, 0.0000, 0.0000, 0.0000, 0.0240, -0.0222, -0.0987, 0.0806, -0.0157, 0.0368, 213, 771640, 0.0000, 0.0000, -0.0000, 0.0000, 1.3672, 0.0745, -0.7525, 0.0000, 0.0000, 0.0000
1.2200, 0.0000, 0.0000, 0.0000, 0.0000, 0.0000, 0.0000, 0.0244, -0.0215, -0.1025, 0.0789, -0.0157, 0.0382, 214, 771640, 0.0000, 0.0000, -0.0000, 0.0000, 1.3672, 0.0746, -0.7525, 0.0000, 0.0000, 0.0000
1.2400, 0.0000, 0.0000, 0.0000, 0.0000, 0.0000, 0.0000, 0.0249, -0.0208, -0.1062, 0.0778, -0.0151, 0.0395, 215, 771640, 0.0000, 0.0000, -0.0000, 0.0000, 1.3674, 0.0744, -0.7529, 0.0000, 0.0000, 0.0000
1.2600, 0.0000, 0.0000, 0.0000, 0.0000, 0.0000, 0.0000, 0.0255, -0.0198, -0.1105, 0.0749, -0.0149, 0.0407, 216, 771640, 0.0000, 0.0000, -0.0000, 0.0000, 1.3673, 0.0743, -0.7527, 0.0000, 0.0000, 0.0000
1.2790, 0.0000, 0.0000, 0.0000, 0.0000, 0.0000, 0.0000, 0.0261, -0.0185, -0.1149, 0.0736, -0.0153, 0.0447, 217, 771640, 0.0000, 0.0000, -0.0000, 0.0000, 1.3674, 0.0744, -0.7528, 0.0000, 0.0000, 0.0000
1.3000, 0.0000, 0.0000, 0.0000, 0.0000, 0.0000, 0.0000, 0.0268, -0.0172, -0.1203, 0.0712, -0.0143, 0.0468, 218, 771640, 0.0000, 0.0000, -0.0000, 0.0000, 1.3675, 0.0745, -0.7528, 0.0000, 0.0000, 0.0000
1.3200, 0.0000, 0.0000, 0.0000, 0.0000, 0.0000, 0.0000, 0.0278, -0.0157, -0.1263, 0.0689, -0.0150, 0.0457, 219, 771640, 0.0000, 0.0000, -0.0000, 0.0000, 1.3674, 0.0745, -0.7528, 0.0000, 0.0000, 0.0000
1.3400, 0.0000, 0.0000, 0.0000, 0.0000, 0.0000, 0.0000, 0.0284, -0.0142, -0.1320, 0.0675, -0.0155, 0.0474, 220, 771640, 0.0000, 0.0000, -0.0000, 0.0000, 1.3672, 0.0743, -0.7527, 0.0000, 0.0000, 0.0000
1.3600, 0.0000, 0.0000, 0.0000, 0.0000, 0.0000, 0.0000, 0.0292, -0.0126, -0.1383, 0.0658, -0.0152, 0.0443, 221, 771640, 0.0000, 0.0000, -0.0000, 0.0000, 1.3671, 0.0742, -0.7526, 0.0000, 0.0000, 0.0000
1.3800, 0.0000, 0.0000, 0.0000, 0.0000, 0.0000, 0.0000, 0.0301, -0.0108, -0.1446, 0.0634, -0.0136, 0.0423, 222, 771640, 0.0000, 0.0000, -0.0000, 0.0000, 1.3670, 0.0742, -0.7526, 0.0000, 0.0000, 0.0000
1.4000, 0.0000, 0.0000, 0.0000, 0.0000, 0.0000, 0.0000, 0.0308, -0.0090, -0.1506, 0.0616, -0.0125, 0.0388, 223, 771640, 0.0000, 0.0000, -0.0000, 0.0000, 1.3669, 0.0743, -0.7525, 0.0000, 0.0000, 0.0000
1.4200, 0.0000, 0.0000, 0.0000, 0.0000, 0.0000, 0.0000, 0.0315, -0.0070, -0.1573, 0.0595, -0.0114, 0.0359, 224, 771640, 0.0000, 0.0000, -0.0000, 0.0000, 1.3670, 0.0743, -0.7527, 0.0000, 0.0000, 0.0000
1.4400, 0.0000, 0.0000, 0.0000, 0.0000, 0.0000, 0.0000, 0.0326, -0.0045, -0.1637, 0.0577, -0.0106, 0.0346, 225, 771640, 0.0000, 0.0000, -0.0000, 0.0000, 1.3671, 0.0744, -0.7526, 0.0000, 0.0000, 0.0000
1.4590, 0.0000, 0.0000, 0.0000, 0.0000, 0.0000, 0.0000, 0.0336, -0.0023, -0.1710, 0.0559, -0.0103, 0.0331, 226, 771640, 0.0000, 0.0000, -0.0000, 0.0000, 1.3669, 0.0742, -0.7526, 0.0000, 0.0000, 0.0000
1.4800, 0.0000, 0.0000, 0.0000, 0.0000, 0.0000, 0.0000, 0.0345, 0.0004, -0.1784, 0.0539, -0.0094, 0.0325, 227, 771640, 0.0000, 0.0000, -0.0000, 0.0000, 1.3670, 0.0744, -0.7526, 0.0000, 0.0000, 0.0000
1.5000, 0.0000, 0.0000, 0.0000, 0.0000, 0.0000, 0.0000, 0.0354, 0.0033, -0.1858, 0.0521, -0.0080, 0.0311, 228, 771640, 0.0000, 0.0000, -0.0000, 0.0000, 1.3670, 0.0744, -0.7525, 0.0000, 0.0000, 0.0000
1.5200, 0.0000, 0.0000, 0.0000, 0.0000, 0.0000, 0.0000, 0.0363, 0.0060, -0.1937, 0.0502, -0.0065, 0.0290, 229, 771640, 0.0000, 0.0000, -0.0000, 0.0000, 1.3669, 0.0743, -0.7527, 0.0000, 0.0000, 0.0000
1.5400, 0.0000, 0.0000, 0.0000, 0.0000, 0.0000, 0.0000, 0.0372, 0.0091, -0.2011, 0.0484, -0.0058, 0.0276, 230, 771640, 0.0000, 0.0000, -0.0000, 0.0000, 1.3668, 0.0743, -0.7526, 0.0000, 0.0000, 0.0000
1.5600, 0.0000, 0.0000, 0.0000, 0.0000, 0.0000, 0.0000, 0.0381, 0.0122, -0.2088, 0.0470, -0.0037, 0.0248, 231, 771640, 0.0000, 0.0000, -0.0000, 0.0000, 1.3670, 0.0744, -0.7527, 0.0000, 0.0000, 0.0000
1.5800, 0.0000, 0.0000, 0.0000, 0.0000, 0.0000, 0.0000, 0.0392, 0.0155, -0.2165, 0.0454, -0.0024, 0.0223, 232, 771640, 0.0000, 0.0000, -0.0000, 0.0000, 1.3670, 0.0745, -0.7527, 0.0000, 0.0000, 0.0000
1.6000, 0.0000, 0.0000, 0.0000, 0.0000, 0.0000, 0.0000, 0.0401, 0.0187, -0.2241, 0.0435, -0.0006, 0.0201, 233, 771640, 0.0000, 0.0000, -0.0000, 0.0000, 1.3670, 0.0743, -0.7528, 0.0000, 0.0000, 0.0000
1.6200, 0.0000, 0.0000, 0.0000, 0.0000, 0.0000, 0.0000, 0.0408, 0.0220, -0.2314, 0.0421, 0.0005, 0.0170, 234, 771640, 0.0000, 0.0000, -0.0000, 0.0000, 1.3670, 0.0743, -0.7527, 0.0000, 0.0000, 0.0000
1.6400, 0.0000, 0.0000, 0.0000, 0.0000, 0.0000, 0.0000, 0.0417, 0.0255, -0.2384, 0.0406, 0.0016, 0.0133, 235, 771640, 0.0000, 0.0000, -0.0000, 0.0000, 1.3671, 0.0745, -0.7525, 0.0000, 0.0000, 0.0000
1.6600, 0.0000, 0.0000, 0.0000, 0.0000, 0.0000, 0.0000, 0.0427, 0.0288, -0.2451, 0.0396, 0.0022, 0.0107, 236, 771640, 0.0000, 0.0000, -0.0000, 0.0000, 1.3671, 0.0746, -0.7528, 0.0000, 0.0000, 0.0000
1.6800, 0.0000, 0.0000, 0.0000, 0.0000, 0.0000, 0.0000, 0.0434, 0.0322, -0.2518, 0.0380, 0.0035, 0.0086, 237, 771640, 0.0000, 0.0000, -0.0000, 0.0000, 1.3672, 0.0745, -0.7528, 0.0000, 0.0000, 0.0000
1.7000, 0.0000, 0.0000, 0.0000, 0.0000, 0.0000, 0.0000, 0.0440, 0.0356, -0.2582, 0.0371, 0.0045, 0.0059, 238, 771640, 0.0000, 0.0000, -0.0000, 0.0000, 1.3675, 0.0742, -0.7530, 0.0000, 0.0000, 0.0000
1.7200, 0.0000, 0.0000, 0.0000, 0.0000, 0.0000, 0.0000, 0.0446, 0.0391, -0.2642, 0.0357, 0.0045, 0.0033, 239, 771640, 0.0000, 0.0000, -0.0000, 0.0000, 1.3672, 0.0747, -0.7525, 0.0000, 0.0000, 0.0000
1.7400, 0.0000, 0.0000, 0.0000, 0.0000, 0.0000, 0.0000, 0.0455, 0.0424, -0.2702, 0.0346, 0.0046, 0.0005, 240, 771640, 0.0000, 0.0000, -0.0000, 0.0000, 1.3672, 0.0747, -0.7525, 0.0000, 0.0000, 0.0000
1.7600, 0.0000, 0.0000, 0.0000, 0.0000, 0.0000, 0.0000, 0.0463, 0.0457, -0.2758, 0.0334, 0.0043, -0.0023, 241, 771640, 0.0000, 0.0000, -0.0000, 0.0000, 1.3670, 0.0744, -0.7521, 0.0000, 0.0000, 0.0000
1.7790, 0.0000, 0.0000, 0.0000, 0.0000, 0.0000, 0.0000, 0.0468, 0.0492, -0.2812, 0.0326, 0.0049, -0.0045, 242, 771640, 0.0000, 0.0000, -0.0000, 0.0000, 1.3669, 0.0744, -0.7514, 0.0000, 0.0000, 0.0000
1.7990, 0.0000, 0.0000, 0.0000, 0.0000, 0.0000, 0.0000, 0.0474, 0.0524, -0.2864, 0.0316, 0.0056, -0.0078, 243, 771640, 0.0000, 0.0000, -0.0000, 0.0000, 1.3670, 0.0740, -0.7518, 0.0000, 0.0000, 0.0000
1.8200, 0.0000, 0.0000, 0.0000, 0.0000, 0.0000, 0.0000, 0.0479, 0.0556, -0.2914, 0.0306, 0.0055, -0.0095, 244, 771640, 0.0000, 0.0000, -0.0000, 0.0000, 1.3666, 0.0737, -0.7522, 0.0000, 0.0000, 0.0000
1.8400, 0.0000, 0.0000, 0.0000, 0.0000, 0.0000, 0.0000, 0.0486, 0.0587, -0.2963, 0.0299, 0.0049, -0.0125, 245, 771640, 0.0000, 0.0000, -0.0000, 0.0000, 1.3669, 0.0739, -0.7522, 0.0000, 0.0000, 0.0000
1.8590, 0.0000, 0.0000, 0.0000, 0.0000, 0.0000, 0.0000, 0.0490, 0.0619, -0.3008, 0.0290, 0.0045, -0.0144, 246, 771640, 0.0000, 0.0000, -0.0000, 0.0000, 1.3674, 0.0744, -0.7523, 0.0000, 0.0000, 0.0000
1.8800, 0.0000, 0.0000, 0.0000, 0.0000, 0.0000, 0.0000, 0.0495, 0.0649, -0.3054, 0.0284, 0.0048, -0.0178, 247, 771640, 0.0000, 0.0000, -0.0000, 0.0000, 1.3674, 0.0748, -0.7524, 0.0000, 0.0000, 0.0000
1.9000, 0.0000, 0.0000, 0.0000, 0.0000, 0.0000, 0.0000, 0.0499, 0.0678, -0.3097, 0.0276, 0.0049, -0.0193, 248, 771640, 0.0000, 0.0000, -0.0000, 0.0000, 1.3674, 0.0745, -0.7524, 0.0000, 0.0000, 0.0000
1.9200, 0.0000, 0.0000, 0.0000, 0.0000, 0.0000, 0.0000, 0.0503, 0.0705, -0.3138, 0.0268, 0.0042, -0.0218, 249, 771640, 0.0000, 0.0000, -0.0000, 0.0000, 1.3677, 0.0744, -0.7527, 0.0000, 0.0000, 0.0000
1.9400, 0.0000, 0.0000, 0.0000, 0.0000, 0.0000, 0.0000, 0.0508, 0.0733, -0.3180, 0.0262, 0.0036, -0.0231, 250, 771640, 0.0000, 0.0000, -0.0000, 0.0000, 1.3676, 0.0745, -0.7527, 0.0000, 0.0000, 0.0000
1.9600, 0.0000, 0.0000, 0.0000, 0.0000, 0.0000, 0.0000, 0.0510, 0.0760, -0.3221, 0.0255, 0.0029, -0.0237, 251, 771640, 0.0000, 0.0000, -0.0000, 0.0000, 1.3676, 0.0745, -0.7527, 0.0000, 0.0000, 0.0000
1.9800, 0.0000, 0.0000, 0.0000, 0.0000, 0.0000, 0.0000, 0.0513, 0.0785, -0.3262, 0.0246, 0.0034, -0.0243, 252, 771640, 0.0000, 0.0000, -0.0000, 0.0000, 1.3673, 0.0744, -0.7527, 0.0000, 0.0000, 0.0000
2.0000, 0.0000, 0.0000, 0.0000, 0.0000, 0.0000, 0.0000, 0.0514, 0.0810, -0.3302, 0.0241, 0.0031, -0.0258, 253, 771640, 0.0000, 0.0000, -0.0000, 0.0000, 1.3676, 0.0745, -0.7526, 0.0000, 0.0000, 0.0000
2.0200, 0.0000, 0.0000, 0.0000, 0.0000, 0.0000, 0.0000, 0.0516, 0.0834, -0.3345, 0.0235, 0.0033, -0.0270, 254, 771640, 0.0000, 0.0000, -0.0000, 0.0000, 1.3677, 0.0747, -0.7526, 0.0000, 0.0000, 0.0000
2.0400, 0.0000, 0.0000, 0.0000, 0.0000, 0.0000, 0.0000, 0.0518, 0.0854, -0.3384, 0.0230, 0.0029, -0.0276, 255, 771640, 0.0000, 0.0000, -0.0000, 0.0000, 1.3675, 0.0745, -0.7526, 0.0000, 0.0000, 0.0000
2.0600, 0.0000, 0.0000, 0.0000, 0.0000, 0.0000, 0.0000, 0.0519, 0.0875, -0.3426, 0.0227, 0.0029, -0.0280, 256, 771640, 0.0000, 0.0000, -0.0000, 0.0000, 1.3673, 0.0744, -0.7527, 0.0000, 0.0000, 0.0000
2.0800, 0.0000, 0.0000, 0.0000, 0.0000, 0.0000, 0.0000, 0.0520, 0.0895, -0.3463, 0.0220, 0.0030, -0.0287, 257, 771640, 0.0000, 0.0000, -0.0000, 0.0000, 1.3672, 0.0746, -0.7526, 0.0000, 0.0000, 0.0000
2.1000, 0.0000, 0.0000, 0.0000, 0.0000, 0.0000, 0.0000, 0.0519, 0.0913, -0.3504, 0.0214, 0.0025, -0.0283, 258, 771640, 0.0000, 0.0000, -0.0000, 0.0000, 1.3671, 0.0744, -0.7526, 0.0000, 0.0000, 0.0000
2.1200, 0.0000, 0.0000, 0.0000, 0.0000, 0.0000, 0.0000, 0.0520, 0.0930, -0.3543, 0.0211, 0.0017, -0.0285, 259, 771640, 0.0000, 0.0000, -0.0000, 0.0000, 1.3672, 0.0744, -0.7526, 0.0000, 0.0000, 0.0000
2.1400, 0.0000, 0.0000, 0.0000, 0.0000, 0.0000, 0.0000, 0.0520, 0.0945, -0.3582, 0.0209, 0.0005, -0.0283, 260, 771640, 0.0000, 0.0000, -0.0000, 0.0000, 1.3672, 0.0743, -0.7525, 0.0000, 0.0000, 0.0000
2.1600, 0.0000, 0.0000, 0.0000, 0.0000, 0.0000, 0.0000, 0.0520, 0.0963, -0.3618, 0.0208, 0.0000, -0.0276, 261, 771640, 0.0000, 0.0000, -0.0000, 0.0000, 1.3673, 0.0745, -0.7525, 0.0000, 0.0000, 0.0000
2.1800, 0.0000, 0.0000, 0.0000, 0.0000, 0.0000, 0.0000, 0.0519, 0.0976, -0.3658, 0.0202, -0.0015, -0.0273, 262, 771640, 0.0000, 0.0000, -0.0000, 0.0000, 1.3677, 0.0746, -0.7526, 0.0000, 0.0000, 0.0000
2.2000, 0.0000, 0.0000, 0.0000, 0.0000, 0.0000, 0.0000, 0.0518, 0.0987, -0.3695, 0.0199, -0.0022, -0.0263, 263, 771640, 0.0000, 0.0000, -0.0000, 0.0000, 1.3675, 0.0746, -0.7526, 0.0000, 0.0000, 0.0000
2.2200, 0.0000, 0.0000, 0.0000, 0.0000, 0.0000, 0.0000, 0.0517, 0.0998, -0.3731, 0.0195, -0.0030, -0.0260, 264, 771640, 0.0000, 0.0000, -0.0000, 0.0000, 1.3675, 0.0745, -0.7525, 0.0000, 0.0000, 0.0000
2.2400, 0.0000, 0.0000, 0.0000, 0.0000, 0.0000, 0.0000, 0.0515, 0.1009, -0.3765, 0.0194, -0.0027, -0.0254, 265, 771640, 0.0000, 0.0000, -0.0000, 0.0000, 1.3676, 0.0747, -0.7526, 0.0000, 0.0000, 0.0000
2.2600, 0.0000, 0.0000, 0.0000, 0.0000, 0.0000, 0.0000, 0.0513, 0.1018, -0.3800, 0.0192, -0.0030, -0.0250, 266, 771640, 0.0000, 0.0000, -0.0000, 0.0000, 1.3673, 0.0745, -0.7525, 0.0000, 0.0000, 0.0000
2.2800, 0.0000, 0.0000, 0.0000, 0.0000, 0.0000, 0.0000, 0.0511, 0.1024, -0.3832, 0.0189, -0.0022, -0.0243, 267, 771640, 0.0000, 0.0000, -0.0000, 0.0000, 1.3675, 0.0744, -0.7526, 0.0000, 0.0000, 0.0000
2.3000, 0.0000, 0.0000, 0.0000, 0.0000, 0.0000, 0.0000, 0.0509, 0.1032, -0.3865, 0.0187, -0.0030, -0.0238, 268, 771640, 0.0000, 0.0000, -0.0000, 0.0000, 1.3674, 0.0745, -0.7525, 0.0000, 0.0000, 0.0000
2.3200, 0.0000, 0.0000, 0.0000, 0.0000, 0.0000, 0.0000, 0.0508, 0.1038, -0.3896, 0.0185, -0.0036, -0.0224, 269, 771640, 0.0000, 0.0000, -0.0000, 0.0000, 1.3674, 0.0745, -0.7525, 0.0000, 0.0000, 0.0000
2.3400, 0.0000, 0.0000, 0.0000, 0.0000, 0.0000, 0.0000, 0.0506, 0.1043, -0.3928, 0.0180, -0.0045, -0.0223, 270, 771640, 0.0000, 0.0000, -0.0000, 0.0000, 1.3675, 0.0745, -0.7526, 0.0000, 0.0000, 0.0000
2.3600, 0.0000, 0.0000, 0.0000, 0.0000, 0.0000, 0.0000, 0.0505, 0.1045, -0.3957, 0.0183, -0.0059, -0.0217, 271, 771640, 0.0000, 0.0000, -0.0000, 0.0000, 1.3675, 0.0746, -0.7524, 0.0000, 0.0000, 0.0000
2.3800, 0.0000, 0.0000, 0.0000, 0.0000, 0.0000, 0.0000, 0.0502, 0.1049, -0.3987, 0.0177, -0.0068, -0.0199, 272, 771640, 0.0000, 0.0000, -0.0000, 0.0000, 1.3678, 0.0749, -0.7525, 0.0000, 0.0000, 0.0000
2.4000, 0.0000, 0.0000, 0.0000, 0.0000, 0.0000, 0.0000, 0.0502, 0.1051, -0.4015, 0.0175, -0.0077, -0.0186, 273, 771640, 0.0000, 0.0000, -0.0000, 0.0000, 1.3675, 0.0747, -0.7525, 0.0000, 0.0000, 0.0000
2.4200, 0.0000, 0.0000, 0.0000, 0.0000, 0.0000, 0.0000, 0.0499, 0.1052, -0.4044, 0.0172, -0.0086, -0.0174, 274, 771640, 0.0000, 0.0000, -0.0000, 0.0000, 1.3677, 0.0746, -0.7526, 0.0000, 0.0000, 0.0000
2.4400, 0.0000, 0.0000, 0.0000, 0.0000, 0.0000, 0.0000, 0.0497, 0.1053, -0.4069, 0.0173, -0.0089, -0.0165, 275, 771640, 0.0000, 0.0000, -0.0000, 0.0000, 1.3673, 0.0744, -0.7525, 0.0000, 0.0000, 0.0000
2.4600, 0.0000, 0.0000, 0.0000, 0.0000, 0.0000, 0.0000, 0.0495, 0.1052, -0.4099, 0.0172, -0.0091, -0.0163, 276, 771640, 0.0000, 0.0000, -0.0000, 0.0000, 1.3676, 0.0746, -0.7525, 0.0000, 0.0000, 0.0000
2.4800, 0.0000, 0.0000, 0.0000, 0.0000, 0.0000, 0.0000, 0.0493, 0.1051, -0.4124, 0.0172, -0.0089, -0.0144, 277, 771640, 0.0000, 0.0000, -0.0000, 0.0000, 1.3674, 0.0745, -0.7526, 0.0000, 0.0000, 0.0000
2.5000, 0.0000, 0.0000, 0.0000, 0.0000, 0.0000, 0.0000, 0.0491, 0.1049, -0.4151, 0.0166, -0.0090, -0.0132, 278, 771640, 0.0000, 0.0000, -0.0000, 0.0000, 1.3674, 0.0745, -0.7526, 0.0000, 0.0000, 0.0000
2.5200, 0.0000, 0.0000, 0.0000, 0.0000, 0.0000, 0.0000, 0.0489, 0.1047, -0.4175, 0.0167, -0.0084, -0.0117, 279, 771640, 0.0000, 0.0000, -0.0000, 0.0000, 1.3675, 0.0746, -0.7526, 0.0000, 0.0000, 0.0000
2.5400, 0.0000, 0.0000, 0.0000, 0.0000, 0.0000, 0.0000, 0.0488, 0.1046, -0.4200, 0.0167, -0.0085, -0.0108, 280, 771640, 0.0000, 0.0000, -0.0000, 0.0000, 1.3676, 0.0747, -0.7526, 0.0000, 0.0000, 0.0000
2.5600, 0.0000, 0.0000, 0.0000, 0.0000, 0.0000, 0.0000, 0.0489, 0.1043, -0.4222, 0.0166, -0.0090, -0.0090, 281, 771640, 0.0000, 0.0000, -0.0000, 0.0000, 1.3676, 0.0747, -0.7526, 0.0000, 0.0000, 0.0000
2.5800, 0.0000, 0.0000, 0.0000, 0.0000, 0.0000, 0.0000, 0.0487, 0.1039, -0.4244, 0.0163, -0.0095, -0.0081, 282, 771640, 0.0000, 0.0000, -0.0000, 0.0000, 1.3674, 0.0745, -0.7526, 0.0000, 0.0000, 0.0000
2.6000, 0.0000, 0.0000, 0.0000, 0.0000, 0.0000, 0.0000, 0.0487, 0.1035, -0.4263, 0.0165, -0.0098, -0.0074, 283, 771640, 0.0000, 0.0000, -0.0000, 0.0000, 1.3674, 0.0745, -0.7525, 0.0000, 0.0000, 0.0000
2.6190, 0.0000, 0.0000, 0.0000, 0.0000, 0.0000, 0.0000, 0.0486, 0.1030, -0.4281, 0.0163, -0.0107, -0.0065, 284, 771640, 0.0000, 0.0000, -0.0000, 0.0000, 1.3674, 0.0745, -0.7526, 0.0000, 0.0000, 0.0000
2.6400, 0.0000, 0.0000, 0.0000, 0.0000, 0.0000, 0.0000, 0.0488, 0.1024, -0.4295, 0.0163, -0.0113, -0.0056, 285, 771640, 0.0000, 0.0000, -0.0000, 0.0000, 1.3675, 0.0746, -0.7526, 0.0000, 0.0000, 0.0000
2.6600, 0.0000, 0.0000, 0.0000, 0.0000, 0.0000, 0.0000, 0.0489, 0.1019, -0.4308, 0.0163, -0.0114, -0.0055, 286, 771640, 0.0000, 0.0000, -0.0000, 0.0000, 1.3678, 0.0746, -0.7526, 0.0000, 0.0000, 0.0000
2.6800, 0.0000, 0.0000, 0.0000, 0.0000, 0.0000, 0.0000, 0.0489, 0.1014, -0.4317, 0.0166, -0.0111, -0.0038, 287, 771640, 0.0000, 0.0000, -0.0000, 0.0000, 1.3679, 0.0749, -0.7526, 0.0000, 0.0000, 0.0000
2.7000, 0.0000, 0.0000, 0.0000, 0.0000, 0.0000, 0.0000, 0.0488, 0.1007, -0.4325, 0.0166, -0.0109, -0.0031, 288, 771640, 0.0000, 0.0000, -0.0000, 0.0000, 1.3678, 0.0747, -0.7525, 0.0000, 0.0000, 0.0000
2.7200, 0.0000, 0.0000, 0.0000, 0.0000, 0.0000, 0.0000, 0.0489, 0.1001, -0.4331, 0.0167, -0.0104, -0.0012, 289, 771640, 0.0000, 0.0000, -0.0000, 0.0000, 1.3678, 0.0746, -0.7526, 0.0000, 0.0000, 0.0000
2.7400, 0.0000, 0.0000, 0.0000, 0.0000, 0.0000, 0.0000, 0.0490, 0.0996, -0.4334, 0.0168, -0.0096, -0.0005, 290, 771640, 0.0000, 0.0000, -0.0000, 0.0000, 1.3677, 0.0746, -0.7526, 0.0000, 0.0000, 0.0000
2.7590, 0.0000, 0.0000, 0.0000, 0.0000, 0.0000, 0.0000, 0.0492, 0.0988, -0.4337, 0.0168, -0.0090, 0.0009, 291, 771640, 0.0000, 0.0000, -0.0000, 0.0000, 1.3674, 0.0745, -0.7525, 0.0000, 0.0000, 0.0000
2.7800, 0.0000, 0.0000, 0.0000, 0.0000, 0.0000, 0.0000, 0.0494, 0.0980, -0.4338, 0.0166, -0.0085, 0.0009, 292, 771640, 0.0000, 0.0000, -0.0000, 0.0000, 1.3678, 0.0746, -0.7526, 0.0000, 0.0000, 0.0000
2.8000, 0.0000, 0.0000, 0.0000, 0.0000, 0.0000, 0.0000, 0.0495, 0.0972, -0.4336, 0.0166, -0.0081, 0.0022, 293, 771640, 0.0000, 0.0000, -0.0000, 0.0000, 1.3676, 0.0745, -0.7524, 0.0000, 0.0000, 0.0000
2.8200, 0.0000, 0.0000, 0.0000, 0.0000, 0.0000, 0.0000, 0.0495, 0.0967, -0.4333, 0.0165, -0.0076, 0.0043, 294, 771640, 0.0000, 0.0000, -0.0000, 0.0000, 1.3680, 0.0748, -0.7527, 0.0000, 0.0000, 0.0000
2.8400, 0.0000, 0.0000, 0.0000, 0.0000, 0.0000, 0.0000, 0.0498, 0.0961, -0.4328, 0.0165, -0.0078, 0.0070, 295, 771640, 0.0000, 0.0000, -0.0000, 0.0000, 1.3681, 0.0749, -0.7526, 0.0000, 0.0000, 0.0000
2.8600, 0.0000, 0.0000, 0.0000, 0.0000, 0.0000, 0.0000, 0.0500, 0.0953, -0.4323, 0.0166, -0.0090, 0.0087, 296, 771640, 0.0000, 0.0000, -0.0000, 0.0000, 1.3680, 0.0747, -0.7526, 0.0000, 0.0000, 0.0000
2.8800, 0.0000, 0.0000, 0.0000, 0.0000, 0.0000, 0.0000, 0.0503, 0.0946, -0.4317, 0.0163, -0.0090, 0.0101, 297, 771640, 0.0000, 0.0000, -0.0000, 0.0000, 1.3680, 0.0747, -0.7527, 0.0000, 0.0000, 0.0000
2.9000, 0.0000, 0.0000, 0.0000, 0.0000, 0.0000, 0.0000, 0.0505, 0.0939, -0.4312, 0.0169, -0.0093, 0.0099, 298, 771640, 0.0000, 0.0000, -0.0000, 0.0000, 1.3681, 0.0747, -0.7526, 0.0000, 0.0000, 0.0000
2.9200, 0.0000, 0.0000, 0.0000, 0.0000, 0.0000, 0.0000, 0.0509, 0.0932, -0.4306, 0.0169, -0.0097, 0.0105, 299, 771640, 0.0000, 0.0000, -0.0000, 0.0000, 1.3678, 0.0746, -0.7527, 0.0000, 0.0000, 0.0000
2.9400, 0.0000, 0.0000, 0.0000, 0.0000, 0.0000, 0.0000, 0.0512, 0.0924, -0.4302, 0.0171, -0.0099, 0.0110, 300, 771640, 0.0000, 0.0000, -0.0000, 0.0000, 1.3680, 0.0747, -0.7527, 0.0000, 0.0000, 0.0000
2.9600, 0.0000, 0.0000, 0.0000, 0.0000, 0.0000, 0.0000, 0.0516, 0.0919, -0.4296, 0.0167, -0.0098, 0.0120, 301, 771640, 0.0000, 0.0000, -0.0000, 0.0000, 1.3675, 0.0744, -0.7526, 0.0000, 0.0000, 0.0000
2.9800, 0.0000, 0.0000, 0.0000, 0.0000, 0.0000, 0.0000, 0.0519, 0.0913, -0.4293, 0.0166, -0.0093, 0.0122, 302, 771640, 0.0000, 0.0000, -0.0000, 0.0000, 1.3675, 0.0745, -0.7526, 0.0000, 0.0000, 0.0000
3.0000, 0.0000, 0.0000, 0.0000, 0.0000, 0.0000, 0.0000, 0.0522, 0.0908, -0.4287, 0.0165, -0.0096, 0.0133, 303, 771640, 0.0000, 0.0000, -0.0000, 0.0000, 1.3674, 0.0744, -0.7526, 0.0000, 0.0000, 0.0000
3.0200, 0.0000, 0.0000, 0.0000, 0.0000, 0.0000, 0.0000, 0.0527, 0.0902, -0.4283, 0.0166, -0.0099, 0.0134, 304, 771640, 0.0000, 0.0000, -0.0000, 0.0000, 1.3674, 0.0743, -0.7526, 0.0000, 0.0000, 0.0000
3.0400, 0.0000, 0.0000, 0.0000, 0.0000, 0.0000, 0.0000, 0.0532, 0.0897, -0.4278, 0.0162, -0.0098, 0.0145, 305, 771640, 0.0000, 0.0000, -0.0000, 0.0000, 1.3675, 0.0745, -0.7526, 0.0000, 0.0000, 0.0000
3.0600, 0.0000, 0.0000, 0.0000, 0.0000, 0.0000, 0.0000, 0.0536, 0.0892, -0.4274, 0.0160, -0.0093, 0.0151, 306, 771640, 0.0000, 0.0000, -0.0000, 0.0000, 1.3675, 0.0745, -0.7525, 0.0000, 0.0000, 0.0000
3.0800, 0.0000, 0.0000, 0.0000, 0.0000, 0.0000, 0.0000, 0.0541, 0.0886, -0.4270, 0.0157, -0.0089, 0.0151, 307, 771640, 0.0000, 0.0000, -0.0000, 0.0000, 1.3679, 0.0746, -0.7526, 0.0000, 0.0000, 0.0000
3.1000, 0.0000, 0.0000, 0.0000, 0.0000, 0.0000, 0.0000, 0.0545, 0.0882, -0.4265, 0.0158, -0.0085, 0.0156, 308, 771640, 0.0000, 0.0000, -0.0000, 0.0000, 1.3679, 0.0746, -0.7526, 0.0000, 0.0000, 0.0000
3.1200, 0.0000, 0.0000, 0.0000, 0.0000, 0.0000, 0.0000, 0.0550, 0.0878, -0.4260, 0.0157, -0.0075, 0.0159, 309, 771640, 0.0000, 0.0000, -0.0000, 0.0000, 1.3677, 0.0747, -0.7525, 0.0000, 0.0000, 0.0000
3.1400, 0.0000, 0.0000, 0.0000, 0.0000, 0.0000, 0.0000, 0.0554, 0.0874, -0.4255, 0.0159, -0.0061, 0.0165, 310, 771640, 0.0000, 0.0000, -0.0000, 0.0000, 1.3679, 0.0746, -0.7526, 0.0000, 0.0000, 0.0000
3.1600, 0.0000, 0.0000, 0.0000, 0.0000, 0.0000, 0.0000, 0.0558, 0.0870, -0.4249, 0.0158, -0.0042, 0.0165, 311, 771640, 0.0000, 0.0000, -0.0000, 0.0000, 1.3678, 0.0745, -0.7526, 0.0000, 0.0000, 0.0000
3.1800, 0.0000, 0.0000, 0.0000, 0.0000, 0.0000, 0.0000, 0.0562, 0.0867, -0.4243, 0.0157, -0.0035, 0.0173, 312, 771640, 0.0000, 0.0000, -0.0000, 0.0000, 1.3679, 0.0746, -0.7526, 0.0000, 0.0000, 0.0000
3.2000, 0.0000, 0.0000, 0.0000, 0.0000, 0.0000, 0.0000, 0.0566, 0.0865, -0.4237, 0.0153, -0.0027, 0.0176, 313, 771640, 0.0000, 0.0000, -0.0000, 0.0000, 1.3676, 0.0746, -0.7525, 0.0000, 0.0000, 0.0000
3.2200, 0.0000, 0.0000, 0.0000, 0.0000, 0.0000, 0.0000, 0.0571, 0.0862, -0.4233, 0.0148, -0.0021, 0.0180, 314, 771640, 0.0000, 0.0000, -0.0000, 0.0000, 1.3676, 0.0745, -0.7525, 0.0000, 0.0000, 0.0000
3.2400, 0.0000, 0.0000, 0.0000, 0.0000, 0.0000, 0.0000, 0.0575, 0.0861, -0.4227, 0.0148, -0.0012, 0.0189, 315, 771640, 0.0000, 0.0000, -0.0000, 0.0000, 1.3674, 0.0744, -0.7524, 0.0000, 0.0000, 0.0000
3.2600, 0.0000, 0.0000, 0.0000, 0.0000, 0.0000, 0.0000, 0.0579, 0.0860, -0.4222, 0.0147, -0.0004, 0.0185, 316, 771640, 0.0000, 0.0000, -0.0000, 0.0000, 1.3676, 0.0745, -0.7525, 0.0000, 0.0000, 0.0000
3.2800, 0.0000, 0.0000, 0.0000, 0.0000, 0.0000, 0.0000, 0.0582, 0.0859, -0.4218, 0.0144, 0.0001, 0.0186, 317, 771640, 0.0000, 0.0000, -0.0000, 0.0000, 1.3675, 0.0746, -0.7525, 0.0000, 0.0000, 0.0000
3.3000, 0.0000, 0.0000, 0.0000, 0.0000, 0.0000, 0.0000, 0.0587, 0.0858, -0.4215, 0.0142, 0.0003, 0.0184, 318, 771640, 0.0000, 0.0000, -0.0000, 0.0000, 1.3674, 0.0745, -0.7525, 0.0000, 0.0000, 0.0000
3.3200, 0.0000, 0.0000, 0.0000, 0.0000, 0.0000, 0.0000, 0.0591, 0.0857, -0.4211, 0.0139, 0.0009, 0.0176, 319, 771640, 0.0000, 0.0000, -0.0000, 0.0000, 1.3674, 0.0744, -0.7525, 0.0000, 0.0000, 0.0000
3.3400, 0.0000, 0.0000, 0.0000, 0.0000, 0.0000, 0.0000, 0.0594, 0.0857, -0.4207, 0.0140, 0.0015, 0.0175, 320, 771640, 0.0000, 0.0000, -0.0000, 0.0000, 1.3674, 0.0745, -0.7525, 0.0000, 0.0000, 0.0000
3.3600, 0.0000, 0.0000, 0.0000, 0.0000, 0.0000, 0.0000, 0.0598, 0.0857, -0.4205, 0.0136, 0.0017, 0.0173, 321, 771640, 0.0000, 0.0000, -0.0000, 0.0000, 1.3673, 0.0745, -0.7524, 0.0000, 0.0000, 0.0000
3.3800, 0.0000, 0.0000, 0.0000, 0.0000, 0.0000, 0.0000, 0.0601, 0.0857, -0.4202, 0.0135, 0.0014, 0.0172, 322, 771640, 0.0000, 0.0000, -0.0000, 0.0000, 1.3673, 0.0744, -0.7524, 0.0000, 0.0000, 0.0000
3.4000, 0.0000, 0.0000, 0.0000, 0.0000, 0.0000, 0.0000, 0.0605, 0.0859, -0.4200, 0.0137, 0.0009, 0.0167, 323, 771640, 0.0000, 0.0000, -0.0000, 0.0000, 1.3673, 0.0745, -0.7524, 0.0000, 0.0000, 0.0000
3.4200, 0.0000, 0.0000, 0.0000, 0.0000, 0.0000, 0.0000, 0.0608, 0.0860, -0.4199, 0.0137, 0.0010, 0.0164, 324, 771640, 0.0000, 0.0000, -0.0000, 0.0000, 1.3674, 0.0746, -0.7524, 0.0000, 0.0000, 0.0000
3.4400, 0.0000, 0.0000, 0.0000, 0.0000, 0.0000, 0.0000, 0.0611, 0.0861, -0.4197, 0.0136, 0.0007, 0.0163, 325, 771640, 0.0000, 0.0000, -0.0000, 0.0000, 1.3673, 0.0745, -0.7524, 0.0000, 0.0000, 0.0000
3.4600, 0.0000, 0.0000, 0.0000, 0.0000, 0.0000, 0.0000, 0.0614, 0.0863, -0.4197, 0.0132, 0.0016, 0.0166, 326, 771640, 0.0000, 0.0000, -0.0000, 0.0000, 1.3674, 0.0745, -0.7524, 0.0000, 0.0000, 0.0000
3.4800, 0.0000, 0.0000, 0.0000, 0.0000, 0.0000, 0.0000, 0.0615, 0.0866, -0.4194, 0.0131, 0.0022, 0.0166, 327, 771640, 0.0000, 0.0000, -0.0000, 0.0000, 1.3673, 0.0745, -0.7524, 0.0000, 0.0000, 0.0000
3.5000, 0.0000, 0.0000, 0.0000, 0.0000, 0.0000, 0.0000, 0.0617, 0.0868, -0.4194, 0.0129, 0.0029, 0.0161, 328, 771640, 0.0000, 0.0000, -0.0000, 0.0000, 1.3675, 0.0746, -0.7526, 0.0000, 0.0000, 0.0000
3.5200, 0.0000, 0.0000, 0.0000, 0.0000, 0.0000, 0.0000, 0.0619, 0.0870, -0.4192, 0.0125, 0.0033, 0.0158, 329, 771640, 0.0000, 0.0000, -0.0000, 0.0000, 1.3674, 0.0745, -0.7525, 0.0000, 0.0000, 0.0000
3.5400, 0.0000, 0.0000, 0.0000, 0.0000, 0.0000, 0.0000, 0.0620, 0.0873, -0.4190, 0.0126, 0.0030, 0.0145, 330, 771640, 0.0000, 0.0000, -0.0000, 0.0000, 1.3673, 0.0745, -0.7524, 0.0000, 0.0000, 0.0000
3.5600, 0.0000, 0.0000, 0.0000, 0.0000, 0.0000, 0.0000, 0.0622, 0.0875, -0.4187, 0.0123, 0.0027, 0.0147, 331, 771640, 0.0000, 0.0000, -0.0000, 0.0000, 1.3673, 0.0745, -0.7524, 0.0000, 0.0000, 0.0000
3.5800, 0.0000, 0.0000, 0.0000, 0.0000, 0.0000, 0.0000, 0.0624, 0.0879, -0.4183, 0.0123, 0.0022, 0.0137, 332, 771640, 0.0000, 0.0000, -0.0000, 0.0000, 1.3674, 0.0745, -0.7526, 0.0000, 0.0000, 0.0000
3.6000, 0.0000, 0.0000, 0.0000, 0.0000, 0.0000, 0.0000, 0.0624, 0.0881, -0.4180, 0.0119, 0.0029, 0.0135, 333, 771640, 0.0000, 0.0000, -0.0000, 0.0000, 1.3675, 0.0745, -0.7527, 0.0000, 0.0000, 0.0000
3.6200, 0.0000, 0.0000, 0.0000, 0.0000, 0.0000, 0.0000, 0.0625, 0.0885, -0.4174, 0.0122, 0.0040, 0.0125, 334, 771640, 0.0000, 0.0000, -0.0000, 0.0000, 1.3675, 0.0745, -0.7526, 0.0000, 0.0000, 0.0000
3.6400, 0.0000, 0.0000, 0.0000, 0.0000, 0.0000, 0.0000, 0.0625, 0.0889, -0.4169, 0.0121, 0.0047, 0.0121, 335, 771640, 0.0000, 0.0000, -0.0000, 0.0000, 1.3675, 0.0745, -0.7526, 0.0000, 0.0000, 0.0000
3.6600, 0.0000, 0.0000, 0.0000, 0.0000, 0.0000, 0.0000, 0.0626, 0.0892, -0.4163, 0.0120, 0.0047, 0.0119, 336, 771640, 0.0000, 0.0000, -0.0000, 0.0000, 1.3675, 0.0745, -0.7526, 0.0000, 0.0000, 0.0000
3.6800, 0.0000, 0.0000, 0.0000, 0.0000, 0.0000, 0.0000, 0.0625, 0.0894, -0.4157, 0.0120, 0.0043, 0.0110, 337, 771640, 0.0000, 0.0000, -0.0000, 0.0000, 1.3675, 0.0745, -0.7526, 0.0000, 0.0000, 0.0000
3.7000, 0.0000, 0.0000, 0.0000, 0.0000, 0.0000, 0.0000, 0.0626, 0.0896, -0.4149, 0.0117, 0.0036, 0.0108, 338, 771640, 0.0000, 0.0000, -0.0000, 0.0000, 1.3675, 0.0745, -0.7526, 0.0000, 0.0000, 0.0000
3.7200, 0.0000, 0.0000, 0.0000, 0.0000, 0.0000, 0.0000, 0.0625, 0.0900, -0.4142, 0.0117, 0.0029, 0.0101, 339, 771640, 0.0000, 0.0000, -0.0000, 0.0000, 1.3676, 0.0746, -0.7526, 0.0000, 0.0000, 0.0000
3.7400, 0.0000, 0.0000, 0.0000, 0.0000, 0.0000, 0.0000, 0.0625, 0.0902, -0.4134, 0.0115, 0.0022, 0.0099, 340, 771640, 0.0000, 0.0000, -0.0000, 0.0000, 1.3675, 0.0745, -0.7526, 0.0000, 0.0000, 0.0000
3.7600, 0.0000, 0.0000, 0.0000, 0.0000, 0.0000, 0.0000, 0.0625, 0.0904, -0.4124, 0.0117, 0.0013, 0.0097, 341, 771640, 0.0000, 0.0000, -0.0000, 0.0000, 1.3676, 0.0745, -0.7526, 0.0000, 0.0000, 0.0000
3.7800, 0.0000, 0.0000, 0.0000, 0.0000, 0.0000, 0.0000, 0.0626, 0.0908, -0.4115, 0.0114, 0.0004, 0.0097, 342, 771640, 0.0000, 0.0000, -0.0000, 0.0000, 1.3676, 0.0746, -0.7526, 0.0000, 0.0000, 0.0000
3.8000, 0.0000, 0.0000, 0.0000, 0.0000, 0.0000, 0.0000, 0.0623, 0.0910, -0.4106, 0.0114, 0.0001, 0.0101, 343, 771640, 0.0000, 0.0000, -0.0000, 0.0000, 1.3675, 0.0745, -0.7526, 0.0000, 0.0000, 0.0000
3.8200, 0.0000, 0.0000, 0.0000, 0.0000, 0.0000, 0.0000, 0.0623, 0.0913, -0.4098, 0.0112, 0.0004, 0.0096, 344, 771640, 0.0000, 0.0000, -0.0000, 0.0000, 1.3675, 0.0745, -0.7526, 0.0000, 0.0000, 0.0000
3.8400, 0.0000, 0.0000, 0.0000, 0.0000, 0.0000, 0.0000, 0.0621, 0.0916, -0.4088, 0.0112, 0.0000, 0.0086, 345, 771640, 0.0000, 0.0000, -0.0000, 0.0000, 1.3676, 0.0745, -0.7526, 0.0000, 0.0000, 0.0000
3.8600, 0.0000, 0.0000, 0.0000, 0.0000, 0.0000, 0.0000, 0.0620, 0.0919, -0.4080, 0.0113, -0.0001, 0.0080, 346, 771640, 0.0000, 0.0000, -0.0000, 0.0000, 1.3676, 0.0746, -0.7526, 0.0000, 0.0000, 0.0000
3.8800, 0.0000, 0.0000, 0.0000, 0.0000, 0.0000, 0.0000, 0.0618, 0.0920, -0.4072, 0.0109, 0.0001, 0.0077, 347, 771640, 0.0000, 0.0000, -0.0000, 0.0000, 1.3675, 0.0745, -0.7526, 0.0000, 0.0000, 0.0000
3.9000, 0.0000, 0.0000, 0.0000, 0.0000, 0.0000, 0.0000, 0.0616, 0.0921, -0.4063, 0.0107, 0.0005, 0.0082, 348, 771640, 0.0000, 0.0000, -0.0000, 0.0000, 1.3673, 0.0743, -0.7525, 0.0000, 0.0000, 0.0000
3.9190, 0.0000, 0.0000, 0.0000, 0.0000, 0.0000, 0.0000, 0.0615, 0.0924, -0.4055, 0.0108, 0.0011, 0.0077, 349, 771640, 0.0000, 0.0000, -0.0000, 0.0000, 1.3673, 0.0744, -0.7524, 0.0000, 0.0000, 0.0000
3.9400, 0.0000, 0.0000, 0.0000, 0.0000, 0.0000, 0.0000, 0.0614, 0.0925, -0.4048, 0.0105, 0.0012, 0.0078, 350, 771640, 0.0000, 0.0000, -0.0000, 0.0000, 1.3675, 0.0745, -0.7526, 0.0000, 0.0000, 0.0000
3.9600, 0.0000, 0.0000, 0.0000, 0.0000, 0.0000, 0.0000, 0.0612, 0.0926, -0.4041, 0.0108, 0.0010, 0.0071, 351, 771640, 0.0000, 0.0000, -0.0000, 0.0000, 1.3674, 0.0744, -0.7525, 0.0000, 0.0000, 0.0000
3.9800, 0.0000, 0.0000, 0.0000, 0.0000, 0.0000, 0.0000, 0.0611, 0.0927, -0.4034, 0.0107, 0.0007, 0.0072, 352, 771640, 0.0000, 0.0000, -0.0000, 0.0000, 1.3675, 0.0745, -0.7526, 0.0000, 0.0000, 0.0000
4.0000, 0.0000, 0.0000, 0.0000, 0.0000, 0.0000, 0.0000, 0.0609, 0.0929, -0.4027, 0.0107, 0.0008, 0.0076, 353, 771640, 0.0000, 0.0000, -0.0000, 0.0000, 1.3678, 0.0747, -0.7527, 0.0000, 0.0000, 0.0000
4.0190, 0.0000, 0.0000, 0.0000, 0.0000, 0.0000, 0.0000, 0.0607, 0.0931, -0.4022, 0.0106, 0.0008, 0.0077, 354, 771640, 0.0000, 0.0000, -0.0000, 0.0000, 1.3675, 0.0746, -0.7527, 0.0000, 0.0000, 0.0000
4.0400, 0.0000, 0.0000, 0.0000, 0.0000, 0.0000, 0.0000, 0.0606, 0.0930, -0.4016, 0.0105, 0.0008, 0.0071, 355, 771640, 0.0000, 0.0000, -0.0000, 0.0000, 1.3676, 0.0744, -0.7527, 0.0000, 0.0000, 0.0000
4.0600, 0.0000, 0.0000, 0.0000, 0.0000, 0.0000, 0.0000, 0.0605, 0.0931, -0.4010, 0.0110, 0.0005, 0.0070, 356, 771640, 0.0000, 0.0000, -0.0000, 0.0000, 1.3673, 0.0743, -0.7525, 0.0000, 0.0000, 0.0000
4.0800, 0.0000, 0.0000, 0.0000, 0.0000, 0.0000, 0.0000, 0.0604, 0.0933, -0.4005, 0.0103, 0.0007, 0.0071, 357, 771640, 0.0000, 0.0000, -0.0000, 0.0000, 1.3676, 0.0745, -0.7527, 0.0000, 0.0000, 0.0000
4.0990, 0.0000, 0.0000, 0.0000, 0.0000, 0.0000, 0.0000, 0.0603, 0.0932, -0.4000, 0.0106, 0.0001, 0.0072, 358, 771640, 0.0000, 0.0000, -0.0000, 0.0000, 1.3675, 0.0745, -0.7526, 0.0000, 0.0000, 0.0000
4.1200, 0.0000, 0.0000, 0.0000, 0.0000, 0.0000, 0.0000, 0.0602, 0.0932, -0.3996, 0.0106, -0.0000, 0.0069, 359, 771640, 0.0000, 0.0000, -0.0000, 0.0000, 1.3674, 0.0744, -0.7526, 0.0000, 0.0000, 0.0000
4.1400, 0.0000, 0.0000, 0.0000, 0.0000, 0.0000, 0.0000, 0.0601, 0.0932, -0.3991, 0.0105, 0.0003, 0.0074, 360, 771640, 0.0000, 0.0000, -0.0000, 0.0000, 1.3675, 0.0745, -0.7526, 0.0000, 0.0000, 0.0000
4.1600, 0.0000, 0.0000, 0.0000, 0.0000, 0.0000, 0.0000, 0.0598, 0.0933, -0.3988, 0.0106, 0.0004, 0.0074, 361, 771640, 0.0000, 0.0000, -0.0000, 0.0000, 1.3674, 0.0745, -0.7525, 0.0000, 0.0000, 0.0000
4.1790, 0.0000, 0.0000, 0.0000, 0.0000, 0.0000, 0.0000, 0.0597, 0.0932, -0.3984, 0.0104, 0.0009, 0.0077, 362, 771640, 0.0000, 0.0000, -0.0000, 0.0000, 1.3673, 0.0744, -0.7525, 0.0000, 0.0000, 0.0000
4.2000, 0.0000, 0.0000, 0.0000, 0.0000, 0.0000, 0.0000, 0.0596, 0.0932, -0.3979, 0.0104, 0.0008, 0.0074, 363, 771640, 0.0000, 0.0000, -0.0000, 0.0000, 1.3673, 0.0745, -0.7525, 0.0000, 0.0000, 0.0000
4.2190, 0.0000, 0.0000, 0.0000, 0.0000, 0.0000, 0.0000, 0.0596, 0.0934, -0.3974, 0.0104, 0.0009, 0.0081, 364, 771640, 0.0000, 0.0000, -0.0000, 0.0000, 1.3675, 0.0746, -0.7526, 0.0000, 0.0000, 0.0000
4.2390, 0.0000, 0.0000, 0.0000, 0.0000, 0.0000, 0.0000, 0.0594, 0.0932, -0.3972, 0.0105, 0.0006, 0.0076, 365, 771640, 0.0000, 0.0000, -0.0000, 0.0000, 1.3674, 0.0745, -0.7525, 0.0000, 0.0000, 0.0000
4.2590, 0.0000, 0.0000, 0.0000, 0.0000, 0.0000, 0.0000, 0.0593, 0.0932, -0.3966, 0.0104, -0.0005, 0.0076, 366, 771640, 0.0000, 0.0000, -0.0000, 0.0000, 1.3673, 0.0744, -0.7525, 0.0000, 0.0000, 0.0000
4.2800, 0.0000, 0.0000, 0.0000, 0.0000, 0.0000, 0.0000, 0.0592, 0.0931, -0.3963, 0.0106, -0.0009, 0.0073, 367, 771640, 0.0000, 0.0000, -0.0000, 0.0000, 1.3673, 0.0745, -0.7525, 0.0000, 0.0000, 0.0000
4.3000, 0.0000, 0.0000, 0.0000, 0.0000, 0.0000, 0.0000, 0.0592, 0.0932, -0.3956, 0.0105, -0.0010, 0.0075, 368, 771640, 0.0000, 0.0000, -0.0000, 0.0000, 1.3675, 0.0746, -0.7526, 0.0000, 0.0000, 0.0000
4.3200, 0.0000, 0.0000, 0.0000, 0.0000, 0.0000, 0.0000, 0.0591, 0.0931, -0.3952, 0.0104, -0.0011, 0.0075, 369, 771640, 0.0000, 0.0000, -0.0000, 0.0000, 1.3674, 0.0745, -0.7525, 0.0000, 0.0000, 0.0000
4.3390, 0.0000, 0.0000, 0.0000, 0.0000, 0.0000, 0.0000, 0.0590, 0.0930, -0.3945, 0.0107, -0.0011, 0.0070, 370, 771640, 0.0000, 0.0000, -0.0000, 0.0000, 1.3673, 0.0744, -0.7525, 0.0000, 0.0000, 0.0000
4.3600, 0.0000, 0.0000, 0.0000, 0.0000, 0.0000, 0.0000, 0.0591, 0.0930, -0.3938, 0.0106, -0.0020, 0.0075, 371, 771640, 0.0000, 0.0000, -0.0000, 0.0000, 1.3673, 0.0745, -0.7525, 0.0000, 0.0000, 0.0000
4.3800, 0.0000, 0.0000, 0.0000, 0.0000, 0.0000, 0.0000, 0.0591, 0.0929, -0.3932, 0.0108, -0.0025, 0.0072, 372, 771640, 0.0000, 0.0000, -0.0000, 0.0000, 1.3674, 0.0745, -0.7525, 0.0000, 0.0000, 0.0000
4.4000, 0.0000, 0.0000, 0.0000, 0.0000, 0.0000, 0.0000, 0.0592, 0.0928, -0.3924, 0.0109, -0.0028, 0.0084, 373, 771640, 0.0000, 0.0000, -0.0000, 0.0000, 1.3675, 0.0745, -0.7526, 0.0000, 0.0000, 0.0000
4.4190, 0.0000, 0.0000, 0.0000, 0.0000, 0.0000, 0.0000, 0.0592, 0.0927, -0.3918, 0.0108, -0.0023, 0.0088, 374, 771640, 0.0000, 0.0000, -0.0000, 0.0000, 1.3673, 0.0744, -0.7525, 0.0000, 0.0000, 0.0000
4.4400, 0.0000, 0.0000, 0.0000, 0.0000, 0.0000, 0.0000, 0.0593, 0.0927, -0.3910, 0.0110, -0.0030, 0.0095, 375, 771640, 0.0000, 0.0000, -0.0000, 0.0000, 1.3674, 0.0746, -0.7526, 0.0000, 0.0000, 0.0000
4.4600, 0.0000, 0.0000, 0.0000, 0.0000, 0.0000, 0.0000, 0.0595, 0.0927, -0.3904, 0.0108, -0.0035, 0.0097, 376, 771640, 0.0000, 0.0000, -0.0000, 0.0000, 1.3673, 0.0745, -0.7525, 0.0000, 0.0000, 0.0000
4.4800, 0.0000, 0.0000, 0.0000, 0.0000, 0.0000, 0.0000, 0.0597, 0.0925, -0.3898, 0.0110, -0.0040, 0.0106, 377, 771640, 0.0000, 0.0000, -0.0000, 0.0000, 1.3673, 0.0743, -0.7525, 0.0000, 0.0000, 0.0000
4.5000, 0.0000, 0.0000, 0.0000, 0.0000, 0.0000, 0.0000, 0.0599, 0.0927, -0.3891, 0.0110, -0.0044, 0.0108, 378, 771640, 0.0000, 0.0000, -0.0000, 0.0000, 1.3674, 0.0745, -0.7526, 0.0000, 0.0000, 0.0000
4.5200, 0.0000, 0.0000, 0.0000, 0.0000, 0.0000, 0.0000, 0.0602, 0.0926, -0.3886, 0.0110, -0.0044, 0.0109, 379, 771640, 0.0000, 0.0000, -0.0000, 0.0000, 1.3673, 0.0745, -0.7525, 0.0000, 0.0000, 0.0000
4.5400, 0.0000, 0.0000, 0.0000, 0.0000, 0.0000, 0.0000, 0.0604, 0.0925, -0.3881, 0.0108, -0.0045, 0.0115, 380, 771640, 0.0000, 0.0000, -0.0000, 0.0000, 1.3673, 0.0745, -0.7525, 0.0000, 0.0000, 0.0000
4.5600, 0.0000, 0.0000, 0.0000, 0.0000, 0.0000, 0.0000, 0.0608, 0.0924, -0.3875, 0.0110, -0.0040, 0.0110, 381, 771640, 0.0000, 0.0000, -0.0000, 0.0000, 1.3673, 0.0744, -0.7525, 0.0000, 0.0000, 0.0000
4.5790, 0.0000, 0.0000, 0.0000, 0.0000, 0.0000, 0.0000, 0.0610, 0.0924, -0.3870, 0.0110, -0.0033, 0.0111, 382, 771640, 0.0000, 0.0000, -0.0000, 0.0000, 1.3675, 0.0745, -0.7527, 0.0000, 0.0000, 0.0000
4.6000, 0.0000, 0.0000, 0.0000, 0.0000, 0.0000, 0.0000, 0.0612, 0.0924, -0.3863, 0.0111, -0.0023, 0.0114, 383, 771640, 0.0000, 0.0000, -0.0000, 0.0000, 1.3675, 0.0746, -0.7526, 0.0000, 0.0000, 0.0000
4.6200, 0.0000, 0.0000, 0.0000, 0.0000, 0.0000, 0.0000, 0.0615, 0.0923, -0.3859, 0.0112, -0.0017, 0.0119, 384, 771640, 0.0000, 0.0000, -0.0000, 0.0000, 1.3673, 0.0745, -0.7525, 0.0000, 0.0000, 0.0000
4.6400, 0.0000, 0.0000, 0.0000, 0.0000, 0.0000, 0.0000, 0.0619, 0.0924, -0.3854, 0.0112, -0.0014, 0.0122, 385, 771640, 0.0000, 0.0000, -0.0000, 0.0000, 1.3673, 0.0745, -0.7525, 0.0000, 0.0000, 0.0000
4.6600, 0.0000, 0.0000, 0.0000, 0.0000, 0.0000, 0.0000, 0.0622, 0.0924, -0.3850, 0.0113, -0.0010, 0.0124, 386, 771640, 0.0000, 0.0000, -0.0000, 0.0000, 1.3675, 0.0746, -0.7526, 0.0000, 0.0000, 0.0000
4.6800, 0.0000, 0.0000, 0.0000, 0.0000, 0.0000, 0.0000, 0.0626, 0.0925, -0.3847, 0.0117, -0.0010, 0.0124, 387, 771640, 0.0000, 0.0000, -0.0000, 0.0000, 1.3674, 0.0745, -0.7525, 0.0000, 0.0000, 0.0000
4.7000, 0.0000, 0.0000, 0.0000, 0.0000, 0.0000, 0.0000, 0.0629, 0.0925, -0.3844, 0.0116, -0.0011, 0.0136, 388, 771640, 0.0000, 0.0000, -0.0000, 0.0000, 1.3675, 0.0745, -0.7526, 0.0000, 0.0000, 0.0000
4.7200, 0.0000, 0.0000, 0.0000, 0.0000, 0.0000, 0.0000, 0.0634, 0.0926, -0.3841, 0.0119, -0.0011, 0.0133, 389, 771640, 0.0000, 0.0000, -0.0000, 0.0000, 1.3674, 0.0744, -0.7525, 0.0000, 0.0000, 0.0000
4.7400, 0.0000, 0.0000, 0.0000, 0.0000, 0.0000, 0.0000, 0.0638, 0.0929, -0.3837, 0.0120, -0.0013, 0.0137, 390, 771640, 0.0000, 0.0000, -0.0000, 0.0000, 1.3675, 0.0746, -0.7527, 0.0000, 0.0000, 0.0000
4.7600, 0.0000, 0.0000, 0.0000, 0.0000, 0.0000, 0.0000, 0.0643, 0.0928, -0.3834, 0.0121, -0.0011, 0.0130, 391, 771640, 0.0000, 0.0000, -0.0000, 0.0000, 1.3674, 0.0745, -0.7525, 0.0000, 0.0000, 0.0000
4.7800, 0.0000, 0.0000, 0.0000, 0.0000, 0.0000, 0.0000, 0.0647, 0.0929, -0.3829, 0.0121, -0.0008, 0.0128, 392, 771640, 0.0000, 0.0000, -0.0000, 0.0000, 1.3674, 0.0744, -0.7526, 0.0000, 0.0000, 0.0000
4.8000, 0.0000, 0.0000, 0.0000, 0.0000, 0.0000, 0.0000, 0.0651, 0.0930, -0.3826, 0.0123, 0.0001, 0.0127, 393, 771640, 0.0000, 0.0000, -0.0000, 0.0000, 1.3675, 0.0746, -0.7526, 0.0000, 0.0000, 0.0000
4.8200, 0.0000, 0.0000, 0.0000, 0.0000, 0.0000, 0.0000, 0.0655, 0.0932, -0.3820, 0.0125, 0.0006, 0.0125, 394, 771640, 0.0000, 0.0000, -0.0000, 0.0000, 1.3675, 0.0746, -0.7526, 0.0000, 0.0000, 0.0000
4.8400, 0.0000, 0.0000, 0.0000, 0.0000, 0.0000, 0.0000, 0.0659, 0.0932, -0.3815, 0.0124, 0.0010, 0.0127, 395, 771640, 0.0000, 0.0000, -0.0000, 0.0000, 1.3676, 0.0745, -0.7527, 0.0000, 0.0000, 0.0000
4.8600, 0.0000, 0.0000, 0.0000, 0.0000, 0.0000, 0.0000, 0.0664, 0.0934, -0.3808, 0.0129, 0.0016, 0.0121, 396, 771640, 0.0000, 0.0000, -0.0000, 0.0000, 1.3678, 0.0746, -0.7527, 0.0000, 0.0000, 0.0000
4.8800, 0.0000, 0.0000, 0.0000, 0.0000, 0.0000, 0.0000, 0.0669, 0.0937, -0.3800, 0.0129, 0.0020, 0.0122, 397, 771640, 0.0000, 0.0000, -0.0000, 0.0000, 1.3675, 0.0745, -0.7527, 0.0000, 0.0000, 0.0000
4.9000, 0.0000, 0.0000, 0.0000, 0.0000, 0.0000, 0.0000, 0.0674, 0.0938, -0.3792, 0.0130, 0.0024, 0.0119, 398, 771640, 0.0000, 0.0000, -0.0000, 0.0000, 1.3675, 0.0746, -0.7526, 0.0000, 0.0000, 0.0000
4.9190, 0.0000, 0.0000, 0.0000, 0.0000, 0.0000, 0.0000, 0.0679, 0.0940, -0.3785, 0.0131, 0.0030, 0.0122, 399, 771640, 0.0000, 0.0000, -0.0000, 0.0000, 1.3675, 0.0745, -0.7527, 0.0000, 0.0000, 0.0000
4.9390, 0.0000, 0.0000, 0.0000, 0.0000, 0.0000, 0.0000, 0.0683, 0.0941, -0.3777, 0.0129, 0.0033, 0.0119, 400, 771640, 0.0000, 0.0000, -0.0000, 0.0000, 1.3675, 0.0745, -0.7526, 0.0000, 0.0000, 0.0000
4.9590, 0.0000, 0.0000, 0.0000, 0.0000, 0.0000, 0.0000, 0.0687, 0.0944, -0.3767, 0.0129, 0.0040, 0.0121, 401, 771640, 0.0000, 0.0000, -0.0000, 0.0000, 1.3676, 0.0746, -0.7527, 0.0000, 0.0000, 0.0000
4.9790, 0.0000, 0.0000, 0.0000, 0.0000, 0.0000, 0.0000, 0.0691, 0.0945, -0.3758, 0.0129, 0.0052, 0.0118, 402, 771640, 0.0000, 0.0000, -0.0000, 0.0000, 1.3677, 0.0746, -0.7528, 0.0000, 0.0000, 0.0000
4.9990, 0.0000, 0.0000, 0.0000, 0.0000, 0.0000, 0.0000, 0.0694, 0.0946, -0.3748, 0.0129, 0.0065, 0.0109, 403, 771640, 0.0000, 0.0000, -0.0000, 0.0000, 1.3676, 0.0745, -0.7528, 0.0000, 0.0000, 0.0000
5.0190, 0.0000, 0.0000, 0.0000, 0.0000, 0.0000, 0.0000, 0.0698, 0.0950, -0.3736, 0.0130, 0.0077, 0.0100, 404, 771640, 0.0000, 0.0000, -0.0000, 0.0000, 1.3674, 0.0744, -0.7527, 0.0000, 0.0000, 0.0000
5.0390, 0.0000, 0.0000, 0.0000, 0.0000, 0.0000, 0.0000, 0.0700, 0.0951, -0.3726, 0.0131, 0.0092, 0.0100, 405, 771640, 0.0000, 0.0000, -0.0006, 0.0000, 1.3676, 0.0745, -0.7527, 0.0000, 0.0000, -0.0038
5.0590, 0.0000, 0.0000, 0.0000, 0.0000, 0.0000, 0.0000, 0.0703, 0.0953, -0.3715, 0.0131, 0.0101, 0.0096, 406, 771640, 0.0000, 0.0000, -0.0017, 0.0000, 1.3675, 0.0744, -0.7527, 0.0000, 0.0000, -0.0078
5.0790, 0.0000, 0.0000, 0.0000, 0.0000, 0.0000, 0.0000, 0.0706, 0.0955, -0.3703, 0.0132, 0.0108, 0.0101, 407, 771640, 0.0000, 0.0000, -0.0032, 0.0000, 1.3678, 0.0746, -0.7528, 0.0000, 0.0000, -0.0118
5.0990, 0.0000, 0.0000, 0.0000, 0.0000, 0.0000, 0.0000, 0.0709, 0.0958, -0.3691, 0.0135, 0.0108, 0.0098, 408, 771640, 0.0000, 0.0000, -0.0051, 0.0000, 1.3676, 0.0745, -0.7527, 0.0000, 0.0000, -0.0158
5.1190, 0.0000, 0.0000, 0.0000, 0.0000, 0.0000, 0.0000, 0.0711, 0.0960, -0.3681, 0.0136, 0.0105, 0.0097, 409, 771640, 0.0000, 0.0000, -0.0073, 0.0000, 1.3679, 0.0747, -0.7528, 0.0000, 0.0000, -0.0198
5.1390, 0.0000, 0.0000, 0.0000, 0.0000, 0.0000, 0.0000, 0.0714, 0.0959, -0.3671, 0.0137, 0.0100, 0.0092, 410, 771640, 0.0000, 0.0000, -0.0098, 0.0000, 1.3679, 0.0746, -0.7528, 0.0000, 0.0000, -0.0238
5.1590, 0.0000, 0.0000, 0.0000, 0.0000, 0.0000, 0.0000, 0.0715, 0.0963, -0.3662, 0.0140, 0.0099, 0.0090, 411, 771640, 0.0000, 0.0000, -0.0125, 0.0000, 1.3677, 0.0745, -0.7528, 0.0000, 0.0000, -0.0278
5.1790, 0.0000, 0.0000, 0.0000, 0.0000, 0.0000, 0.0000, 0.0717, 0.0965, -0.3652, 0.0139, 0.0098, 0.0087, 412, 771640, 0.0000, 0.0000, -0.0154, 0.0000, 1.3674, 0.0745, -0.7526, 0.0000, 0.0000, -0.0318
5.2000, 0.0000, 0.0000, 0.0000, 0.0000, 0.0000, 0.0000, 0.0718, 0.0967, -0.3643, 0.0141, 0.0101, 0.0094, 413, 771640, 0.0000, 0.0000, -0.0184, 0.0000, 1.3678, 0.0746, -0.7528, 0.0000, 0.0000, -0.0358
5.2200, 0.0000, 0.0000, 0.0000, 0.0000, 0.0000, 0.0000, 0.0719, 0.0969, -0.3634, 0.0140, 0.0109, 0.0096, 414, 771640, 0.0000, 0.0000, -0.0217, 0.0000, 1.3675, 0.0744, -0.7527, 0.0000, 0.0000, -0.0400
5.2390, 0.0000, 0.0000, 0.0000, 0.0000, 0.0000, 0.0000, 0.0719, 0.0971, -0.3625, 0.0141, 0.0113, 0.0106, 415, 771640, 0.0000, 0.0000, -0.0250, 0.0000, 1.3675, 0.0745, -0.7525, 0.0000, 0.0000, -0.0440
5.2590, 0.0000, 0.0000, 0.0000, 0.0000, 0.0000, 0.0000, 0.0719, 0.0973, -0.3618, 0.0143, 0.0107, 0.0100, 416, 771640, 0.0000, 0.0000, -0.0284, 0.0000, 1.3676, 0.0746, -0.7527, 0.0000, 0.0000, -0.0478
5.2790, 0.0000, 0.0000, 0.0000, 0.0000, 0.0000, 0.0000, 0.0719, 0.0974, -0.3611, 0.0146, 0.0096, 0.0097, 417, 771640, 0.0000, 0.0000, -0.0319, 0.0000, 1.3676, 0.0745, -0.7527, 0.0000, 0.0000, -0.0518
5.3000, 0.0000, 0.0000, 0.0000, 0.0000, 0.0000, 0.0000, 0.0719, 0.0976, -0.3605, 0.0147, 0.0090, 0.0088, 418, 771640, 0.0000, 0.0000, -0.0355, 0.0000, 1.3676, 0.0744, -0.7527, 0.0000, 0.0000, -0.0558
5.3200, 0.0000, 0.0000, 0.0000, 0.0000, 0.0000, 0.0000, 0.0719, 0.0978, -0.3598, 0.0150, 0.0081, 0.0082, 419, 771640, 0.0000, 0.0000, -0.0392, 0.0000, 1.3678, 0.0747, -0.7527, 0.0000, 0.0000, -0.0600
5.3400, 0.0000, 0.0000, 0.0000, 0.0000, 0.0000, 0.0000, 0.0719, 0.0980, -0.3592, 0.0148, 0.0079, 0.0085, 420, 771640, 0.0000, 0.0000, -0.0429, 0.0000, 1.3676, 0.0745, -0.7527, 0.0000, 0.0000, -0.0640
5.3600, 0.0000, 0.0000, 0.0000, 0.0000, 0.0000, 0.0000, 0.0718, 0.0981, -0.3587, 0.0152, 0.0076, 0.0082, 421, 771640, 0.0000, 0.0000, -0.0467, 0.0000, 1.3676, 0.0745, -0.7527, 0.0000, 0.0000, -0.0680
5.3800, 0.0000, 0.0000, 0.0000, 0.0000, 0.0000, 0.0000, 0.0716, 0.0983, -0.3582, 0.0153, 0.0073, 0.0085, 422, 771640, 0.0000, 0.0000, -0.0505, 0.0000, 1.3676, 0.0745, -0.7527, 0.0000, 0.0000, -0.0720
5.4000, 0.0000, 0.0000, 0.0000, 0.0000, 0.0000, 0.0000, 0.0714, 0.0986, -0.3575, 0.0154, 0.0073, 0.0087, 423, 771640, 0.0000, 0.0000, -0.0543, 0.0000, 1.3677, 0.0745, -0.7527, 0.0000, 0.0000, -0.0760
5.4200, 0.0000, 0.0000, 0.0000, 0.0000, 0.0000, 0.0000, 0.0712, 0.0987, -0.3571, 0.0157, 0.0071, 0.0089, 424, 771640, 0.0000, 0.0000, -0.0582, 0.0000, 1.3677, 0.0745, -0.7527, 0.0000, 0.0000, -0.0800
5.4390, 0.0000, 0.0000, 0.0000, 0.0000, 0.0000, 0.0000, 0.0711, 0.0988, -0.3566, 0.0152, 0.0078, 0.0089, 425, 771640, 0.0000, 0.0000, -0.0620, 0.0000, 1.3677, 0.0745, -0.7527, 0.0000, 0.0000, -0.0840
5.4600, 0.0000, 0.0000, 0.0000, 0.0000, 0.0000, 0.0000, 0.0709, 0.0990, -0.3562, 0.0158, 0.0080, 0.0088, 426, 771640, 0.0000, 0.0000, -0.0659, 0.0000, 1.3678, 0.0746, -0.7527, 0.0000, 0.0000, -0.0878
5.4800, 0.0000, 0.0000, 0.0000, 0.0000, 0.0000, 0.0000, 0.0707, 0.0992, -0.3559, 0.0159, 0.0080, 0.0089, 427, 771640, 0.0000, 0.0000, -0.0698, 0.0000, 1.3680, 0.0748, -0.7528, 0.0000, 0.0000, -0.0920
5.5000, 0.0000, 0.0000, 0.0000, 0.0000, 0.0000, 0.0000, 0.0705, 0.0993, -0.3556, 0.0161, 0.0076, 0.0089, 428, 771640, 0.0000, 0.0000, -0.0737, 0.0000, 1.3677, 0.0745, -0.7527, 0.0000, 0.0000, -0.0960
5.5200, 0.0000, 0.0000, 0.0000, 0.0000, 0.0000, 0.0000, 0.0703, 0.0993, -0.3554, 0.0163, 0.0067, 0.0083, 429, 771640, 0.0000, 0.0000, -0.0777, 0.0000, 1.3676, 0.0744, -0.7526, 0.0000, 0.0000, -0.1000
5.5400, 0.0000, 0.0000, 0.0000, 0.0000, 0.0000, 0.0000, 0.0701, 0.0995, -0.3550, 0.0163, 0.0064, 0.0082, 430, 771640, 0.0000, 0.0000, -0.0816, 0.0000, 1.3675, 0.0744, -0.7526, 0.0000, 0.0000, -0.1040
5.5600, 0.0000, 0.0000, 0.0000, 0.0000, 0.0000, 0.0000, 0.0698, 0.0997, -0.3548, 0.0166, 0.0062, 0.0078, 431, 771640, 0.0000, 0.0000, -0.0856, 0.0000, 1.3677, 0.0746, -0.7527, 0.0000, 0.0000, -0.1080
5.5800, 0.0000, 0.0000, 0.0000, 0.0000, 0.0000, 0.0000, 0.0697, 0.0997, -0.3546, 0.0163, 0.0060, 0.0080, 432, 771640, 0.0000, 0.0000, -0.0895, 0.0000, 1.3675, 0.0744, -0.7526, 0.0000, 0.0000, -0.1120
5.6000, 0.0000, 0.0000, 0.0000, 0.0000, 0.0000, 0.0000, 0.0694, 0.0997, -0.3541, 0.0163, 0.0053, 0.0083, 433, 771640, 0.0000, 0.0000, -0.0935, 0.0000, 1.3675, 0.0744, -0.7526, 0.0000, 0.0000, -0.1160
5.6200, 0.0000, 0.0000, 0.0000, 0.0000, 0.0000, 0.0000, 0.0691, 0.0999, -0.3540, 0.0164, 0.0047, 0.0077, 434, 771640, 0.0000, 0.0000, -0.0975, 0.0000, 1.3675, 0.0745, -0.7526, 0.0000, 0.0000, -0.1200
5.6400, 0.0000, 0.0000, 0.0000, 0.0000, 0.0000, 0.0000, 0.0689, 0.0999, -0.3536, 0.0162, 0.0050, 0.0082, 435, 771640, 0.0000, 0.0000, -0.1015, 0.0000, 1.3675, 0.0745, -0.7526, 0.0000, 0.0000, -0.1240
5.6600, 0.0000, 0.0000, 0.0000, 0.0000, 0.0000, 0.0000, 0.0686, 0.0999, -0.3535, 0.0165, 0.0047, 0.0079, 436, 771640, 0.0000, 0.0000, -0.1054, 0.0000, 1.3678, 0.0746, -0.7527, 0.0000, 0.0000, -0.1280
5.6790, 0.0000, 0.0000, 0.0000, 0.0000, 0.0000, 0.0000, 0.0683, 0.1000, -0.3532, 0.0167, 0.0048, 0.0077, 437, 771640, 0.0000, 0.0000, -0.1094, 0.0000, 1.3675, 0.0745, -0.7527, 0.0000, 0.0000, -0.1320
5.7000, 0.0000, 0.0000, 0.0000, 0.0000, 0.0000, 0.0000, 0.0680, 0.1001, -0.3531, 0.0168, 0.0047, 0.0077, 438, 771640, 0.0000, 0.0000, -0.1134, 0.0000, 1.3678, 0.0747, -0.7527, 0.0000, 0.0000, -0.1358
5.7200, 0.0000, 0.0000, 0.0000, 0.0000, 0.0000, 0.0000, 0.0676, 0.1000, -0.3531, 0.0168, 0.0051, 0.0070, 439, 771640, 0.0000, 0.0000, -0.1174, 0.0000, 1.3677, 0.0745, -0.7527, 0.0000, 0.0000, -0.1400
5.7400, 0.0000, 0.0000, 0.0000, 0.0000, 0.0000, 0.0000, 0.0673, 0.1001, -0.3530, 0.0170, 0.0046, 0.0084, 440, 771640, 0.0000, 0.0000, -0.1214, 0.0000, 1.3675, 0.0744, -0.7526, 0.0000, 0.0000, -0.1440
5.7600, 0.0000, 0.0000, 0.0000, 0.0000, 0.0000, 0.0000, 0.0671, 0.1001, -0.3531, 0.0170, 0.0038, 0.0079, 441, 771640, 0.0000, 0.0000, -0.1254, 0.0000, 1.3675, 0.0744, -0.7526, 0.0000, 0.0000, -0.1480
5.7800, 0.0000, 0.0000, 0.0000, 0.0000, 0.0000, 0.0000, 0.0669, 0.1001, -0.3532, 0.0172, 0.0025, 0.0083, 442, 771640, 0.0000, 0.0000, -0.1294, 0.0000, 1.3677, 0.0746, -0.7527, 0.0000, 0.0000, -0.1520
5.8000, 0.0000, 0.0000, 0.0000, 0.0000, 0.0000, 0.0000, 0.0666, 0.1000, -0.3535, 0.0172, 0.0018, 0.0077, 443, 771640, 0.0000, 0.0000, -0.1334, 0.0000, 1.3675, 0.0745, -0.7527, 0.0000, 0.0000, -0.1560
5.8200, 0.0000, 0.0000, 0.0000, 0.0000, 0.0000, 0.0000, 0.0663, 0.0999, -0.3536, 0.0175, 0.0016, 0.0076, 444, 771640, 0.0000, 0.0000, -0.1374, 0.0000, 1.3675, 0.0745, -0.7527, 0.0000, 0.0000, -0.1600
5.8400, 0.0000, 0.0000, 0.0000, 0.0000, 0.0000, 0.0000, 0.0661, 0.1000, -0.3536, 0.0175, 0.0018, 0.0081, 445, 771640, 0.0000, 0.0000, -0.1413, 0.0000, 1.3678, 0.0747, -0.7527, 0.0000, 0.0000, -0.1640
5.8600, 0.0000, 0.0000, 0.0000, 0.0000, 0.0000, 0.0000, 0.0659, 0.0999, -0.3539, 0.0174, 0.0023, 0.0080, 446, 771640, 0.0000, 0.0000, -0.1453, 0.0000, 1.3678, 0.0747, -0.7527, 0.0000, 0.0000, -0.1680
5.8800, 0.0000, 0.0000, 0.0000, 0.0000, 0.0000, 0.0000, 0.0657, 0.0998, -0.3540, 0.0174, 0.0017, 0.0077, 447, 771640, 0.0000, 0.0000, -0.1493, 0.0000, 1.3674, 0.0745, -0.7527, 0.0000, 0.0000, -0.1720
5.8990, 0.0000, 0.0000, 0.0000, 0.0000, 0.0000, 0.0000, 0.0655, 0.0997, -0.3541, 0.0176, 0.0008, 0.0079, 448, 771640, 0.0000, 0.0000, -0.1533, 0.0000, 1.3678, 0.0746, -0.7527, 0.0000, 0.0000, -0.1760
5.9190, 0.0000, 0.0000, 0.0000, 0.0000, 0.0000, 0.0000, 0.0654, 0.0996, -0.3543, 0.0177, -0.0001, 0.0080, 449, 771640, 0.0000, 0.0000, -0.1573, 0.0000, 1.3675, 0.0745, -0.7527, 0.0000, 0.0000, -0.1798
5.9390, 0.0000, 0.0000, 0.0000, 0.0000, 0.0000, 0.0000, 0.0653, 0.0996, -0.3545, 0.0177, -0.0005, 0.0087, 450, 771640, 0.0000, 0.0000, -0.1613, 0.0000, 1.3675, 0.0745, -0.7527, 0.0000, 0.0000, -0.1838
