time (s), accel_x (m/s^2), accel_y (m/s^2), accel_z (m/s^2), gyro_x (rad/s), gyro_y (rad/s), gyro_z (rad/s), x (m), y (m), z (m), yaw (rad), pitch (rad), roll (rad), mocap_counter, counter, desired x, desired y, desired z, desired yaw
0.0000, -0.5590, 0.0981, -10.0224, 0.0035, 0.0003, -0.0097, -0.0944, -0.0021, -0.0918, -0.0024, 0.0017, -0.0050, 889, 50859, 0.0000, 0.0000, 0.0000, 0.0000
0.0200, -0.5590, 0.0981, -10.0224, 0.0035, 0.0003, -0.0097, -0.0944, -0.0021, -0.0918, -0.0025, 0.0018, -0.0042, 890, 50859, 0.0000, 0.0000, 0.0000, 0.0000
0.0400, -0.5590, 0.0981, -10.0224, 0.0035, 0.0003, -0.0097, -0.0943, -0.0021, -0.0917, -0.0024, 0.0015, -0.0043, 891, 50859, 0.0000, 0.0000, 0.0000, 0.0000
0.0600, -0.5590, 0.0981, -10.0224, 0.0035, 0.0003, -0.0097, -0.0945, -0.0021, -0.0919, -0.0025, 0.0019, -0.0047, 892, 50859, 0.0000, 0.0000, 0.0000, 0.0000
0.0800, -0.5590, 0.0981, -10.0224, 0.0035, 0.0003, -0.0097, -0.0944, -0.0021, -0.0918, -0.0023, 0.0015, -0.0049, 893, 50859, 0.0000, 0.0000, 0.0000, 0.0000
0.1000, -0.5590, 0.0981, -10.0224, 0.0035, 0.0003, -0.0097, -0.0943, -0.0022, -0.0917, -0.0025, 0.0015, -0.0044, 894, 50859, 0.0000, 0.0000, 0.0000, 0.0000
0.1200, -0.5590, 0.0981, -10.0224, 0.0035, 0.0003, -0.0097, -0.0944, -0.0022, -0.0917, -0.0024, 0.0017, -0.0037, 895, 50859, 0.0000, 0.0000, 0.0000, 0.0000
0.1400, -0.5590, 0.0981, -10.0224, 0.0035, 0.0003, -0.0097, -0.0944, -0.0021, -0.0918, -0.0023, 0.0015, -0.0047, 896, 50859, 0.0000, 0.0000, 0.0000, 0.0000
0.1600, -0.5590, 0.0981, -10.0224, 0.0035, 0.0003, -0.0097, -0.0945, -0.0022, -0.0918, -0.0025, 0.0018, -0.0049, 897, 50859, 0.0000, 0.0000, 0.0000, 0.0000
0.1800, -0.5590, 0.0981, -10.0224, 0.0035, 0.0003, -0.0097, -0.0943, -0.0021, -0.0918, -0.0024, 0.0016, -0.0047, 898, 50859, 0.0000, 0.0000, 0.0000, 0.0000
0.2000, -0.5590, 0.0981, -10.0224, 0.0035, 0.0003, -0.0097, -0.0943, -0.0022, -0.0918, -0.0024, 0.0017, -0.0043, 899, 50859, 0.0000, 0.0000, 0.0000, 0.0000
0.2200, -0.5590, 0.0981, -10.0224, 0.0035, 0.0003, -0.0097, -0.0944, -0.0021, -0.0917, -0.0025, 0.0017, -0.0041, 900, 50859, 0.0000, 0.0000, 0.0000, 0.0000
0.2400, -0.5590, 0.0981, -10.0224, 0.0035, 0.0003, -0.0097, -0.0944, -0.0022, -0.0919, -0.0023, 0.0017, -0.0048, 901, 50859, 0.0000, 0.0000, 0.0000, 0.0000
0.2600, -0.5590, 0.0981, -10.0224, 0.0035, 0.0003, -0.0097, -0.0944, -0.0022, -0.0918, -0.0024, 0.0017, -0.0051, 902, 50859, 0.0000, 0.0000, 0.0000, 0.0000
0.2800, -0.5590, 0.0981, -10.0224, 0.0035, 0.0003, -0.0097, -0.0943, -0.0021, -0.0919, -0.0023, 0.0015, -0.0047, 903, 50859, 0.0000, 0.0000, 0.0000, 0.0000
0.3000, -0.5590, 0.0981, -10.0224, 0.0035, 0.0003, -0.0097, -0.0943, -0.0022, -0.0917, -0.0024, 0.0015, -0.0042, 904, 50859, 0.0000, 0.0000, 0.0000, 0.0000
0.3200, -0.5590, 0.0981, -10.0224, 0.0035, 0.0003, -0.0097, -0.0944, -0.0021, -0.0918, -0.0026, 0.0017, -0.0043, 905, 50859, 0.0000, 0.0000, 0.0000, 0.0000
0.3400, -0.5590, 0.0981, -10.0224, 0.0035, 0.0003, -0.0097, -0.0944, -0.0021, -0.0918, -0.0025, 0.0018, -0.0044, 906, 50859, 0.0000, 0.0000, 0.0000, 0.0000
0.3600, -0.5590, 0.0981, -10.0224, 0.0035, 0.0003, -0.0097, -0.0944, -0.0022, -0.0918, -0.0024, 0.0017, -0.0049, 907, 50859, 0.0000, 0.0000, 0.0000, 0.0000
0.3800, -0.5590, 0.0981, -10.0224, 0.0035, 0.0003, -0.0097, -0.0943, -0.0021, -0.0919, -0.0027, 0.0016, -0.0044, 908, 50859, 0.0000, 0.0000, 0.0000, 0.0000
0.4000, -0.5590, 0.0981, -10.0224, 0.0035, 0.0003, -0.0097, -0.0944, -0.0021, -0.0917, -0.0024, 0.0014, -0.0040, 909, 50859, 0.0000, 0.0000, 0.0000, 0.0000
0.4200, -0.5590, 0.0981, -10.0224, 0.0035, 0.0003, -0.0097, -0.0943, -0.0021, -0.0919, -0.0025, 0.0018, -0.0046, 910, 50859, 0.0000, 0.0000, 0.0000, 0.0000
0.4400, -0.5590, 0.0981, -10.0224, 0.0035, 0.0003, -0.0097, -0.0944, -0.0021, -0.0917, -0.0025, 0.0013, -0.0043, 911, 50859, 0.0000, 0.0000, 0.0000, 0.0000
0.4600, -0.5590, 0.0981, -10.0224, 0.0035, 0.0003, -0.0097, -0.0943, -0.0022, -0.0919, -0.0023, 0.0017, -0.0047, 912, 50859, 0.0000, 0.0000, 0.0000, 0.0000
0.4800, -0.5590, 0.0981, -10.0224, 0.0035, 0.0003, -0.0097, -0.0943, -0.0021, -0.0918, -0.0025, 0.0015, -0.0041, 913, 50859, 0.0000, 0.0000, 0.0000, 0.0000
0.5000, -0.5590, 0.0981, -10.0224, 0.0035, 0.0003, -0.0097, -0.0944, -0.0021, -0.0917, -0.0024, 0.0016, -0.0042, 914, 50859, 0.0000, 0.0000, 0.0000, 0.0000
0.5200, -0.5590, 0.0981, -10.0224, 0.0035, 0.0003, -0.0097, -0.0943, -0.0021, -0.0919, -0.0025, 0.0018, -0.0047, 915, 50859, 0.0000, 0.0000, 0.0000, 0.0000
0.5400, -0.5590, 0.0981, -10.0224, 0.0035, 0.0003, -0.0097, -0.0944, -0.0021, -0.0917, -0.0026, 0.0015, -0.0046, 916, 50859, 0.0000, 0.0000, 0.0000, 0.0000
0.5600, -0.5590, 0.0981, -10.0224, 0.0035, 0.0003, -0.0097, -0.0943, -0.0022, -0.0919, -0.0025, 0.0017, -0.0041, 917, 50859, 0.0000, 0.0000, 0.0000, 0.0000
0.5800, -0.5590, 0.0981, -10.0224, 0.0035, 0.0003, -0.0097, -0.0944, -0.0021, -0.0917, -0.0023, 0.0014, -0.0039, 918, 50859, 0.0000, 0.0000, 0.0000, 0.0000
0.6000, -0.5590, 0.0981, -10.0224, 0.0035, 0.0003, -0.0097, -0.0943, -0.0022, -0.0918, -0.0026, 0.0015, -0.0041, 919, 50859, 0.0000, 0.0000, 0.0000, 0.0000
0.6200, -0.5590, 0.0981, -10.0224, 0.0035, 0.0003, -0.0097, -0.0944, -0.0021, -0.0918, -0.0024, 0.0018, -0.0050, 920, 50859, 0.0000, 0.0000, 0.0000, 0.0000
0.6400, -0.5590, 0.0981, -10.0224, 0.0035, 0.0003, -0.0097, -0.0943, -0.0021, -0.0917, -0.0025, 0.0013, -0.0045, 921, 50859, 0.0000, 0.0000, 0.0000, 0.0000
0.6600, -0.5590, 0.0981, -10.0224, 0.0035, 0.0003, -0.0097, -0.0943, -0.0022, -0.0918, -0.0025, 0.0016, -0.0042, 922, 50859, 0.0000, 0.0000, 0.0000, 0.0000
0.6800, -0.5590, 0.0981, -10.0224, 0.0035, 0.0003, -0.0097, -0.0944, -0.0021, -0.0917, -0.0024, 0.0015, -0.0043, 923, 50859, 0.0000, 0.0000, 0.0000, 0.0000
0.7000, -0.5590, 0.0981, -10.0224, 0.0035, 0.0003, -0.0097, -0.0944, -0.0021, -0.0919, -0.0026, 0.0017, -0.0048, 924, 50859, 0.0000, 0.0000, 0.0000, 0.0000
0.7200, -0.5590, 0.0981, -10.0224, 0.0035, 0.0003, -0.0097, -0.0943, -0.0021, -0.0917, -0.0025, 0.0016, -0.0044, 925, 50859, 0.0000, 0.0000, 0.0000, 0.0000
0.7400, -0.5590, 0.0981, -10.0224, 0.0035, 0.0003, -0.0097, -0.0944, -0.0021, -0.0918, -0.0023, 0.0014, -0.0047, 926, 50859, 0.0000, 0.0000, 0.0000, 0.0000
0.7600, -0.5590, 0.0981, -10.0224, 0.0035, 0.0003, -0.0097, -0.0943, -0.0022, -0.0918, -0.0022, 0.0014, -0.0042, 927, 50859, 0.0000, 0.0000, 0.0000, 0.0000
0.7800, -0.5590, 0.0981, -10.0224, 0.0035, 0.0003, -0.0097, -0.0944, -0.0021, -0.0918, -0.0025, 0.0018, -0.0044, 928, 50859, 0.0000, 0.0000, 0.0000, 0.0000
0.8000, -0.5590, 0.0981, -10.0224, 0.0035, 0.0003, -0.0097, -0.0944, -0.0022, -0.0919, -0.0023, 0.0014, -0.0048, 929, 50859, 0.0000, 0.0000, 0.0000, 0.0000
0.8200, -0.5590, 0.0981, -10.0224, 0.0035, 0.0003, -0.0097, -0.0943, -0.0022, -0.0917, -0.0026, 0.0015, -0.0046, 930, 50859, 0.0000, 0.0000, 0.0000, 0.0000
0.8400, -0.5590, 0.0981, -10.0224, 0.0035, 0.0003, -0.0097, -0.0944, -0.0021, -0.0919, -0.0024, 0.0016, -0.0046, 931, 50859, 0.0000, 0.0000, 0.0000, 0.0000
0.8600, -0.5590, 0.0981, -10.0224, 0.0035, 0.0003, -0.0097, -0.0944, -0.0021, -0.0917, -0.0026, 0.0014, -0.0043, 932, 50859, 0.0000, 0.0000, 0.0000, 0.0000
0.8800, -0.5590, 0.0981, -10.0224, 0.0035, 0.0003, -0.0097, -0.0944, -0.0021, -0.0918, -0.0026, 0.0019, -0.0047, 933, 50859, 0.0000, 0.0000, 0.0000, 0.0000
0.9000, -0.5590, 0.0981, -10.0224, 0.0035, 0.0003, -0.0097, -0.0943, -0.0021, -0.0918, -0.0023, 0.0013, -0.0049, 934, 50859, 0.0000, 0.0000, 0.0000, 0.0000
0.9200, -0.5590, 0.0981, -10.0224, 0.0035, 0.0003, -0.0097, -0.0943, -0.0022, -0.0917, -0.0025, 0.0014, -0.0043, 935, 50859, 0.0000, 0.0000, 0.0000, 0.0000
0.9400, -0.5590, 0.0981, -10.0224, 0.0035, 0.0003, -0.0097, -0.0944, -0.0021, -0.0918, -0.0024, 0.0018, -0.0042, 936, 50859, 0.0000, 0.0000, 0.0000, 0.0000
0.9600, -0.5590, 0.0981, -10.0224, 0.0035, 0.0003, -0.0097, -0.0944, -0.0021, -0.0917, -0.0024, 0.0015, -0.0047, 937, 50859, 0.0000, 0.0000, 0.0000, 0.0000
0.9800, -0.5590, 0.0981, -10.0224, 0.0035, 0.0003, -0.0097, -0.0944, -0.0021, -0.0918, -0.0024, 0.0019, -0.0051, 938, 50859, 0.0000, 0.0000, 0.0000, 0.0000
1.0000, -0.5590, 0.0981, -10.0224, 0.0035, 0.0003, -0.0097, -0.0944, -0.0022, -0.0919, -0.0023, 0.0015, -0.0048, 939, 50859, 0.0000, 0.0000, 0.0000, 0.0000
1.0200, -0.5590, 0.0981, -10.0224, 0.0035, 0.0003, -0.0097, -0.0944, -0.0021, -0.0918, -0.0025, 0.0017, -0.0044, 940, 50859, 0.0000, 0.0000, 0.0000, 0.0000
1.0400, -0.5590, 0.0981, -10.0224, 0.0035, 0.0003, -0.0097, -0.0943, -0.0021, -0.0918, -0.0024, 0.0021, -0.0049, 941, 50859, 0.0000, 0.0000, 0.0000, 0.0000
1.0600, -0.5590, 0.0981, -10.0224, 0.0035, 0.0003, -0.0097, -0.0943, -0.0021, -0.0918, -0.0023, 0.0018, -0.0045, 942, 50859, 0.0000, 0.0000, 0.0000, 0.0000
1.0800, -0.5590, 0.0981, -10.0224, 0.0035, 0.0003, -0.0097, -0.0943, -0.0021, -0.0917, -0.0026, 0.0015, -0.0045, 943, 50859, 0.0000, 0.0000, 0.0000, 0.0000
1.1000, -0.5590, 0.0981, -10.0224, 0.0035, 0.0003, -0.0097, -0.0944, -0.0021, -0.0918, -0.0022, 0.0016, -0.0046, 944, 50859, 0.0000, 0.0000, 0.0000, 0.0000
1.1200, -0.5590, 0.0981, -10.0224, 0.0035, 0.0003, -0.0097, -0.0944, -0.0021, -0.0917, -0.0024, 0.0018, -0.0040, 945, 50859, 0.0000, 0.0000, 0.0000, 0.0000
1.1400, -0.5590, 0.0981, -10.0224, 0.0035, 0.0003, -0.0097, -0.0944, -0.0021, -0.0918, -0.0024, 0.0018, -0.0049, 946, 50859, 0.0000, 0.0000, 0.0000, 0.0000
1.1600, -0.5590, 0.0981, -10.0224, 0.0035, 0.0003, -0.0097, -0.0944, -0.0021, -0.0919, -0.0024, 0.0015, -0.0049, 947, 50859, 0.0000, 0.0000, 0.0000, 0.0000
1.1800, -0.5590, 0.0981, -10.0224, 0.0035, 0.0003, -0.0097, -0.0943, -0.0021, -0.0918, -0.0025, 0.0015, -0.0047, 948, 50859, 0.0000, 0.0000, 0.0000, 0.0000
1.2000, -0.5590, 0.0981, -10.0224, 0.0035, 0.0003, -0.0097, -0.0944, -0.0021, -0.0918, -0.0024, 0.0018, -0.0039, 949, 50859, 0.0000, 0.0000, 0.0000, 0.0000
1.2200, -0.5590, 0.0981, -10.0224, 0.0035, 0.0003, -0.0097, -0.0943, -0.0021, -0.0918, -0.0023, 0.0015, -0.0045, 950, 50859, 0.0000, 0.0000, 0.0000, 0.0000
1.2400, -0.5590, 0.0981, -10.0224, 0.0035, 0.0003, -0.0097, -0.0943, -0.0022, -0.0918, -0.0025, 0.0017, -0.0048, 951, 50859, 0.0000, 0.0000, 0.0000, 0.0000
1.2600, -0.5590, 0.0981, -10.0224, 0.0035, 0.0003, -0.0097, -0.0944, -0.0021, -0.0917, -0.0025, 0.0013, -0.0046, 952, 50859, 0.0000, 0.0000, 0.0000, 0.0000
1.2800, -0.5590, 0.0981, -10.0224, 0.0035, 0.0003, -0.0097, -0.0943, -0.0022, -0.0918, -0.0023, 0.0016, -0.0040, 953, 50859, 0.0000, 0.0000, 0.0000, 0.0000
1.3000, -0.5590, 0.0981, -10.0224, 0.0035, 0.0003, -0.0097, -0.0944, -0.0021, -0.0917, -0.0025, 0.0018, -0.0042, 954, 50859, 0.0000, 0.0000, 0.0000, 0.0000
1.3200, -0.5590, 0.0981, -10.0224, 0.0035, 0.0003, -0.0097, -0.0943, -0.0021, -0.0918, -0.0024, 0.0016, -0.0051, 955, 50859, 0.0000, 0.0000, 0.0000, 0.0000
1.3400, -0.5590, 0.0981, -10.0224, 0.0035, 0.0003, -0.0097, -0.0943, -0.0022, -0.0918, -0.0027, 0.0017, -0.0046, 956, 50859, 0.0000, 0.0000, 0.0000, 0.0000
1.3600, -0.5590, 0.0981, -10.0224, 0.0035, 0.0003, -0.0097, -0.0944, -0.0020, -0.0917, -0.0025, 0.0016, -0.0044, 957, 50859, 0.0000, 0.0000, 0.0000, 0.0000
1.3800, -0.5590, 0.0981, -10.0224, 0.0035, 0.0003, -0.0097, -0.0943, -0.0021, -0.0919, -0.0023, 0.0017, -0.0040, 958, 50859, 0.0000, 0.0000, 0.0000, 0.0000
1.4000, -0.5590, 0.0981, -10.0224, 0.0035, 0.0003, -0.0097, -0.0944, -0.0021, -0.0917, -0.0025, 0.0018, -0.0047, 959, 50859, 0.0000, 0.0000, 0.0000, 0.0000
1.4200, -0.5590, 0.0981, -10.0224, 0.0035, 0.0003, -0.0097, -0.0943, -0.0021, -0.0918, -0.0024, 0.0018, -0.0048, 960, 50859, 0.0000, 0.0000, 0.0000, 0.0000
1.4400, -0.5590, 0.0981, -10.0224, 0.0035, 0.0003, -0.0097, -0.0943, -0.0022, -0.0917, -0.0024, 0.0015, -0.0044, 961, 50859, 0.0000, 0.0000, 0.0000, 0.0000
1.4600, -0.5590, 0.0981, -10.0224, 0.0035, 0.0003, -0.0097, -0.0943, -0.0021, -0.0917, -0.0023, 0.0017, -0.0039, 962, 50859, 0.0000, 0.0000, 0.0000, 0.0000
1.4800, -0.5590, 0.0981, -10.0224, 0.0035, 0.0003, -0.0097, -0.0944, -0.0021, -0.0919, -0.0022, 0.0017, -0.0049, 963, 50859, 0.0000, 0.0000, 0.0000, 0.0000
1.5000, -0.5590, 0.0981, -10.0224, 0.0035, 0.0003, -0.0097, -0.0944, -0.0021, -0.0917, -0.0024, 0.0017, -0.0050, 964, 50859, 0.0000, 0.0000, 0.0000, 0.0000
1.5200, -0.5590, 0.0981, -10.0224, 0.0035, 0.0003, -0.0097, -0.0943, -0.0021, -0.0919, -0.0025, 0.0018, -0.0047, 965, 50859, 0.0000, 0.0000, 0.0000, 0.0000
1.5400, -0.5590, 0.0981, -10.0224, 0.0035, 0.0003, -0.0097, -0.0944, -0.0021, -0.0917, -0.0023, 0.0015, -0.0046, 966, 50859, 0.0000, 0.0000, 0.0000, 0.0000
1.5600, -0.5590, 0.0981, -10.0224, 0.0035, 0.0003, -0.0097, -0.0944, -0.0021, -0.0919, -0.0025, 0.0019, -0.0047, 967, 50859, 0.0000, 0.0000, 0.0000, 0.0000
1.5800, -0.5590, 0.0981, -10.0224, 0.0035, 0.0003, -0.0097, -0.0943, -0.0021, -0.0917, -0.0024, 0.0017, -0.0043, 968, 50859, 0.0000, 0.0000, 0.0000, 0.0000
1.6000, -0.5590, 0.0981, -10.0224, 0.0035, 0.0003, -0.0097, -0.0943, -0.0022, -0.0918, -0.0025, 0.0018, -0.0045, 969, 50859, 0.0000, 0.0000, 0.0000, 0.0000
1.6200, -0.5590, 0.0981, -10.0224, 0.0035, 0.0003, -0.0097, -0.0943, -0.0021, -0.0917, -0.0025, 0.0015, -0.0043, 970, 50859, 0.0000, 0.0000, 0.0000, 0.0000
1.6400, -0.5590, 0.0981, -10.0224, 0.0035, 0.0003, -0.0097, -0.0944, -0.0021, -0.0917, -0.0022, 0.0014, -0.0037, 971, 50859, 0.0000, 0.0000, 0.0000, 0.0000
1.6600, -0.5590, 0.0981, -10.0224, 0.0035, 0.0003, -0.0097, -0.0943, -0.0021, -0.0919, -0.0023, 0.0019, -0.0048, 972, 50859, 0.0000, 0.0000, 0.0000, 0.0000
1.6800, -0.5590, 0.0981, -10.0224, 0.0035, 0.0003, -0.0097, -0.0944, -0.0022, -0.0918, -0.0023, 0.0017, -0.0048, 973, 50859, 0.0000, 0.0000, 0.0000, 0.0000
1.7000, -0.5590, 0.0981, -10.0224, 0.0035, 0.0003, -0.0097, -0.0943, -0.0021, -0.0919, -0.0022, 0.0018, -0.0049, 974, 50859, 0.0000, 0.0000, 0.0000, 0.0000
1.7200, -0.5590, 0.0981, -10.0224, 0.0035, 0.0003, -0.0097, -0.0944, -0.0021, -0.0917, -0.0023, 0.0016, -0.0041, 975, 50859, 0.0000, 0.0000, 0.0000, 0.0000
1.7400, -0.5590, 0.0981, -10.0224, 0.0035, 0.0003, -0.0097, -0.0944, -0.0021, -0.0918, -0.0025, 0.0018, -0.0044, 976, 50859, 0.0000, 0.0000, 0.0000, 0.0000
1.7510, -0.5590, 0.0981, -10.0224, 0.0035, 0.0003, -0.0097, -0.0943, -0.0021, -0.0918, -0.0023, 0.0017, -0.0051, 977, 50859, 0.0000, 0.0000, 0.0000, 0.0000
1.7710, -0.5590, 0.0981, -10.0224, 0.0035, 0.0003, -0.0097, -0.0944, -0.0021, -0.0918, -0.0026, 0.0016, -0.0044, 978, 50859, 0.0000, 0.0000, 0.0000, 0.0000
1.7910, -0.5590, 0.0981, -10.0224, 0.0035, 0.0003, -0.0097, -0.0943, -0.0021, -0.0918, -0.0024, 0.0015, -0.0041, 979, 50859, 0.0000, 0.0000, 0.0000, 0.0000
1.8110, -0.5590, 0.0981, -10.0224, 0.0035, 0.0003, -0.0097, -0.0943, -0.0021, -0.0918, -0.0022, 0.0013, -0.0042, 980, 50859, 0.0000, 0.0000, 0.0000, 0.0000
1.8310, -0.5590, 0.0981, -10.0224, 0.0035, 0.0003, -0.0097, -0.0943, -0.0021, -0.0918, -0.0025, 0.0016, -0.0041, 981, 50859, 0.0000, 0.0000, 0.0000, 0.0000
1.8510, -0.5590, 0.0981, -10.0224, 0.0035, 0.0003, -0.0097, -0.0943, -0.0021, -0.0919, -0.0022, 0.0017, -0.0049, 982, 50859, 0.0000, 0.0000, 0.0000, 0.0000
1.8710, -0.5590, 0.0981, -10.0224, 0.0035, 0.0003, -0.0097, -0.0943, -0.0021, -0.0918, -0.0025, 0.0014, -0.0042, 983, 50859, 0.0000, 0.0000, 0.0000, 0.0000
1.8910, -0.5590, 0.0981, -10.0224, 0.0035, 0.0003, -0.0097, -0.0943, -0.0021, -0.0918, -0.0023, 0.0017, -0.0041, 984, 50859, 0.0000, 0.0000, 0.0000, 0.0000
1.9110, -0.5590, 0.0981, -10.0224, 0.0035, 0.0003, -0.0097, -0.0944, -0.0021, -0.0919, -0.0021, 0.0017, -0.0047, 985, 50859, 0.0000, 0.0000, 0.0000, 0.0000
1.9310, -0.5590, 0.0981, -10.0224, 0.0035, 0.0003, -0.0097, -0.0943, -0.0020, -0.0918, -0.0026, 0.0016, -0.0042, 986, 50859, 0.0000, 0.0000, 0.0000, 0.0000
1.9510, -0.5590, 0.0981, -10.0224, 0.0035, 0.0003, -0.0097, -0.0943, -0.0022, -0.0918, -0.0025, 0.0018, -0.0044, 987, 50859, 0.0000, 0.0000, 0.0000, 0.0000
1.9710, -0.5590, 0.0981, -10.0224, 0.0035, 0.0003, -0.0097, -0.0944, -0.0021, -0.0917, -0.0022, 0.0015, -0.0040, 988, 50859, 0.0000, 0.0000, 0.0000, 0.0000
1.9910, -0.5590, 0.0981, -10.0224, 0.0035, 0.0003, -0.0097, -0.0942, -0.0020, -0.0918, -0.0024, 0.0014, -0.0043, 989, 50859, 0.0000, 0.0000, 0.0000, 0.0000
2.0110, -0.5590, 0.0981, -10.0224, 0.0035, 0.0003, -0.0097, -0.0944, -0.0021, -0.0918, -0.0023, 0.0018, -0.0050, 990, 50859, 0.0000, 0.0000, 0.0000, 0.0000
2.0310, -0.5590, 0.0981, -10.0224, 0.0035, 0.0003, -0.0097, -0.0943, -0.0021, -0.0918, -0.0023, 0.0017, -0.0048, 991, 50859, 0.0000, 0.0000, 0.0000, 0.0000
2.0510, -0.5590, 0.0981, -10.0224, 0.0035, 0.0003, -0.0097, -0.0944, -0.0022, -0.0917, -0.0023, 0.0019, -0.0040, 992, 50859, 0.0000, 0.0000, 0.0000, 0.0000
2.0710, -0.5590, 0.0981, -10.0224, 0.0035, 0.0003, -0.0097, -0.0944, -0.0021, -0.0918, -0.0023, 0.0017, -0.0050, 993, 50859, 0.0000, 0.0000, 0.0000, 0.0000
2.0910, -0.5590, 0.0981, -10.0224, 0.0035, 0.0003, -0.0097, -0.0943, -0.0021, -0.0919, -0.0024, 0.0017, -0.0048, 994, 50859, 0.0000, 0.0000, 0.0000, 0.0000
2.1110, -0.5590, 0.0981, -10.0224, 0.0035, 0.0003, -0.0097, -0.0944, -0.0022, -0.0917, -0.0023, 0.0018, -0.0048, 995, 50859, 0.0000, 0.0000, 0.0000, 0.0000
2.1310, -0.5590, 0.0981, -10.0224, 0.0035, 0.0003, -0.0097, -0.0943, -0.0021, -0.0919, -0.0023, 0.0017, -0.0042, 996, 50859, 0.0000, 0.0000, 0.0000, 0.0000
2.1510, -0.5590, 0.0981, -10.0224, 0.0035, 0.0003, -0.0097, -0.0944, -0.0021, -0.0916, -0.0025, 0.0014, -0.0040, 997, 50859, 0.0000, 0.0000, 0.0000, 0.0000
2.1710, -0.5590, 0.0981, -10.0224, 0.0035, 0.0003, -0.0097, -0.0943, -0.0021, -0.0919, -0.0022, 0.0018, -0.0047, 998, 50859, 0.0000, 0.0000, 0.0000, 0.0000
2.1910, -0.5590, 0.0981, -10.0224, 0.0035, 0.0003, -0.0097, -0.0944, -0.0021, -0.0918, -0.0023, 0.0016, -0.0048, 999, 50859, 0.0000, 0.0000, 0.0000, 0.0000
2.2210, -0.5590, 0.0981, -10.0224, 0.0035, 0.0003, -0.0097, -0.0944, -0.0021, -0.0917, -0.0023, 0.0017, -0.0047, 1000, 50859, 0.0000, 0.0000, 0.0000, 0.0000
2.2310, -0.5590, 0.0981, -10.0224, 0.0035, 0.0003, -0.0097, -0.0944, -0.0021, -0.0918, -0.0022, 0.0019, -0.0041, 1001, 50859, 0.0000, 0.0000, 0.0000, 0.0000
2.2510, -0.5590, 0.0981, -10.0224, 0.0035, 0.0003, -0.0097, -0.0944, -0.0021, -0.0917, -0.0025, 0.0014, -0.0044, 1002, 50859, 0.0000, 0.0000, 0.0000, 0.0000
2.2710, -0.5590, 0.0981, -10.0224, 0.0035, 0.0003, -0.0097, -0.0943, -0.0021, -0.0920, -0.0023, 0.0020, -0.0049, 1003, 50859, 0.0000, 0.0000, 0.0000, 0.0000
2.2910, -0.5590, 0.0981, -10.0224, 0.0035, 0.0003, -0.0097, -0.0944, -0.0021, -0.0917, -0.0023, 0.0014, -0.0048, 1004, 50859, 0.0000, 0.0000, 0.0000, 0.0000
2.3110, -0.5590, 0.0981, -10.0224, 0.0035, 0.0003, -0.0097, -0.0944, -0.0021, -0.0918, -0.0024, 0.0016, -0.0045, 1005, 50859, 0.0000, 0.0000, 0.0000, 0.0000
2.3310, -0.5590, 0.0981, -10.0224, 0.0035, 0.0003, -0.0097, -0.0943, -0.0021, -0.0918, -0.0023, 0.0019, -0.0046, 1006, 50859, 0.0000, 0.0000, 0.0000, 0.0000
2.3510, -0.5590, 0.0981, -10.0224, 0.0035, 0.0003, -0.0097, -0.0943, -0.0021, -0.0918, -0.0023, 0.0015, -0.0046, 1007, 50859, 0.0000, 0.0000, 0.0000, 0.0000
2.3710, -0.5590, 0.0981, -10.0224, 0.0035, 0.0003, -0.0097, -0.0943, -0.0021, -0.0919, -0.0024, 0.0019, -0.0049, 1008, 50859, 0.0000, 0.0000, 0.0000, 0.0000
2.3910, -0.5590, 0.0981, -10.0224, 0.0035, 0.0003, -0.0097, -0.0944, -0.0021, -0.0917, -0.0023, 0.0017, -0.0042, 1009, 50859, 0.0000, 0.0000, 0.0000, 0.0000
2.4110, -0.5590, 0.0981, -10.0224, 0.0035, 0.0003, -0.0097, -0.0943, -0.0021, -0.0918, -0.0025, 0.0018, -0.0040, 1010, 50859, 0.0000, 0.0000, 0.0000, 0.0000
2.4310, -0.5590, 0.0981, -10.0224, 0.0035, 0.0003, -0.0097, -0.0944, -0.0021, -0.0918, -0.0022, 0.0019, -0.0049, 1011, 50859, 0.0000, 0.0000, 0.0000, 0.0000
2.4510, -0.5590, 0.0981, -10.0224, 0.0035, 0.0003, -0.0097, -0.0943, -0.0021, -0.0919, -0.0024, 0.0016, -0.0046, 1012, 50859, 0.0000, 0.0000, 0.0000, 0.0000
2.4810, -0.5590, 0.0981, -10.0224, 0.0035, 0.0003, -0.0097, -0.0943, -0.0021, -0.0917, -0.0024, 0.0015, -0.0043, 1013, 50859, 0.0000, 0.0000, 0.0000, 0.0000
2.4910, -0.5590, 0.0981, -10.0224, 0.0035, 0.0003, -0.0097, -0.0944, -0.0021, -0.0917, -0.0023, 0.0019, -0.0040, 1014, 50859, 0.0000, 0.0000, 0.0000, 0.0000
2.5110, -0.5590, 0.0981, -10.0224, 0.0035, 0.0003, -0.0097, -0.0943, -0.0021, -0.0918, -0.0023, 0.0018, -0.0049, 1015, 50859, 0.0000, 0.0000, 0.0000, 0.0000
2.5310, -0.5590, 0.0981, -10.0224, 0.0035, 0.0003, -0.0097, -0.0944, -0.0021, -0.0918, -0.0023, 0.0017, -0.0049, 1016, 50859, 0.0000, 0.0000, 0.0000, 0.0000
2.5510, -0.5590, 0.0981, -10.0224, 0.0035, 0.0003, -0.0097, -0.0944, -0.0021, -0.0919, -0.0023, 0.0017, -0.0045, 1017, 50859, 0.0000, 0.0000, 0.0000, 0.0000
2.5810, -0.5590, 0.0981, -10.0224, 0.0035, 0.0003, -0.0097, -0.0943, -0.0021, -0.0916, -0.0025, 0.0018, -0.0041, 1018, 50859, 0.0000, 0.0000, 0.0000, 0.0000
2.5910, -0.5590, 0.0981, -10.0224, 0.0035, 0.0003, -0.0097, -0.0944, -0.0021, -0.0918, -0.0024, 0.0020, -0.0047, 1019, 50859, 0.0000, 0.0000, 0.0000, 0.0000
2.6110, -0.5590, 0.0981, -10.0224, 0.0035, 0.0003, -0.0097, -0.0943, -0.0021, -0.0918, -0.0024, 0.0015, -0.0048, 1020, 50859, 0.0000, 0.0000, 0.0000, 0.0000
2.6310, -0.5590, 0.0981, -10.0224, 0.0035, 0.0003, -0.0097, -0.0943, -0.0021, -0.0918, -0.0024, 0.0015, -0.0045, 1021, 50859, 0.0000, 0.0000, 0.0000, 0.0000
2.6510, -0.5590, 0.0981, -10.0224, 0.0035, 0.0003, -0.0097, -0.0942, -0.0021, -0.0917, -0.0024, 0.0018, -0.0039, 1022, 50859, 0.0000, 0.0000, 0.0000, 0.0000
2.6710, -0.5590, 0.0981, -10.0224, 0.0035, 0.0003, -0.0097, -0.0943, -0.0021, -0.0917, -0.0023, 0.0018, -0.0041, 1023, 50859, 0.0000, 0.0000, 0.0000, 0.0000
2.7010, -0.5590, 0.0981, -10.0224, 0.0035, 0.0003, -0.0097, -0.0944, -0.0022, -0.0918, -0.0023, 0.0021, -0.0049, 1024, 50859, 0.0000, 0.0000, 0.0000, 0.0000
2.7110, -0.5590, 0.0981, -10.0224, 0.0035, 0.0003, -0.0097, -0.0943, -0.0021, -0.0918, -0.0023, 0.0018, -0.0046, 1025, 50859, 0.0000, 0.0000, 0.0000, 0.0000
2.7310, -0.5590, 0.0981, -10.0224, 0.0035, 0.0003, -0.0097, -0.0943, -0.0022, -0.0918, -0.0022, 0.0019, -0.0046, 1026, 50859, 0.0000, 0.0000, 0.0000, 0.0000
2.7510, -0.5590, 0.0981, -10.0224, 0.0035, 0.0003, -0.0097, -0.0943, -0.0021, -0.0918, -0.0023, 0.0020, -0.0045, 1027, 50859, 0.0000, 0.0000, 0.0000, 0.0000
2.7810, -0.5590, 0.0981, -10.0224, 0.0035, 0.0003, -0.0097, -0.0943, -0.0021, -0.0918, -0.0024, 0.0018, -0.0042, 1028, 50859, 0.0000, 0.0000, 0.0000, 0.0000
2.7910, -0.5590, 0.0981, -10.0224, 0.0035, 0.0003, -0.0097, -0.0943, -0.0022, -0.0918, -0.0022, 0.0017, -0.0047, 1029, 50859, 0.0000, 0.0000, 0.0000, 0.0000
2.8110, -0.5590, 0.0981, -10.0224, 0.0035, 0.0003, -0.0097, -0.0943, -0.0021, -0.0917, -0.0023, 0.0016, -0.0042, 1030, 50859, 0.0000, 0.0000, 0.0000, 0.0000
2.8310, -0.5590, 0.0981, -10.0224, 0.0035, 0.0003, -0.0097, -0.0942, -0.0022, -0.0917, -0.0022, 0.0019, -0.0039, 1031, 50859, 0.0000, 0.0000, 0.0000, 0.0000
2.8510, -0.5590, 0.0981, -10.0224, 0.0035, 0.0003, -0.0097, -0.0943, -0.0021, -0.0918, -0.0023, 0.0020, -0.0051, 1032, 50859, 0.0000, 0.0000, 0.0000, 0.0000
2.8710, -0.5590, 0.0981, -10.0224, 0.0035, 0.0003, -0.0097, -0.0943, -0.0021, -0.0918, -0.0024, 0.0019, -0.0044, 1033, 50859, 0.0000, 0.0000, 0.0000, 0.0000
2.8910, -0.5590, 0.0981, -10.0224, 0.0035, 0.0003, -0.0097, -0.0943, -0.0021, -0.0920, -0.0022, 0.0021, -0.0054, 1034, 50859, 0.0000, 0.0000, 0.0000, 0.0000
2.9110, -0.5590, 0.0981, -10.0224, 0.0035, 0.0003, -0.0097, -0.0943, -0.0021, -0.0924, -0.0023, 0.0025, -0.0048, 1035, 50859, 0.0000, 0.0000, 0.0000, 0.0000
2.9420, -0.5590, 0.0981, -10.0224, 0.0035, 0.0003, -0.0097, -0.0944, -0.0022, -0.0931, -0.0021, 0.0042, -0.0065, 1036, 50859, 0.0000, 0.0000, 0.0000, 0.0000
2.9510, -0.5590, 0.0981, -10.0224, 0.0035, 0.0003, -0.0097, -0.0947, -0.0024, -0.0940, -0.0011, 0.0066, -0.0078, 1037, 50859, 0.0000, 0.0000, 0.0000, 0.0000
2.9820, -0.5590, 0.0981, -10.0224, 0.0035, 0.0003, -0.0097, -0.0947, -0.0027, -0.0954, -0.0011, 0.0074, -0.0091, 1038, 50859, 0.0000, 0.0000, 0.0000, 0.0000
2.9910, -0.5590, 0.0981, -10.0224, 0.0035, 0.0003, -0.0097, -0.0945, -0.0027, -0.0978, -0.0007, 0.0084, -0.0089, 1039, 50859, 0.0000, 0.0000, 0.0000, 0.0000
3.0110, -0.5590, 0.0981, -10.0224, 0.0035, 0.0003, -0.0097, -0.0948, -0.0029, -0.1008, -0.0008, 0.0097, -0.0084, 1040, 50859, 0.0000, 0.0000, 0.0000, 0.0000
3.0310, -0.5590, 0.0981, -10.0224, 0.0035, 0.0003, -0.0097, -0.0945, -0.0031, -0.1046, -0.0005, 0.0120, -0.0100, 1041, 50859, 0.0000, 0.0000, 0.0000, 0.0000
3.0510, -0.5590, 0.0981, -10.0224, 0.0035, 0.0003, -0.0097, -0.0946, -0.0033, -0.1088, -0.0006, 0.0143, -0.0101, 1042, 50859, 0.0000, 0.0000, 0.0000, 0.0000
3.0710, -0.5590, 0.0981, -10.0224, 0.0035, 0.0003, -0.0097, -0.0945, -0.0036, -0.1135, -0.0001, 0.0175, -0.0089, 1043, 50859, 0.0000, 0.0000, 0.0000, 0.0000
3.0910, -0.5590, 0.0981, -10.0224, 0.0035, 0.0003, -0.0097, -0.0943, -0.0040, -0.1182, -0.0003, 0.0205, -0.0099, 1044, 50859, 0.0000, 0.0000, 0.0000, 0.0000
3.1110, -0.5590, 0.0981, -10.0224, 0.0035, 0.0003, -0.0097, -0.0943, -0.0044, -0.1232, 0.0004, 0.0219, -0.0106, 1045, 50859, 0.0000, 0.0000, 0.0000, 0.0000
3.1310, -0.5590, 0.0981, -10.0224, 0.0035, 0.0003, -0.0097, -0.0941, -0.0051, -0.1286, 0.0001, 0.0235, -0.0110, 1046, 50859, 0.0000, 0.0000, 0.0000, 0.0000
3.1510, -0.5590, 0.0981, -10.0224, 0.0035, 0.0003, -0.0097, -0.0942, -0.0055, -0.1336, 0.0006, 0.0240, -0.0104, 1047, 50859, 0.0000, 0.0000, 0.0000, 0.0000
3.1820, -0.5590, 0.0981, -10.0224, 0.0035, 0.0003, -0.0097, -0.0942, -0.0062, -0.1389, 0.0004, 0.0252, -0.0102, 1048, 50859, 0.0000, 0.0000, 0.0000, 0.0000
3.1910, -0.5590, 0.0981, -10.0224, 0.0035, 0.0003, -0.0097, -0.0943, -0.0069, -0.1438, 0.0003, 0.0276, -0.0094, 1049, 50859, 0.0000, 0.0000, 0.0000, 0.0000
3.2110, -0.5590, 0.0981, -10.0224, 0.0035, 0.0003, -0.0097, -0.0948, -0.0074, -0.1486, 0.0008, 0.0291, -0.0076, 1050, 50859, 0.0000, 0.0000, 0.0000, 0.0000
3.2310, -0.5590, 0.0981, -10.0224, 0.0035, 0.0003, -0.0097, -0.0951, -0.0083, -0.1532, 0.0008, 0.0313, -0.0062, 1051, 50859, 0.0000, 0.0000, 0.0000, 0.0000
3.2510, -0.5590, 0.0981, -10.0224, 0.0035, 0.0003, -0.0097, -0.0956, -0.0092, -0.1573, 0.0006, 0.0322, -0.0048, 1052, 50859, 0.0000, 0.0000, 0.0000, 0.0000
3.2810, -0.5590, 0.0981, -10.0224, 0.0035, 0.0003, -0.0097, -0.0961, -0.0099, -0.1616, 0.0019, 0.0326, -0.0038, 1053, 50859, 0.0000, 0.0000, 0.0000, 0.0000
3.2910, -0.5590, 0.0981, -10.0224, 0.0035, 0.0003, -0.0097, -0.0966, -0.0109, -0.1653, 0.0012, 0.0319, -0.0031, 1054, 50859, 0.0000, 0.0000, 0.0000, 0.0000
3.3110, -0.5590, 0.0981, -10.0224, 0.0035, 0.0003, -0.0097, -0.0975, -0.0118, -0.1691, 0.0023, 0.0296, -0.0020, 1055, 50859, 0.0000, 0.0000, 0.0000, 0.0000
3.3420, -0.5590, 0.0981, -10.0224, 0.0035, 0.0003, -0.0097, -0.0982, -0.0127, -0.1723, 0.0013, 0.0287, 0.0003, 1056, 50859, 0.0000, 0.0000, 0.0000, 0.0000
3.3610, -0.5590, 0.0981, -10.0224, 0.0035, 0.0003, -0.0097, -0.0990, -0.0137, -0.1751, 0.0019, 0.0270, 0.0030, 1057, 50859, 0.0000, 0.0000, 0.0000, 0.0000
3.3710, -0.5590, 0.0981, -10.0224, 0.0035, 0.0003, -0.0097, -0.0999, -0.0145, -0.1778, 0.0016, 0.0246, 0.0058, 1058, 50859, 0.0000, 0.0000, 0.0000, 0.0000
3.4010, -0.5590, 0.0981, -10.0224, 0.0035, 0.0003, -0.0097, -0.1010, -0.0155, -0.1797, 0.0026, 0.0232, 0.0093, 1059, 50859, 0.0000, 0.0000, 0.0000, 0.0000
3.4110, -0.5590, 0.0981, -10.0224, 0.0035, 0.0003, -0.0097, -0.1021, -0.0164, -0.1816, 0.0022, 0.0214, 0.0122, 1060, 50859, 0.0000, 0.0000, 0.0000, 0.0000
3.4310, -0.5590, 0.0981, -10.0224, 0.0035, 0.0003, -0.0097, -0.1034, -0.0172, -0.1829, 0.0027, 0.0190, 0.0156, 1061, 50859, 0.0000, 0.0000, 0.0000, 0.0000
3.4620, -0.5590, 0.0981, -10.0224, 0.0035, 0.0003, -0.0097, -0.1045, -0.0182, -0.1841, 0.0023, 0.0164, 0.0186, 1062, 50859, 0.0000, 0.0000, 0.0000, 0.0000
3.4710, -0.5590, 0.0981, -10.0224, 0.0035, 0.0003, -0.0097, -0.1055, -0.0189, -0.1850, 0.0025, 0.0144, 0.0203, 1063, 50859, 0.0000, 0.0000, 0.0000, 0.0000
3.4910, -0.5590, 0.0981, -10.0224, 0.0035, 0.0003, -0.0097, -0.1069, -0.0197, -0.1859, 0.0031, 0.0121, 0.0221, 1064, 50859, 0.0000, 0.0000, 0.0000, 0.0000
3.5110, -0.5590, 0.0981, -10.0224, 0.0035, 0.0003, -0.0097, -0.1081, -0.0204, -0.1867, 0.0028, 0.0100, 0.0216, 1065, 50859, 0.0000, 0.0000, 0.0000, 0.0000
3.5310, -0.5590, 0.0981, -10.0224, 0.0035, 0.0003, -0.0097, -0.1094, -0.0211, -0.1875, 0.0034, 0.0069, 0.0222, 1066, 50859, 0.0000, 0.0000, 0.0000, 0.0000
3.5510, -0.5590, 0.0981, -10.0224, 0.0035, 0.0003, -0.0097, -0.1104, -0.0215, -0.1881, 0.0033, 0.0052, 0.0224, 1067, 50859, 0.0000, 0.0000, 0.0000, 0.0000
3.5710, -0.5590, 0.0981, -10.0224, 0.0035, 0.0003, -0.0097, -0.1117, -0.0222, -0.1887, 0.0039, 0.0035, 0.0227, 1068, 50859, 0.0000, 0.0000, 0.0000, 0.0000
3.6010, -0.5590, 0.0981, -10.0224, 0.0035, 0.0003, -0.0097, -0.1131, -0.0226, -0.1894, 0.0038, 0.0019, 0.0236, 1069, 50859, 0.0000, 0.0000, 0.0000, 0.0000
3.6110, -0.5590, 0.0981, -10.0224, 0.0035, 0.0003, -0.0097, -0.1142, -0.0230, -0.1901, 0.0040, 0.0010, 0.0236, 1070, 50859, 0.0000, 0.0000, 0.0000, 0.0000
3.6420, -0.5590, 0.0981, -10.0224, 0.0035, 0.0003, -0.0097, -0.1157, -0.0234, -0.1907, 0.0041, 0.0001, 0.0234, 1071, 50859, 0.0000, 0.0000, 0.0000, 0.0000
3.6510, -0.5590, 0.0981, -10.0224, 0.0035, 0.0003, -0.0097, -0.1167, -0.0237, -0.1914, 0.0040, -0.0003, 0.0231, 1072, 50859, 0.0000, 0.0000, 0.0000, 0.0000
3.6810, -0.5590, 0.0981, -10.0224, 0.0035, 0.0003, -0.0097, -0.1180, -0.0239, -0.1920, 0.0043, -0.0016, 0.0230, 1073, 50859, 0.0000, 0.0000, 0.0000, 0.0000
3.7010, -0.5590, 0.0981, -10.0224, 0.0035, 0.0003, -0.0097, -0.1192, -0.0238, -0.1927, 0.0045, -0.0026, 0.0235, 1074, 50859, 0.0000, 0.0000, 0.0000, 0.0000
3.7220, -0.5590, 0.0981, -10.0224, 0.0035, 0.0003, -0.0097, -0.1203, -0.0239, -0.1934, 0.0052, -0.0044, 0.0239, 1075, 50859, 0.0000, 0.0000, 0.0000, 0.0000
3.7420, -0.5590, 0.0981, -10.0224, 0.0035, 0.0003, -0.0097, -0.1215, -0.0238, -0.1941, 0.0056, -0.0068, 0.0215, 1076, 50859, 0.0000, 0.0000, 0.0000, 0.0000
3.7530, -0.5590, 0.0981, -10.0224, 0.0035, 0.0003, -0.0097, -0.1223, -0.0237, -0.1949, 0.0058, -0.0073, 0.0200, 1077, 50859, 0.0000, 0.0000, 0.0000, 0.0000
3.7730, -0.5590, 0.0981, -10.0224, 0.0035, 0.0003, -0.0097, -0.1235, -0.0236, -0.1956, 0.0056, -0.0090, 0.0196, 1078, 50859, 0.0000, 0.0000, 0.0000, 0.0000
3.7930, -0.5590, 0.0981, -10.0224, 0.0035, 0.0003, -0.0097, -0.1241, -0.0232, -0.1962, 0.0064, -0.0097, 0.0182, 1079, 50859, 0.0000, 0.0000, 0.0000, 0.0000
3.8130, -0.5590, 0.0981, -10.0224, 0.0035, 0.0003, -0.0097, -0.1252, -0.0231, -0.1970, 0.0060, -0.0111, 0.0170, 1080, 50859, 0.0000, 0.0000, 0.0000, 0.0000
3.8330, -0.5590, 0.0981, -10.0224, 0.0035, 0.0003, -0.0097, -0.1259, -0.0229, -0.1977, 0.0064, -0.0119, 0.0162, 1081, 50859, 0.0000, 0.0000, 0.0000, 0.0000
3.8530, -0.5590, 0.0981, -10.0224, 0.0035, 0.0003, -0.0097, -0.1264, -0.0224, -0.1982, 0.0062, -0.0122, 0.0149, 1082, 50859, 0.0000, 0.0000, 0.0000, 0.0000
3.8730, -0.5590, 0.0981, -10.0224, 0.0035, 0.0003, -0.0097, -0.1273, -0.0221, -0.1988, 0.0064, -0.0121, 0.0141, 1083, 50859, 0.0000, 0.0000, 0.0000, 0.0000
3.8930, -0.5590, 0.0981, -10.0224, 0.0035, 0.0003, -0.0097, -0.1279, -0.0217, -0.1994, 0.0057, -0.0120, 0.0130, 1084, 50859, 0.0000, 0.0000, 0.0000, 0.0000
3.9150, -0.5590, 0.0981, -10.0224, 0.0035, 0.0003, -0.0097, -0.1285, -0.0211, -0.1998, 0.0062, -0.0119, 0.0127, 1085, 50859, 0.0000, 0.0000, 0.0000, 0.0000
3.9350, -0.5590, 0.0981, -10.0224, 0.0035, 0.0003, -0.0097, -0.1290, -0.0208, -0.2001, 0.0061, -0.0106, 0.0129, 1086, 50859, 0.0000, 0.0000, 0.0000, 0.0000
3.9550, -0.5590, 0.0981, -10.0224, 0.0035, 0.0003, -0.0097, -0.1293, -0.0203, -0.2004, 0.0060, -0.0104, 0.0112, 1087, 50859, 0.0000, 0.0000, 0.0000, 0.0000
3.9740, -0.5590, 0.0981, -10.0224, 0.0035, 0.0003, -0.0097, -0.1297, -0.0198, -0.2008, 0.0062, -0.0102, 0.0124, 1088, 50859, 0.0000, 0.0000, 0.0000, 0.0000
3.9950, -0.5590, 0.0981, -10.0224, 0.0035, 0.0003, -0.0097, -0.1300, -0.0194, -0.2011, 0.0055, -0.0108, 0.0124, 1089, 50859, 0.0000, 0.0000, 0.0000, 0.0000
4.0150, -0.5590, 0.0981, -10.0224, 0.0035, 0.0003, -0.0097, -0.1304, -0.0189, -0.2014, 0.0064, -0.0117, 0.0123, 1090, 50859, 0.0000, 0.0000, 0.0000, 0.0000
4.0350, -0.5590, 0.0981, -10.0224, 0.0035, 0.0003, -0.0097, -0.1304, -0.0182, -0.2016, 0.0054, -0.0119, 0.0136, 1091, 50859, 0.0000, 0.0000, 0.0000, 0.0000
4.0550, -0.5590, 0.0981, -10.0224, 0.0035, 0.0003, -0.0097, -0.1306, -0.0176, -0.2017, 0.0058, -0.0111, 0.0146, 1092, 50859, 0.0000, 0.0000, 0.0000, 0.0000
4.0750, -0.5590, 0.0981, -10.0224, 0.0035, 0.0003, -0.0097, -0.1308, -0.0170, -0.2018, 0.0056, -0.0107, 0.0159, 1093, 50859, 0.0000, 0.0000, 0.0000, 0.0000
4.0950, -0.5590, 0.0981, -10.0224, 0.0035, 0.0003, -0.0097, -0.1308, -0.0163, -0.2018, 0.0050, -0.0108, 0.0160, 1094, 50859, 0.0000, 0.0000, 0.0000, 0.0000
4.1150, -0.5590, 0.0981, -10.0224, 0.0035, 0.0003, -0.0097, -0.1311, -0.0157, -0.2018, 0.0054, -0.0101, 0.0168, 1095, 50859, 0.0000, 0.0000, 0.0000, 0.0000
4.1350, -0.5590, 0.0981, -10.0224, 0.0035, 0.0003, -0.0097, -0.1309, -0.0150, -0.2016, 0.0041, -0.0092, 0.0174, 1096, 50859, 0.0000, 0.0000, 0.0000, 0.0000
4.1550, -0.5590, 0.0981, -10.0224, 0.0035, 0.0003, -0.0097, -0.1310, -0.0143, -0.2014, 0.0054, -0.0087, 0.0170, 1097, 50859, 0.0000, 0.0000, 0.0000, 0.0000
4.1750, -0.5590, 0.0981, -10.0224, 0.0035, 0.0003, -0.0097, -0.1308, -0.0138, -0.2011, 0.0045, -0.0082, 0.0164, 1098, 50859, 0.0000, 0.0000, 0.0000, 0.0000
4.1950, -0.5590, 0.0981, -10.0224, 0.0035, 0.0003, -0.0097, -0.1307, -0.0130, -0.2007, 0.0052, -0.0077, 0.0169, 1099, 50859, 0.0000, 0.0000, 0.0000, 0.0000
4.2150, -0.5590, 0.0981, -10.0224, 0.0035, 0.0003, -0.0097, -0.1305, -0.0120, -0.2004, 0.0055, -0.0078, 0.0168, 1100, 50859, 0.0000, 0.0000, 0.0000, 0.0000
4.2350, -0.5590, 0.0981, -10.0224, 0.0035, 0.0003, -0.0097, -0.1302, -0.0114, -0.1997, 0.0045, -0.0072, 0.0166, 1101, 50859, 0.0000, 0.0000, 0.0000, 0.0000
4.2550, -0.5590, 0.0981, -10.0224, 0.0035, 0.0003, -0.0097, -0.1300, -0.0103, -0.1989, 0.0054, -0.0069, 0.0171, 1102, 50859, 0.0000, 0.0000, 0.0000, 0.0000
4.2750, -0.5590, 0.0981, -10.0224, 0.0035, 0.0003, -0.0097, -0.1295, -0.0095, -0.1982, 0.0046, -0.0068, 0.0173, 1103, 50859, 0.0000, 0.0000, 0.0000, 0.0000
4.2950, -0.5590, 0.0981, -10.0224, 0.0035, 0.0003, -0.0097, -0.1292, -0.0085, -0.1972, 0.0047, -0.0074, 0.0165, 1104, 50859, 0.0000, 0.0000, 0.0000, 0.0000
4.3150, -0.5590, 0.0981, -10.0224, 0.0035, 0.0003, -0.0097, -0.1289, -0.0077, -0.1964, 0.0050, -0.0069, 0.0154, 1105, 50859, 0.0000, 0.0000, 0.0000, 0.0000
4.3350, -0.5590, 0.0981, -10.0224, 0.0035, 0.0003, -0.0097, -0.1284, -0.0067, -0.1954, 0.0053, -0.0055, 0.0131, 1106, 50859, 0.0000, 0.0000, 0.0000, 0.0000
4.3550, -0.5590, 0.0981, -10.0224, 0.0035, 0.0003, -0.0097, -0.1280, -0.0058, -0.1945, 0.0053, -0.0044, 0.0116, 1107, 50859, 0.0000, 0.0000, 0.0000, 0.0000
4.3750, -0.5590, 0.0981, -10.0224, 0.0035, 0.0003, -0.0097, -0.1274, -0.0048, -0.1936, 0.0054, -0.0027, 0.0104, 1108, 50859, 0.0000, 0.0000, 0.0000, 0.0000
4.3950, -0.5590, 0.0981, -10.0224, 0.0035, 0.0003, -0.0097, -0.1270, -0.0037, -0.1928, 0.0056, -0.0019, 0.0090, 1109, 50859, 0.0000, 0.0000, 0.0000, 0.0000
4.4150, -0.5590, 0.0981, -10.0224, 0.0035, 0.0003, -0.0097, -0.1264, -0.0027, -0.1922, 0.0058, -0.0013, 0.0091, 1110, 50859, 0.0000, 0.0000, 0.0000, 0.0000
4.4350, -0.5590, 0.0981, -10.0224, 0.0035, 0.0003, -0.0097, -0.1258, -0.0016, -0.1916, 0.0059, -0.0008, 0.0084, 1111, 50859, 0.0000, 0.0000, 0.0000, 0.0000
4.4550, -0.5590, 0.0981, -10.0224, 0.0035, 0.0003, -0.0097, -0.1255, -0.0007, -0.1911, 0.0060, 0.0006, 0.0063, 1112, 50859, 0.0000, 0.0000, 0.0000, 0.0000
4.4750, -0.5590, 0.0981, -10.0224, 0.0035, 0.0003, -0.0097, -0.1249, 0.0004, -0.1908, 0.0066, 0.0026, 0.0043, 1113, 50859, 0.0000, 0.0000, 0.0000, 0.0000
4.4950, -0.5590, 0.0981, -10.0224, 0.0035, 0.0003, -0.0097, -0.1245, 0.0014, -0.1902, 0.0069, 0.0034, 0.0045, 1114, 50859, 0.0000, 0.0000, 0.0000, 0.0000
4.5150, -0.5590, 0.0981, -10.0224, 0.0035, 0.0003, -0.0097, -0.1240, 0.0025, -0.1901, 0.0078, 0.0041, 0.0036, 1115, 50859, 0.0000, 0.0000, 0.0000, 0.0000
4.5350, -0.5590, 0.0981, -10.0224, 0.0035, 0.0003, -0.0097, -0.1236, 0.0036, -0.1898, 0.0070, 0.0046, 0.0026, 1116, 50859, 0.0000, 0.0000, 0.0000, 0.0000
4.5550, -0.5590, 0.0981, -10.0224, 0.0035, 0.0003, -0.0097, -0.1229, 0.0045, -0.1895, 0.0070, 0.0046, 0.0011, 1117, 50859, 0.0000, 0.0000, 0.0000, 0.0000
4.5750, -0.5590, 0.0981, -10.0224, 0.0035, 0.0003, -0.0097, -0.1226, 0.0055, -0.1897, 0.0077, 0.0042, 0.0008, 1118, 50859, 0.0000, 0.0000, 0.0000, 0.0000
4.5950, -0.5590, 0.0981, -10.0224, 0.0035, 0.0003, -0.0097, -0.1221, 0.0064, -0.1895, 0.0068, 0.0042, -0.0002, 1119, 50859, 0.0000, 0.0000, 0.0000, 0.0000
4.6150, -0.5590, 0.0981, -10.0224, 0.0035, 0.0003, -0.0097, -0.1217, 0.0074, -0.1895, 0.0080, 0.0049, 0.0007, 1120, 50859, 0.0000, 0.0000, 0.0000, 0.0000
4.6350, -0.5590, 0.0981, -10.0224, 0.0035, 0.0003, -0.0097, -0.1213, 0.0085, -0.1894, 0.0076, 0.0058, 0.0001, 1121, 50859, 0.0000, 0.0000, 0.0000, 0.0000
4.6550, -0.5590, 0.0981, -10.0224, 0.0035, 0.0003, -0.0097, -0.1209, 0.0094, -0.1891, 0.0077, 0.0064, 0.0011, 1122, 50859, 0.0000, 0.0000, 0.0000, 0.0000
4.6750, -0.5590, 0.0981, -10.0224, 0.0035, 0.0003, -0.0097, -0.1205, 0.0104, -0.1890, 0.0081, 0.0068, 0.0015, 1123, 50859, 0.0000, 0.0000, 0.0000, 0.0000
4.6950, -0.5590, 0.0981, -10.0224, 0.0035, 0.0003, -0.0097, -0.1201, 0.0112, -0.1888, 0.0082, 0.0075, 0.0008, 1124, 50859, 0.0000, 0.0000, 0.0000, 0.0000
4.7150, -0.5590, 0.0981, -10.0224, 0.0035, 0.0003, -0.0097, -0.1197, 0.0119, -0.1886, 0.0082, 0.0071, 0.0012, 1125, 50859, 0.0000, 0.0000, 0.0000, 0.0000
4.7350, -0.5590, 0.0981, -10.0224, 0.0035, 0.0003, -0.0097, -0.1196, 0.0127, -0.1884, 0.0085, 0.0068, -0.0001, 1126, 50859, 0.0000, 0.0000, 0.0000, 0.0000
4.7550, -0.5590, 0.0981, -10.0224, 0.0035, 0.0003, -0.0097, -0.1192, 0.0134, -0.1885, 0.0084, 0.0080, -0.0022, 1127, 50859, 0.0000, 0.0000, 0.0000, 0.0000
4.7750, -0.5590, 0.0981, -10.0224, 0.0035, 0.0003, -0.0097, -0.1190, 0.0143, -0.1884, 0.0090, 0.0084, -0.0030, 1128, 50859, 0.0000, 0.0000, 0.0000, 0.0000
4.7950, -0.5590, 0.0981, -10.0224, 0.0035, 0.0003, -0.0097, -0.1186, 0.0150, -0.1886, 0.0094, 0.0093, -0.0033, 1129, 50859, 0.0000, 0.0000, 0.0000, 0.0000
4.8150, -0.5590, 0.0981, -10.0224, 0.0035, 0.0003, -0.0097, -0.1184, 0.0158, -0.1885, 0.0086, 0.0104, -0.0030, 1130, 50859, 0.0000, 0.0000, 0.0000, 0.0000
4.8350, -0.5590, 0.0981, -10.0224, 0.0035, 0.0003, -0.0097, -0.1184, 0.0164, -0.1885, 0.0092, 0.0099, -0.0025, 1131, 50859, 0.0000, 0.0000, 0.0000, 0.0000
4.8550, -0.5590, 0.0981, -10.0224, 0.0035, 0.0003, -0.0097, -0.1180, 0.0171, -0.1887, 0.0090, 0.0100, -0.0024, 1132, 50859, 0.0000, 0.0000, 0.0000, 0.0000
4.8740, -0.5590, 0.0981, -10.0224, 0.0035, 0.0003, -0.0097, -0.1181, 0.0176, -0.1887, 0.0087, 0.0096, -0.0027, 1133, 50859, 0.0000, 0.0000, 0.0000, 0.0000
4.8950, -0.5590, 0.0981, -10.0224, 0.0035, 0.0003, -0.0097, -0.1178, 0.0183, -0.1889, 0.0090, 0.0091, -0.0024, 1134, 50859, 0.0000, 0.0000, 0.0000, 0.0000
4.9150, -0.5590, 0.0981, -10.0224, 0.0035, 0.0003, -0.0097, -0.1178, 0.0187, -0.1886, 0.0088, 0.0098, -0.0013, 1135, 50859, 0.0000, 0.0000, 0.0000, 0.0000
4.9350, -0.5590, 0.0981, -10.0224, 0.0035, 0.0003, -0.0097, -0.1178, 0.0193, -0.1889, 0.0094, 0.0084, -0.0032, 1136, 50859, 0.0000, 0.0000, 0.0000, 0.0000
4.9550, -0.5590, 0.0981, -10.0224, 0.0035, 0.0003, -0.0097, -0.1178, 0.0197, -0.1889, 0.0095, 0.0081, -0.0036, 1137, 50859, 0.0000, 0.0000, 0.0000, 0.0000
4.9750, -0.5590, 0.0981, -10.0224, 0.0035, 0.0003, -0.0097, -0.1180, 0.0201, -0.1889, 0.0095, 0.0088, -0.0037, 1138, 50859, 0.0000, 0.0000, 0.0000, 0.0000
4.9950, -0.5590, 0.0981, -10.0224, 0.0035, 0.0003, -0.0097, -0.1181, 0.0205, -0.1889, 0.0096, 0.0089, -0.0029, 1139, 50859, 0.0000, 0.0000, 0.0000, 0.0000
5.0150, -0.5590, 0.0981, -10.0224, 0.0035, 0.0003, -0.0097, -0.1182, 0.0208, -0.1888, 0.0095, 0.0097, -0.0030, 1140, 50859, 0.0000, 0.0000, 0.0000, 0.0000
5.0350, -0.5590, 0.0981, -10.0224, 0.0035, 0.0003, -0.0097, -0.1185, 0.0211, -0.1889, 0.0100, 0.0098, -0.0045, 1141, 50859, 0.0000, 0.0000, -0.0050, 0.0000
5.0550, -0.5590, 0.0981, -10.0224, 0.0035, 0.0003, -0.0097, -0.1188, 0.0212, -0.1890, 0.0100, 0.0099, -0.0043, 1142, 50859, 0.0000, 0.0000, -0.0117, 0.0000
5.0750, -0.5590, 0.0981, -10.0224, 0.0035, 0.0003, -0.0097, -0.1190, 0.0213, -0.1889, 0.0102, 0.0108, -0.0050, 1143, 50859, 0.0000, 0.0000, -0.0183, 0.0000
5.0950, -0.5590, 0.0981, -10.0224, 0.0035, 0.0003, -0.0097, -0.1194, 0.0214, -0.1890, 0.0102, 0.0116, -0.0052, 1144, 50859, 0.0000, 0.0000, -0.0250, 0.0000
5.1150, -0.5590, 0.0981, -10.0224, 0.0035, 0.0003, -0.0097, -0.1198, 0.0214, -0.1891, 0.0110, 0.0114, -0.0056, 1145, 50859, 0.0000, 0.0000, -0.0317, 0.0000
5.1350, -0.5590, 0.0981, -10.0224, 0.0035, 0.0003, -0.0097, -0.1201, 0.0214, -0.1892, 0.0107, 0.0113, -0.0060, 1146, 50859, 0.0000, 0.0000, -0.0383, 0.0000
5.1540, -0.5590, 0.0981, -10.0224, 0.0035, 0.0003, -0.0097, -0.1207, 0.0213, -0.1893, 0.0110, 0.0112, -0.0055, 1147, 50859, 0.0000, 0.0000, -0.0450, 0.0000
5.1740, -0.5590, 0.0981, -10.0224, 0.0035, 0.0003, -0.0097, -0.1212, 0.0213, -0.1893, 0.0115, 0.0119, -0.0034, 1148, 50859, 0.0000, 0.0000, -0.0513, 0.0000
5.1940, -0.5590, 0.0981, -10.0224, 0.0035, 0.0003, -0.0097, -0.1217, 0.0210, -0.1894, 0.0109, 0.0113, -0.0020, 1149, 50859, 0.0000, 0.0000, -0.0580, 0.0000
5.2140, -0.5590, 0.0981, -10.0224, 0.0035, 0.0003, -0.0097, -0.1223, 0.0210, -0.1897, 0.0114, 0.0101, -0.0005, 1150, 50859, 0.0000, 0.0000, -0.0647, 0.0000
5.2340, -0.5590, 0.0981, -10.0224, 0.0035, 0.0003, -0.0097, -0.1228, 0.0208, -0.1901, 0.0112, 0.0082, 0.0011, 1151, 50859, 0.0000, 0.0000, -0.0713, 0.0000
5.2540, -0.5590, 0.0981, -10.0224, 0.0035, 0.0003, -0.0097, -0.1233, 0.0206, -0.1904, 0.0108, 0.0065, 0.0018, 1152, 50859, 0.0000, 0.0000, -0.0780, 0.0000
5.2750, -0.5590, 0.0981, -10.0224, 0.0035, 0.0003, -0.0097, -0.1240, 0.0203, -0.1910, 0.0110, 0.0062, 0.0012, 1153, 50859, 0.0000, 0.0000, -0.0847, 0.0000
5.2950, -0.5590, 0.0981, -10.0224, 0.0035, 0.0003, -0.0097, -0.1247, 0.0200, -0.1916, 0.0103, 0.0052, 0.0013, 1154, 50859, 0.0000, 0.0000, -0.0917, 0.0000
5.3140, -0.5590, 0.0981, -10.0224, 0.0035, 0.0003, -0.0097, -0.1255, 0.0198, -0.1925, 0.0103, 0.0033, 0.0015, 1155, 50859, 0.0000, 0.0000, -0.0983, 0.0000
5.3340, -0.5590, 0.0981, -10.0224, 0.0035, 0.0003, -0.0097, -0.1262, 0.0195, -0.1937, 0.0102, 0.0015, 0.0008, 1156, 50859, 0.0000, 0.0000, -0.1047, 0.0000
5.3540, -0.5590, 0.0981, -10.0224, 0.0035, 0.0003, -0.0097, -0.1267, 0.0193, -0.1948, 0.0094, 0.0004, 0.0004, 1157, 50859, 0.0000, 0.0000, -0.1113, 0.0000
5.3750, -0.5590, 0.0981, -10.0224, 0.0035, 0.0003, -0.0097, -0.1274, 0.0190, -0.1961, 0.0089, -0.0009, 0.0008, 1158, 50859, 0.0000, 0.0000, -0.1180, 0.0000
5.3950, -0.5590, 0.0981, -10.0224, 0.0035, 0.0003, -0.0097, -0.1281, 0.0188, -0.1973, 0.0084, -0.0018, 0.0017, 1159, 50859, 0.0000, 0.0000, -0.1250, 0.0000
5.4150, -0.5590, 0.0981, -10.0224, 0.0035, 0.0003, -0.0097, -0.1287, 0.0185, -0.1987, 0.0080, -0.0029, 0.0006, 1160, 50859, 0.0000, 0.0000, -0.1317, 0.0000
5.4340, -0.5590, 0.0981, -10.0224, 0.0035, 0.0003, -0.0097, -0.1293, 0.0181, -0.2005, 0.0078, -0.0041, 0.0007, 1161, 50859, 0.0000, 0.0000, -0.1383, 0.0000
5.4540, -0.5590, 0.0981, -10.0224, 0.0035, 0.0003, -0.0097, -0.1299, 0.0178, -0.2020, 0.0070, -0.0044, 0.0006, 1162, 50859, 0.0000, 0.0000, -0.1447, 0.0000
5.4740, -0.5590, 0.0981, -10.0224, 0.0035, 0.0003, -0.0097, -0.1305, 0.0174, -0.2036, 0.0071, -0.0044, 0.0018, 1163, 50859, 0.0000, 0.0000, -0.1513, 0.0000
5.4940, -0.5590, 0.0981, -10.0224, 0.0035, 0.0003, -0.0097, -0.1312, 0.0171, -0.2052, 0.0066, -0.0048, 0.0032, 1164, 50859, 0.0000, 0.0000, -0.1580, 0.0000
5.5140, -0.5590, 0.0981, -10.0224, 0.0035, 0.0003, -0.0097, -0.1317, 0.0167, -0.2073, 0.0066, -0.0050, 0.0028, 1165, 50859, 0.0000, 0.0000, -0.1647, 0.0000
5.5340, -0.5590, 0.0981, -10.0224, 0.0035, 0.0003, -0.0097, -0.1323, 0.0162, -0.2092, 0.0067, -0.0055, 0.0036, 1166, 50859, 0.0000, 0.0000, -0.1713, 0.0000
5.5540, -0.5590, 0.0981, -10.0224, 0.0035, 0.0003, -0.0097, -0.1329, 0.0159, -0.2113, 0.0068, -0.0051, 0.0029, 1167, 50859, 0.0000, 0.0000, -0.1780, 0.0000
5.5740, -0.5590, 0.0981, -10.0224, 0.0035, 0.0003, -0.0097, -0.1334, 0.0153, -0.2132, 0.0064, -0.0045, 0.0037, 1168, 50859, 0.0000, 0.0000, -0.1847, 0.0000
5.5940, -0.5590, 0.0981, -10.0224, 0.0035, 0.0003, -0.0097, -0.1341, 0.0150, -0.2153, 0.0065, -0.0052, 0.0051, 1169, 50859, 0.0000, 0.0000, -0.1913, 0.0000
5.6140, -0.5590, 0.0981, -10.0224, 0.0035, 0.0003, -0.0097, -0.1342, 0.0146, -0.2177, 0.0070, -0.0057, 0.0050, 1170, 50859, 0.0000, 0.0000, -0.1980, 0.0000
5.6340, -0.5590, 0.0981, -10.0224, 0.0035, 0.0003, -0.0097, -0.1348, 0.0138, -0.2199, 0.0061, -0.0055, 0.0045, 1171, 50859, 0.0000, 0.0000, -0.2047, 0.0000
5.6540, -0.5590, 0.0981, -10.0224, 0.0035, 0.0003, -0.0097, -0.1351, 0.0134, -0.2223, 0.0067, -0.0057, 0.0050, 1172, 50859, 0.0000, 0.0000, -0.2113, 0.0000
5.6740, -0.5590, 0.0981, -10.0224, 0.0035, 0.0003, -0.0097, -0.1355, 0.0129, -0.2249, 0.0070, -0.0070, 0.0048, 1173, 50859, 0.0000, 0.0000, -0.2180, 0.0000
5.6940, -0.5590, 0.0981, -10.0224, 0.0035, 0.0003, -0.0097, -0.1360, 0.0123, -0.2274, 0.0068, -0.0072, 0.0038, 1174, 50859, 0.0000, 0.0000, -0.2247, 0.0000
5.7140, -0.5590, 0.0981, -10.0224, 0.0035, 0.0003, -0.0097, -0.1361, 0.0117, -0.2300, 0.0073, -0.0068, 0.0048, 1175, 50859, 0.0000, 0.0000, -0.2313, 0.0000
5.7340, -0.5590, 0.0981, -10.0224, 0.0035, 0.0003, -0.0097, -0.1365, 0.0111, -0.2325, 0.0068, -0.0059, 0.0047, 1176, 50859, 0.0000, 0.0000, -0.2380, 0.0000
5.7560, -0.5590, 0.0981, -10.0224, 0.0035, 0.0003, -0.0097, -0.1369, 0.0106, -0.2349, 0.0076, -0.0057, 0.0048, 1177, 50859, 0.0000, 0.0000, -0.2447, 0.0000
5.7760, -0.5590, 0.0981, -10.0224, 0.0035, 0.0003, -0.0097, -0.1371, 0.0099, -0.2374, 0.0079, -0.0063, 0.0056, 1178, 50859, 0.0000, 0.0000, -0.2520, 0.0000
5.7960, -0.5590, 0.0981, -10.0224, 0.0035, 0.0003, -0.0097, -0.1372, 0.0092, -0.2393, 0.0079, -0.0070, 0.0061, 1179, 50859, 0.0000, 0.0000, -0.2587, 0.0000
5.8160, -0.5590, 0.0981, -10.0224, 0.0035, 0.0003, -0.0097, -0.1375, 0.0086, -0.2416, 0.0086, -0.0089, 0.0058, 1180, 50859, 0.0000, 0.0000, -0.2653, 0.0000
5.8360, -0.5590, 0.0981, -10.0224, 0.0035, 0.0003, -0.0097, -0.1376, 0.0080, -0.2436, 0.0089, -0.0096, 0.0057, 1181, 50859, 0.0000, 0.0000, -0.2720, 0.0000
5.8560, -0.5590, 0.0981, -10.0224, 0.0035, 0.0003, -0.0097, -0.1376, 0.0073, -0.2460, 0.0089, -0.0093, 0.0058, 1182, 50859, 0.0000, 0.0000, -0.2787, 0.0000
5.8760, -0.5590, 0.0981, -10.0224, 0.0035, 0.0003, -0.0097, -0.1378, 0.0066, -0.2482, 0.0092, -0.0107, 0.0064, 1183, 50859, 0.0000, 0.0000, -0.2853, 0.0000
5.8960, -0.5590, 0.0981, -10.0224, 0.0035, 0.0003, -0.0097, -0.1377, 0.0061, -0.2509, 0.0098, -0.0104, 0.0073, 1184, 50859, 0.0000, 0.0000, -0.2920, 0.0000
5.9160, -0.5590, 0.0981, -10.0224, 0.0035, 0.0003, -0.0097, -0.1379, 0.0053, -0.2532, 0.0097, -0.0094, 0.0085, 1185, 50859, 0.0000, 0.0000, -0.2987, 0.0000
5.9360, -0.5590, 0.0981, -10.0224, 0.0035, 0.0003, -0.0097, -0.1378, 0.0047, -0.2558, 0.0108, -0.0097, 0.0074, 1186, 50859, 0.0000, 0.0000, -0.3053, 0.0000
5.9560, -0.5590, 0.0981, -10.0224, 0.0035, 0.0003, -0.0097, -0.1377, 0.0042, -0.2586, 0.0109, -0.0092, 0.0095, 1187, 50859, 0.0000, 0.0000, -0.3120, 0.0000
5.9760, -0.5590, 0.0981, -10.0224, 0.0035, 0.0003, -0.0097, -0.1376, 0.0035, -0.2608, 0.0109, -0.0076, 0.0116, 1188, 50859, 0.0000, 0.0000, -0.3187, 0.0000
5.9960, -0.5590, 0.0981, -10.0224, 0.0035, 0.0003, -0.0097, -0.1375, 0.0031, -0.2637, 0.0117, -0.0075, 0.0124, 1189, 50859, 0.0000, 0.0000, -0.3253, 0.0000
6.0160, -0.5590, 0.0981, -10.0224, 0.0035, 0.0003, -0.0097, -0.1374, 0.0025, -0.2663, 0.0117, -0.0075, 0.0143, 1190, 50859, 0.0000, 0.0000, -0.3320, 0.0000
6.0360, -0.5590, 0.0981, -10.0224, 0.0035, 0.0003, -0.0097, -0.1372, 0.0020, -0.2689, 0.0124, -0.0070, 0.0155, 1191, 50859, 0.0000, 0.0000, -0.3387, 0.0000
6.0560, -0.5590, 0.0981, -10.0224, 0.0035, 0.0003, -0.0097, -0.1369, 0.0015, -0.2716, 0.0126, -0.0071, 0.0160, 1192, 50859, 0.0000, 0.0000, -0.3453, 0.0000
6.0760, -0.5590, 0.0981, -10.0224, 0.0035, 0.0003, -0.0097, -0.1367, 0.0009, -0.2744, 0.0131, -0.0071, 0.0152, 1193, 50859, 0.0000, 0.0000, -0.3520, 0.0000
6.0960, -0.5590, 0.0981, -10.0224, 0.0035, 0.0003, -0.0097, -0.1363, 0.0004, -0.2771, 0.0135, -0.0064, 0.0129, 1194, 50859, 0.0000, 0.0000, -0.3587, 0.0000
6.1160, -0.5590, 0.0981, -10.0224, 0.0035, 0.0003, -0.0097, -0.1361, -0.0002, -0.2800, 0.0139, -0.0077, 0.0124, 1195, 50859, 0.0000, 0.0000, -0.3653, 0.0000
6.1360, -0.5590, 0.0981, -10.0224, 0.0035, 0.0003, -0.0097, -0.1357, -0.0005, -0.2833, 0.0149, -0.0075, 0.0117, 1196, 50859, 0.0000, 0.0000, -0.3720, 0.0000
6.1560, -0.5590, 0.0981, -10.0224, 0.0035, 0.0003, -0.0097, -0.1354, -0.0011, -0.2863, 0.0152, -0.0068, 0.0109, 1197, 50859, 0.0000, 0.0000, -0.3787, 0.0000
6.1760, -0.5590, 0.0981, -10.0224, 0.0035, 0.0003, -0.0097, -0.1351, -0.0015, -0.2895, 0.0163, -0.0070, 0.0105, 1198, 50859, 0.0000, 0.0000, -0.3853, 0.0000
6.1960, -0.5590, 0.0981, -10.0224, 0.0035, 0.0003, -0.0097, -0.1347, -0.0018, -0.2930, 0.0171, -0.0071, 0.0107, 1199, 50859, 0.0000, 0.0000, -0.3920, 0.0000
6.2160, -0.5590, 0.0981, -10.0224, 0.0035, 0.0003, -0.0097, -0.1344, -0.0023, -0.2962, 0.0172, -0.0070, 0.0107, 1200, 50859, 0.0000, 0.0000, -0.3987, 0.0000
6.2360, -0.5590, 0.0981, -10.0224, 0.0035, 0.0003, -0.0097, -0.1337, -0.0027, -0.2998, 0.0180, -0.0071, 0.0096, 1201, 50859, 0.0000, 0.0000, -0.4053, 0.0000
6.2560, -0.5590, 0.0981, -10.0224, 0.0035, 0.0003, -0.0097, -0.1334, -0.0031, -0.3032, 0.0183, -0.0067, 0.0083, 1202, 50859, 0.0000, 0.0000, -0.4120, 0.0000
6.2760, -0.5590, 0.0981, -10.0224, 0.0035, 0.0003, -0.0097, -0.1327, -0.0035, -0.3069, 0.0188, -0.0063, 0.0081, 1203, 50859, 0.0000, 0.0000, -0.4187, 0.0000
6.2960, -0.5590, 0.0981, -10.0224, 0.0035, 0.0003, -0.0097, -0.1321, -0.0040, -0.3103, 0.0185, -0.0059, 0.0073, 1204, 50859, 0.0000, 0.0000, -0.4253, 0.0000
6.3160, -0.5590, 0.0981, -10.0224, 0.0035, 0.0003, -0.0097, -0.1316, -0.0042, -0.3140, 0.0194, -0.0062, 0.0069, 1205, 50859, 0.0000, 0.0000, -0.4320, 0.0000
6.3360, -0.5590, 0.0981, -10.0224, 0.0035, 0.0003, -0.0097, -0.1309, -0.0045, -0.3178, 0.0191, -0.0053, 0.0076, 1206, 50859, 0.0000, 0.0000, -0.4387, 0.0000
6.3560, -0.5590, 0.0981, -10.0224, 0.0035, 0.0003, -0.0097, -0.1303, -0.0049, -0.3212, 0.0190, -0.0055, 0.0084, 1207, 50859, 0.0000, 0.0000, -0.4453, 0.0000
6.3760, -0.5590, 0.0981, -10.0224, 0.0035, 0.0003, -0.0097, -0.1295, -0.0052, -0.3249, 0.0197, -0.0063, 0.0090, 1208, 50859, 0.0000, 0.0000, -0.4520, 0.0000
6.3960, -0.5590, 0.0981, -10.0224, 0.0035, 0.0003, -0.0097, -0.1289, -0.0055, -0.3287, 0.0199, -0.0067, 0.0094, 1209, 50859, 0.0000, 0.0000, -0.4587, 0.0000
6.4160, -0.5590, 0.0981, -10.0224, 0.0035, 0.0003, -0.0097, -0.1281, -0.0059, -0.3323, 0.0201, -0.0062, 0.0079, 1210, 50859, 0.0000, 0.0000, -0.4653, 0.0000
6.4360, -0.5590, 0.0981, -10.0224, 0.0035, 0.0003, -0.0097, -0.1273, -0.0065, -0.3364, 0.0200, -0.0061, 0.0073, 1211, 50859, 0.0000, 0.0000, -0.4720, 0.0000
6.4560, -0.5590, 0.0981, -10.0224, 0.0035, 0.0003, -0.0097, -0.1265, -0.0068, -0.3402, 0.0215, -0.0055, 0.0070, 1212, 50859, 0.0000, 0.0000, -0.4787, 0.0000
6.4760, -0.5590, 0.0981, -10.0224, 0.0035, 0.0003, -0.0097, -0.1257, -0.0073, -0.3441, 0.0214, -0.0042, 0.0049, 1213, 50859, 0.0000, 0.0000, -0.4853, 0.0000
6.4960, -0.5590, 0.0981, -10.0224, 0.0035, 0.0003, -0.0097, -0.1249, -0.0076, -0.3479, 0.0219, -0.0036, 0.0047, 1214, 50859, 0.0000, 0.0000, -0.4920, 0.0000
6.5160, -0.5590, 0.0981, -10.0224, 0.0035, 0.0003, -0.0097, -0.1241, -0.0080, -0.3518, 0.0226, -0.0030, 0.0056, 1215, 50859, 0.0000, 0.0000, -0.4987, 0.0000
6.5360, -0.5590, 0.0981, -10.0224, 0.0035, 0.0003, -0.0097, -0.1233, -0.0083, -0.3558, 0.0225, -0.0023, 0.0070, 1216, 50859, 0.0000, 0.0000, -0.5053, 0.0000
6.5560, -0.5590, 0.0981, -10.0224, 0.0035, 0.0003, -0.0097, -0.1224, -0.0086, -0.3592, 0.0226, -0.0020, 0.0092, 1217, 50859, 0.0000, 0.0000, -0.5120, 0.0000
6.5760, -0.5590, 0.0981, -10.0224, 0.0035, 0.0003, -0.0097, -0.1216, -0.0090, -0.3629, 0.0227, -0.0013, 0.0104, 1218, 50859, 0.0000, 0.0000, -0.5187, 0.0000
6.5960, -0.5590, 0.0981, -10.0224, 0.0035, 0.0003, -0.0097, -0.1207, -0.0093, -0.3668, 0.0235, -0.0014, 0.0095, 1219, 50859, 0.0000, 0.0000, -0.5253, 0.0000
6.6160, -0.5590, 0.0981, -10.0224, 0.0035, 0.0003, -0.0097, -0.1197, -0.0098, -0.3706, 0.0230, -0.0017, 0.0098, 1220, 50859, 0.0000, 0.0000, -0.5320, 0.0000
6.6360, -0.5590, 0.0981, -10.0224, 0.0035, 0.0003, -0.0097, -0.1190, -0.0100, -0.3746, 0.0238, -0.0018, 0.0097, 1221, 50859, 0.0000, 0.0000, -0.5387, 0.0000
6.6560, -0.5590, 0.0981, -10.0224, 0.0035, 0.0003, -0.0097, -0.1182, -0.0103, -0.3785, 0.0236, -0.0010, 0.0109, 1222, 50859, 0.0000, 0.0000, -0.5453, 0.0000
6.6760, -0.5590, 0.0981, -10.0224, 0.0035, 0.0003, -0.0097, -0.1172, -0.0106, -0.3821, 0.0238, -0.0010, 0.0120, 1223, 50859, 0.0000, 0.0000, -0.5520, 0.0000
6.6960, -0.5590, 0.0981, -10.0224, 0.0035, 0.0003, -0.0097, -0.1164, -0.0106, -0.3858, 0.0247, -0.0012, 0.0137, 1224, 50859, 0.0000, 0.0000, -0.5587, 0.0000
6.7160, -0.5590, 0.0981, -10.0224, 0.0035, 0.0003, -0.0097, -0.1155, -0.0110, -0.3895, 0.0241, -0.0004, 0.0143, 1225, 50859, 0.0000, 0.0000, -0.5653, 0.0000
6.7360, -0.5590, 0.0981, -10.0224, 0.0035, 0.0003, -0.0097, -0.1146, -0.0111, -0.3930, 0.0244, 0.0011, 0.0145, 1226, 50859, 0.0000, 0.0000, -0.5720, 0.0000
6.7560, -0.5590, 0.0981, -10.0224, 0.0035, 0.0003, -0.0097, -0.1138, -0.0115, -0.3966, 0.0240, 0.0012, 0.0138, 1227, 50859, 0.0000, 0.0000, -0.5787, 0.0000
6.7760, -0.5590, 0.0981, -10.0224, 0.0035, 0.0003, -0.0097, -0.1129, -0.0115, -0.4003, 0.0249, 0.0020, 0.0135, 1228, 50859, 0.0000, 0.0000, -0.5853, 0.0000
6.7960, -0.5590, 0.0981, -10.0224, 0.0035, 0.0003, -0.0097, -0.1122, -0.0117, -0.4041, 0.0248, 0.0036, 0.0135, 1229, 50859, 0.0000, 0.0000, -0.5920, 0.0000
6.8160, -0.5590, 0.0981, -10.0224, 0.0035, 0.0003, -0.0097, -0.1113, -0.0118, -0.4079, 0.0247, 0.0040, 0.0136, 1230, 50859, 0.0000, 0.0000, -0.5987, 0.0000
6.8360, -0.5590, 0.0981, -10.0224, 0.0035, 0.0003, -0.0097, -0.1106, -0.0118, -0.4118, 0.0247, 0.0048, 0.0146, 1231, 50859, 0.0000, 0.0000, -0.6053, 0.0000
6.8560, -0.5590, 0.0981, -10.0224, 0.0035, 0.0003, -0.0097, -0.1098, -0.0119, -0.4156, 0.0245, 0.0054, 0.0147, 1232, 50859, 0.0000, 0.0000, -0.6120, 0.0000
6.8760, -0.5590, 0.0981, -10.0224, 0.0035, 0.0003, -0.0097, -0.1092, -0.0118, -0.4193, 0.0244, 0.0063, 0.0165, 1233, 50859, 0.0000, 0.0000, -0.6187, 0.0000
6.8960, -0.5590, 0.0981, -10.0224, 0.0035, 0.0003, -0.0097, -0.1085, -0.0118, -0.4229, 0.0249, 0.0064, 0.0176, 1234, 50859, 0.0000, 0.0000, -0.6253, 0.0000
6.9160, -0.5590, 0.0981, -10.0224, 0.0035, 0.0003, -0.0097, -0.1079, -0.0118, -0.4268, 0.0245, 0.0064, 0.0172, 1235, 50859, 0.0000, 0.0000, -0.6320, 0.0000
6.9360, -0.5590, 0.0981, -10.0224, 0.0035, 0.0003, -0.0097, -0.1072, -0.0118, -0.4304, 0.0246, 0.0065, 0.0158, 1236, 50859, 0.0000, 0.0000, -0.6387, 0.0000
6.9560, -0.5590, 0.0981, -10.0224, 0.0035, 0.0003, -0.0097, -0.1066, -0.0117, -0.4345, 0.0242, 0.0064, 0.0147, 1237, 50859, 0.0000, 0.0000, -0.6453, 0.0000
6.9760, -0.5590, 0.0981, -10.0224, 0.0035, 0.0003, -0.0097, -0.1061, -0.0116, -0.4385, 0.0245, 0.0067, 0.0138, 1238, 50859, 0.0000, 0.0000, -0.6520, 0.0000
6.9960, -0.5590, 0.0981, -10.0224, 0.0035, 0.0003, -0.0097, -0.1056, -0.0116, -0.4425, 0.0240, 0.0077, 0.0130, 1239, 50859, 0.0000, 0.0000, -0.6587, 0.0000
7.0160, -0.5590, 0.0981, -10.0224, 0.0035, 0.0003, -0.0097, -0.1050, -0.0113, -0.4465, 0.0238, 0.0071, 0.0125, 1240, 50859, 0.0000, 0.0000, -0.6653, 0.0000
7.0360, -0.5590, 0.0981, -10.0224, 0.0035, 0.0003, -0.0097, -0.1046, -0.0111, -0.4507, 0.0245, 0.0079, 0.0124, 1241, 50859, 0.0000, 0.0000, -0.6720, 0.0000
7.0560, -0.5590, 0.0981, -10.0224, 0.0035, 0.0003, -0.0097, -0.1041, -0.0110, -0.4548, 0.0236, 0.0086, 0.0111, 1242, 50859, 0.0000, 0.0000, -0.6787, 0.0000
7.0760, -0.5590, 0.0981, -10.0224, 0.0035, 0.0003, -0.0097, -0.1036, -0.0107, -0.4589, 0.0238, 0.0087, 0.0109, 1243, 50859, 0.0000, 0.0000, -0.6853, 0.0000
7.0960, -0.5590, 0.0981, -10.0224, 0.0035, 0.0003, -0.0097, -0.1032, -0.0104, -0.4632, 0.0234, 0.0087, 0.0109, 1244, 50859, 0.0000, 0.0000, -0.6920, 0.0000
7.1160, -0.5590, 0.0981, -10.0224, 0.0035, 0.0003, -0.0097, -0.1029, -0.0102, -0.4675, 0.0233, 0.0089, 0.0107, 1245, 50859, 0.0000, 0.0000, -0.6987, 0.0000
7.1360, -0.5590, 0.0981, -10.0224, 0.0035, 0.0003, -0.0097, -0.1024, -0.0100, -0.4717, 0.0232, 0.0093, 0.0099, 1246, 50859, 0.0000, 0.0000, -0.7053, 0.0000
7.1560, -0.5590, 0.0981, -10.0224, 0.0035, 0.0003, -0.0097, -0.1022, -0.0097, -0.4762, 0.0228, 0.0100, 0.0088, 1247, 50859, 0.0000, 0.0000, -0.7120, 0.0000
7.1760, -0.5590, 0.0981, -10.0224, 0.0035, 0.0003, -0.0097, -0.1019, -0.0094, -0.4807, 0.0231, 0.0098, 0.0083, 1248, 50859, 0.0000, 0.0000, -0.7187, 0.0000
7.1960, -0.5590, 0.0981, -10.0224, 0.0035, 0.0003, -0.0097, -0.1015, -0.0093, -0.4851, 0.0228, 0.0105, 0.0079, 1249, 50859, 0.0000, 0.0000, -0.7253, 0.0000
7.2170, -0.5590, 0.0981, -10.0224, 0.0035, 0.0003, -0.0097, -0.1014, -0.0090, -0.4895, 0.0229, 0.0105, 0.0075, 1250, 50859, 0.0000, 0.0000, -0.7320, 0.0000
7.2380, -0.5590, 0.0981, -10.0224, 0.0035, 0.0003, -0.0097, -0.1012, -0.0087, -0.4941, 0.0235, 0.0102, 0.0080, 1251, 50859, 0.0000, 0.0000, -0.7390, 0.0000
7.2580, -0.5590, 0.0981, -10.0224, 0.0035, 0.0003, -0.0097, -0.1011, -0.0085, -0.4986, 0.0231, 0.0109, 0.0079, 1252, 50859, 0.0000, 0.0000, -0.7460, 0.0000
7.2780, -0.5590, 0.0981, -10.0224, 0.0035, 0.0003, -0.0097, -0.1008, -0.0083, -0.5033, 0.0233, 0.0107, 0.0077, 1253, 50859, 0.0000, 0.0000, -0.7527, 0.0000
7.2980, -0.5590, 0.0981, -10.0224, 0.0035, 0.0003, -0.0097, -0.1007, -0.0081, -0.5079, 0.0231, 0.0106, 0.0069, 1254, 50859, 0.0000, 0.0000, -0.7593, 0.0000
7.3170, -0.5590, 0.0981, -10.0224, 0.0035, 0.0003, -0.0097, -0.1008, -0.0078, -0.5125, 0.0235, 0.0109, 0.0063, 1255, 50859, 0.0000, 0.0000, -0.7660, 0.0000
7.3370, -0.5590, 0.0981, -10.0224, 0.0035, 0.0003, -0.0097, -0.1007, -0.0078, -0.5172, 0.0240, 0.0115, 0.0055, 1256, 50859, 0.0000, 0.0000, -0.7723, 0.0000
7.3580, -0.5590, 0.0981, -10.0224, 0.0035, 0.0003, -0.0097, -0.1008, -0.0076, -0.5217, 0.0234, 0.0108, 0.0049, 1257, 50859, 0.0000, 0.0000, -0.7790, 0.0000
7.3770, -0.5590, 0.0981, -10.0224, 0.0035, 0.0003, -0.0097, -0.1008, -0.0074, -0.5266, 0.0240, 0.0110, 0.0046, 1258, 50859, 0.0000, 0.0000, -0.7860, 0.0000
7.3980, -0.5590, 0.0981, -10.0224, 0.0035, 0.0003, -0.0097, -0.1009, -0.0073, -0.5312, 0.0237, 0.0111, 0.0051, 1259, 50859, 0.0000, 0.0000, -0.7923, 0.0000
7.4170, -0.5590, 0.0981, -10.0224, 0.0035, 0.0003, -0.0097, -0.1010, -0.0071, -0.5358, 0.0237, 0.0107, 0.0064, 1260, 50859, 0.0000, 0.0000, -0.7993, 0.0000
7.4380, -0.5590, 0.0981, -10.0224, 0.0035, 0.0003, -0.0097, -0.1012, -0.0070, -0.5405, 0.0240, 0.0101, 0.0068, 1261, 50859, 0.0000, 0.0000, -0.8057, 0.0000
7.4570, -0.5590, 0.0981, -10.0224, 0.0035, 0.0003, -0.0097, -0.1014, -0.0069, -0.5451, 0.0244, 0.0090, 0.0063, 1262, 50859, 0.0000, 0.0000, -0.8127, 0.0000
7.4770, -0.5590, 0.0981, -10.0224, 0.0035, 0.0003, -0.0097, -0.1014, -0.0069, -0.5500, 0.0247, 0.0095, 0.0051, 1263, 50859, 0.0000, 0.0000, -0.8190, 0.0000
7.4970, -0.5590, 0.0981, -10.0224, 0.0035, 0.0003, -0.0097, -0.1017, -0.0070, -0.5545, 0.0244, 0.0091, 0.0041, 1264, 50859, 0.0000, 0.0000, -0.8257, 0.0000
7.5170, -0.5590, 0.0981, -10.0224, 0.0035, 0.0003, -0.0097, -0.1019, -0.0068, -0.5594, 0.0249, 0.0091, 0.0033, 1265, 50859, 0.0000, 0.0000, -0.8323, 0.0000
7.5370, -0.5590, 0.0981, -10.0224, 0.0035, 0.0003, -0.0097, -0.1022, -0.0068, -0.5643, 0.0251, 0.0095, 0.0039, 1266, 50859, 0.0000, 0.0000, -0.8390, 0.0000
7.5580, -0.5590, 0.0981, -10.0224, 0.0035, 0.0003, -0.0097, -0.1025, -0.0068, -0.5687, 0.0250, 0.0097, 0.0045, 1267, 50859, 0.0000, 0.0000, -0.8457, 0.0000
7.5770, -0.5590, 0.0981, -10.0224, 0.0035, 0.0003, -0.0097, -0.1028, -0.0067, -0.5735, 0.0253, 0.0099, 0.0057, 1268, 50859, 0.0000, 0.0000, -0.8527, 0.0000
7.5980, -0.5590, 0.0981, -10.0224, 0.0035, 0.0003, -0.0097, -0.1033, -0.0067, -0.5782, 0.0259, 0.0096, 0.0072, 1269, 50859, 0.0000, 0.0000, -0.8590, 0.0000
7.6170, -0.5590, 0.0981, -10.0224, 0.0035, 0.0003, -0.0097, -0.1035, -0.0067, -0.5829, 0.0260, 0.0093, 0.0063, 1270, 50859, 0.0000, 0.0000, -0.8660, 0.0000
7.6380, -0.5590, 0.0981, -10.0224, 0.0035, 0.0003, -0.0097, -0.1039, -0.0070, -0.5877, 0.0257, 0.0091, 0.0042, 1271, 50859, 0.0000, 0.0000, -0.8723, 0.0000
