time (s), accel_x (m/s^2), accel_y (m/s^2), accel_z (m/s^2), gyro_x (rad/s), gyro_y (rad/s), gyro_z (rad/s), x (m), y (m), z (m), yaw (rad), pitch (rad), roll (rad), mocap_counter, counter, desired x, desired y, desired z, desired yaw
0.0000, -0.1275, -0.0490, -9.6007, -0.0086, 0.0099, 0.0062, -0.0332, 0.0069, -0.0952, 0.2429, -0.0076, -0.1054, 126, 114292, 0.0000, 0.0000, 0.0000, 0.0000
0.0200, -0.1275, -0.0490, -9.6007, -0.0086, 0.0099, 0.0062, -0.0333, 0.0069, -0.0951, 0.2429, -0.0076, -0.1056, 127, 114292, 0.0000, 0.0000, 0.0000, 0.0000
0.0400, -0.1275, -0.0490, -9.6007, -0.0086, 0.0099, 0.0062, -0.0332, 0.0069, -0.0951, 0.2429, -0.0077, -0.1056, 128, 114292, 0.0000, 0.0000, 0.0000, 0.0000
0.0600, -0.1177, -0.0785, -9.6105, -0.0051, 0.0083, -0.0032, -0.0332, 0.0069, -0.0952, 0.2429, -0.0076, -0.1056, 129, 115292, 0.0000, 0.0000, 0.0000, 0.0000
0.0800, -0.1177, -0.0785, -9.6105, -0.0051, 0.0083, -0.0032, -0.0333, 0.0070, -0.0951, 0.2429, -0.0076, -0.1056, 130, 115292, 0.0000, 0.0000, 0.0000, 0.0000
0.1000, -0.1177, -0.0785, -9.6105, -0.0051, 0.0083, -0.0032, -0.0332, 0.0069, -0.0952, 0.2429, -0.0077, -0.1054, 131, 115292, 0.0000, 0.0000, 0.0000, 0.0000
0.1200, -0.1177, -0.0785, -9.6105, -0.0051, 0.0083, -0.0032, -0.0333, 0.0069, -0.0951, 0.2430, -0.0075, -0.1057, 132, 115292, 0.0000, 0.0000, 0.0000, 0.0000
0.1400, -0.1177, -0.0785, -9.6105, -0.0051, 0.0083, -0.0032, -0.0332, 0.0070, -0.0952, 0.2429, -0.0077, -0.1056, 133, 115292, 0.0000, 0.0000, 0.0000, 0.0000
0.1600, -0.1177, -0.0785, -9.6105, -0.0051, 0.0083, -0.0032, -0.0333, 0.0069, -0.0951, 0.2429, -0.0076, -0.1056, 134, 115292, 0.0000, 0.0000, 0.0000, 0.0000
0.1800, -0.1177, -0.0785, -9.6105, -0.0051, 0.0083, -0.0032, -0.0333, 0.0069, -0.0951, 0.2429, -0.0076, -0.1056, 135, 115292, 0.0000, 0.0000, 0.0000, 0.0000
0.2000, -0.1177, -0.0785, -9.6105, -0.0051, 0.0083, -0.0032, -0.0332, 0.0070, -0.0952, 0.2429, -0.0077, -0.1054, 136, 115292, 0.0000, 0.0000, 0.0000, 0.0000
0.2200, -0.1177, -0.0785, -9.6105, -0.0051, 0.0083, -0.0032, -0.0333, 0.0069, -0.0951, 0.2429, -0.0076, -0.1058, 137, 115292, 0.0000, 0.0000, 0.0000, 0.0000
0.2420, -0.1177, -0.0785, -9.6105, -0.0051, 0.0083, -0.0032, -0.0332, 0.0070, -0.0952, 0.2429, -0.0077, -0.1055, 138, 115292, 0.0000, 0.0000, 0.0000, 0.0000
0.2620, -0.1177, -0.0785, -9.6105, -0.0051, 0.0083, -0.0032, -0.0333, 0.0069, -0.0951, 0.2429, -0.0077, -0.1058, 139, 115292, 0.0000, 0.0000, 0.0000, 0.0000
0.2820, -0.1177, -0.0785, -9.6105, -0.0051, 0.0083, -0.0032, -0.0333, 0.0069, -0.0951, 0.2429, -0.0077, -0.1057, 140, 115292, 0.0000, 0.0000, 0.0000, 0.0000
0.3020, -0.1177, -0.0785, -9.6105, -0.0051, 0.0083, -0.0032, -0.0333, 0.0069, -0.0951, 0.2429, -0.0077, -0.1057, 141, 115292, 0.0000, 0.0000, 0.0000, 0.0000
0.3220, -0.1177, -0.0785, -9.6105, -0.0051, 0.0083, -0.0032, -0.0333, 0.0069, -0.0951, 0.2429, -0.0077, -0.1056, 142, 115292, 0.0000, 0.0000, 0.0000, 0.0000
0.3420, -0.1177, -0.0785, -9.6105, -0.0051, 0.0083, -0.0032, -0.0332, 0.0069, -0.0952, 0.2429, -0.0077, -0.1055, 143, 115292, 0.0000, 0.0000, 0.0000, 0.0000
0.3620, -0.1177, -0.0785, -9.6105, -0.0051, 0.0083, -0.0032, -0.0333, 0.0069, -0.0951, 0.2429, -0.0077, -0.1055, 144, 115292, 0.0000, 0.0000, 0.0000, 0.0000
0.3820, -0.1177, -0.0785, -9.6105, -0.0051, 0.0083, -0.0032, -0.0332, 0.0069, -0.0952, 0.2428, -0.0077, -0.1055, 145, 115292, 0.0000, 0.0000, 0.0000, 0.0000
0.4020, -0.1177, -0.0785, -9.6105, -0.0051, 0.0083, -0.0032, -0.0333, 0.0069, -0.0951, 0.2428, -0.0078, -0.1055, 146, 115292, 0.0000, 0.0000, 0.0000, 0.0000
0.4220, -0.1177, -0.0785, -9.6105, -0.0051, 0.0083, -0.0032, -0.0333, 0.0069, -0.0951, 0.2429, -0.0077, -0.1056, 147, 115292, 0.0000, 0.0000, 0.0000, 0.0000
0.4420, -0.1177, -0.0785, -9.6105, -0.0051, 0.0083, -0.0032, -0.0332, 0.0069, -0.0952, 0.2428, -0.0077, -0.1056, 148, 115292, 0.0000, 0.0000, 0.0000, 0.0000
0.4620, -0.1177, -0.0785, -9.6105, -0.0051, 0.0083, -0.0032, -0.0333, 0.0069, -0.0951, 0.2429, -0.0077, -0.1056, 149, 115292, 0.0000, 0.0000, 0.0000, 0.0000
0.4820, -0.1177, -0.0785, -9.6105, -0.0051, 0.0083, -0.0032, -0.0332, 0.0069, -0.0952, 0.2428, -0.0077, -0.1055, 150, 115292, 0.0000, 0.0000, 0.0000, 0.0000
0.5020, -0.1177, -0.0785, -9.6105, -0.0051, 0.0083, -0.0032, -0.0333, 0.0069, -0.0951, 0.2428, -0.0077, -0.1057, 151, 115292, 0.0000, 0.0000, 0.0000, 0.0000
0.5220, -0.1177, -0.0785, -9.6105, -0.0051, 0.0083, -0.0032, -0.0332, 0.0070, -0.0951, 0.2428, -0.0076, -0.1057, 152, 115292, 0.0000, 0.0000, 0.0000, 0.0000
0.5420, -0.1177, -0.0785, -9.6105, -0.0051, 0.0083, -0.0032, -0.0332, 0.0069, -0.0952, 0.2429, -0.0076, -0.1057, 153, 115292, 0.0000, 0.0000, 0.0000, 0.0000
0.5620, -0.1177, -0.0785, -9.6105, -0.0051, 0.0083, -0.0032, -0.0333, 0.0069, -0.0951, 0.2428, -0.0077, -0.1057, 154, 115292, 0.0000, 0.0000, 0.0000, 0.0000
0.5820, -0.1177, -0.0785, -9.6105, -0.0051, 0.0083, -0.0032, -0.0333, 0.0069, -0.0952, 0.2429, -0.0077, -0.1056, 155, 115292, 0.0000, 0.0000, 0.0000, 0.0000
0.6020, -0.1177, -0.0785, -9.6105, -0.0051, 0.0083, -0.0032, -0.0333, 0.0069, -0.0951, 0.2428, -0.0076, -0.1058, 156, 115292, 0.0000, 0.0000, 0.0000, 0.0000
0.6220, -0.1177, -0.0785, -9.6105, -0.0051, 0.0083, -0.0032, -0.0332, 0.0070, -0.0952, 0.2428, -0.0077, -0.1056, 157, 115292, 0.0000, 0.0000, 0.0000, 0.0000
0.6420, -0.1177, -0.0785, -9.6105, -0.0051, 0.0083, -0.0032, -0.0333, 0.0069, -0.0951, 0.2429, -0.0076, -0.1057, 158, 115292, 0.0000, 0.0000, 0.0000, 0.0000
0.6620, -0.1177, -0.0785, -9.6105, -0.0051, 0.0083, -0.0032, -0.0332, 0.0069, -0.0951, 0.2428, -0.0077, -0.1057, 159, 115292, 0.0000, 0.0000, 0.0000, 0.0000
0.6820, -0.1177, -0.0785, -9.6105, -0.0051, 0.0083, -0.0032, -0.0333, 0.0069, -0.0952, 0.2428, -0.0077, -0.1058, 160, 115292, 0.0000, 0.0000, 0.0000, 0.0000
0.7020, -0.1177, -0.0785, -9.6105, -0.0051, 0.0083, -0.0032, -0.0333, 0.0069, -0.0951, 0.2429, -0.0076, -0.1056, 161, 115292, 0.0000, 0.0000, 0.0000, 0.0000
0.7220, -0.1177, -0.0785, -9.6105, -0.0051, 0.0083, -0.0032, -0.0332, 0.0070, -0.0952, 0.2429, -0.0077, -0.1055, 162, 115292, 0.0000, 0.0000, 0.0000, 0.0000
0.7420, -0.1177, -0.0785, -9.6105, -0.0051, 0.0083, -0.0032, -0.0333, 0.0069, -0.0951, 0.2428, -0.0076, -0.1057, 163, 115292, 0.0000, 0.0000, 0.0000, 0.0000
0.7620, -0.1177, -0.0785, -9.6105, -0.0051, 0.0083, -0.0032, -0.0332, 0.0069, -0.0952, 0.2428, -0.0078, -0.1057, 164, 115292, 0.0000, 0.0000, 0.0000, 0.0000
0.7820, -0.1177, -0.0785, -9.6105, -0.0051, 0.0083, -0.0032, -0.0333, 0.0069, -0.0951, 0.2429, -0.0077, -0.1056, 165, 115292, 0.0000, 0.0000, 0.0000, 0.0000
0.8020, -0.1177, -0.0785, -9.6105, -0.0051, 0.0083, -0.0032, -0.0332, 0.0069, -0.0951, 0.2429, -0.0076, -0.1057, 166, 115292, 0.0000, 0.0000, 0.0000, 0.0000
0.8220, -0.1177, -0.0785, -9.6105, -0.0051, 0.0083, -0.0032, -0.0332, 0.0069, -0.0952, 0.2428, -0.0077, -0.1053, 167, 115292, 0.0000, 0.0000, 0.0000, 0.0000
0.8420, -0.1177, -0.0785, -9.6105, -0.0051, 0.0083, -0.0032, -0.0333, 0.0069, -0.0951, 0.2428, -0.0076, -0.1058, 168, 115292, 0.0000, 0.0000, 0.0000, 0.0000
0.8620, -0.1177, -0.0785, -9.6105, -0.0051, 0.0083, -0.0032, -0.0332, 0.0069, -0.0952, 0.2429, -0.0078, -0.1056, 169, 115292, 0.0000, 0.0000, 0.0000, 0.0000
0.8820, -0.1177, -0.0785, -9.6105, -0.0051, 0.0083, -0.0032, -0.0333, 0.0069, -0.0951, 0.2428, -0.0077, -0.1057, 170, 115292, 0.0000, 0.0000, 0.0000, 0.0000
0.9020, -0.1177, -0.0785, -9.6105, -0.0051, 0.0083, -0.0032, -0.0333, 0.0069, -0.0952, 0.2428, -0.0076, -0.1056, 171, 115292, 0.0000, 0.0000, 0.0000, 0.0000
0.9220, -0.1177, -0.0785, -9.6105, -0.0051, 0.0083, -0.0032, -0.0332, 0.0069, -0.0951, 0.2428, -0.0078, -0.1057, 172, 115292, 0.0000, 0.0000, 0.0000, 0.0000
0.9420, -0.1177, -0.0785, -9.6105, -0.0051, 0.0083, -0.0032, -0.0333, 0.0069, -0.0951, 0.2429, -0.0076, -0.1057, 173, 115292, 0.0000, 0.0000, 0.0000, 0.0000
0.9620, -0.1177, -0.0785, -9.6105, -0.0051, 0.0083, -0.0032, -0.0332, 0.0069, -0.0952, 0.2429, -0.0077, -0.1057, 174, 115292, 0.0000, 0.0000, 0.0000, 0.0000
0.9820, -0.1177, -0.0785, -9.6105, -0.0051, 0.0083, -0.0032, -0.0333, 0.0069, -0.0951, 0.2428, -0.0076, -0.1057, 175, 115292, 0.0000, 0.0000, 0.0000, 0.0000
1.0020, -0.1177, -0.0785, -9.6105, -0.0051, 0.0083, -0.0032, -0.0332, 0.0069, -0.0952, 0.2428, -0.0077, -0.1057, 176, 115292, 0.0000, 0.0000, 0.0000, 0.0000
1.0220, -0.1177, -0.0785, -9.6105, -0.0051, 0.0083, -0.0032, -0.0332, 0.0069, -0.0951, 0.2429, -0.0077, -0.1057, 177, 115292, 0.0000, 0.0000, 0.0000, 0.0000
1.0420, -0.1177, -0.0785, -9.6105, -0.0051, 0.0083, -0.0032, -0.0332, 0.0070, -0.0951, 0.2428, -0.0076, -0.1057, 178, 115292, 0.0000, 0.0000, 0.0000, 0.0000
1.0620, -0.1177, -0.0785, -9.6105, -0.0051, 0.0083, -0.0032, -0.0333, 0.0069, -0.0952, 0.2428, -0.0077, -0.1055, 179, 115292, 0.0000, 0.0000, 0.0000, 0.0000
1.0820, -0.1177, -0.0785, -9.6105, -0.0051, 0.0083, -0.0032, -0.0333, 0.0069, -0.0951, 0.2429, -0.0076, -0.1057, 180, 115292, 0.0000, 0.0000, 0.0000, 0.0000
1.1020, -0.1177, -0.0785, -9.6105, -0.0051, 0.0083, -0.0032, -0.0332, 0.0070, -0.0952, 0.2428, -0.0076, -0.1056, 181, 115292, 0.0000, 0.0000, 0.0000, 0.0000
1.1220, -0.1177, -0.0785, -9.6105, -0.0051, 0.0083, -0.0032, -0.0333, 0.0069, -0.0951, 0.2428, -0.0076, -0.1057, 182, 115292, 0.0000, 0.0000, 0.0000, 0.0000
1.1420, -0.1177, -0.0785, -9.6105, -0.0051, 0.0083, -0.0032, -0.0332, 0.0070, -0.0951, 0.2428, -0.0078, -0.1057, 183, 115292, 0.0000, 0.0000, 0.0000, 0.0000
1.1620, -0.1177, -0.0785, -9.6105, -0.0051, 0.0083, -0.0032, -0.0332, 0.0070, -0.0952, 0.2429, -0.0077, -0.1056, 184, 115292, 0.0000, 0.0000, 0.0000, 0.0000
1.1840, -0.1177, -0.0785, -9.6105, -0.0051, 0.0083, -0.0032, -0.0333, 0.0069, -0.0951, 0.2428, -0.0076, -0.1056, 185, 115292, 0.0000, 0.0000, 0.0000, 0.0000
1.2040, -0.1177, -0.0785, -9.6105, -0.0051, 0.0083, -0.0032, -0.0332, 0.0069, -0.0952, 0.2428, -0.0078, -0.1055, 186, 115292, 0.0000, 0.0000, 0.0000, 0.0000
1.2240, -0.1177, -0.0785, -9.6105, -0.0051, 0.0083, -0.0032, -0.0333, 0.0069, -0.0951, 0.2429, -0.0076, -0.1059, 187, 115292, 0.0000, 0.0000, 0.0000, 0.0000
1.2440, -0.1177, -0.0785, -9.6105, -0.0051, 0.0083, -0.0032, -0.0332, 0.0070, -0.0951, 0.2428, -0.0078, -0.1056, 188, 115292, 0.0000, 0.0000, 0.0000, 0.0000
1.2630, -0.1177, -0.0785, -9.6105, -0.0051, 0.0083, -0.0032, -0.0333, 0.0069, -0.0952, 0.2429, -0.0075, -0.1057, 189, 115292, 0.0000, 0.0000, 0.0000, 0.0000
1.2840, -0.1177, -0.0785, -9.6105, -0.0051, 0.0083, -0.0032, -0.0333, 0.0069, -0.0951, 0.2428, -0.0077, -0.1058, 190, 115292, 0.0000, 0.0000, 0.0000, 0.0000
1.3040, -0.1177, -0.0785, -9.6105, -0.0051, 0.0083, -0.0032, -0.0332, 0.0070, -0.0952, 0.2428, -0.0077, -0.1058, 191, 115292, 0.0000, 0.0000, 0.0000, 0.0000
1.3240, -0.1177, -0.0785, -9.6105, -0.0051, 0.0083, -0.0032, -0.0333, 0.0069, -0.0951, 0.2429, -0.0076, -0.1057, 192, 115292, 0.0000, 0.0000, 0.0000, 0.0000
1.3440, -0.1177, -0.0785, -9.6105, -0.0051, 0.0083, -0.0032, -0.0332, 0.0069, -0.0952, 0.2428, -0.0078, -0.1054, 193, 115292, 0.0000, 0.0000, 0.0000, 0.0000
1.3640, -0.1177, -0.0785, -9.6105, -0.0051, 0.0083, -0.0032, -0.0333, 0.0070, -0.0951, 0.2428, -0.0075, -0.1058, 194, 115292, 0.0000, 0.0000, 0.0000, 0.0000
1.3840, -0.1177, -0.0785, -9.6105, -0.0051, 0.0083, -0.0032, -0.0332, 0.0070, -0.0952, 0.2428, -0.0077, -0.1056, 195, 115292, 0.0000, 0.0000, 0.0000, 0.0000
1.4040, -0.1177, -0.0785, -9.6105, -0.0051, 0.0083, -0.0032, -0.0333, 0.0069, -0.0951, 0.2428, -0.0077, -0.1058, 196, 115292, 0.0000, 0.0000, 0.0000, 0.0000
1.4240, -0.1177, -0.0785, -9.6105, -0.0051, 0.0083, -0.0032, -0.0333, 0.0069, -0.0951, 0.2428, -0.0075, -0.1056, 197, 115292, 0.0000, 0.0000, 0.0000, 0.0000
1.4440, -0.1177, -0.0785, -9.6105, -0.0051, 0.0083, -0.0032, -0.0332, 0.0070, -0.0952, 0.2429, -0.0077, -0.1055, 198, 115292, 0.0000, 0.0000, 0.0000, 0.0000
1.4630, -0.1177, -0.0785, -9.6105, -0.0051, 0.0083, -0.0032, -0.0333, 0.0069, -0.0951, 0.2429, -0.0076, -0.1058, 199, 115292, 0.0000, 0.0000, 0.0000, 0.0000
1.4840, -0.1177, -0.0785, -9.6105, -0.0051, 0.0083, -0.0032, -0.0332, 0.0069, -0.0952, 0.2428, -0.0077, -0.1058, 200, 115292, 0.0000, 0.0000, 0.0000, 0.0000
1.5040, -0.1177, -0.0785, -9.6105, -0.0051, 0.0083, -0.0032, -0.0333, 0.0070, -0.0951, 0.2429, -0.0077, -0.1057, 201, 115292, 0.0000, 0.0000, 0.0000, 0.0000
1.5240, -0.1177, -0.0785, -9.6105, -0.0051, 0.0083, -0.0032, -0.0333, 0.0069, -0.0951, 0.2428, -0.0076, -0.1058, 202, 115292, 0.0000, 0.0000, 0.0000, 0.0000
1.5440, -0.1177, -0.0785, -9.6105, -0.0051, 0.0083, -0.0032, -0.0333, 0.0070, -0.0952, 0.2428, -0.0077, -0.1057, 203, 115292, 0.0000, 0.0000, 0.0000, 0.0000
1.5630, -0.1177, -0.0785, -9.6105, -0.0051, 0.0083, -0.0032, -0.0333, 0.0070, -0.0951, 0.2428, -0.0076, -0.1059, 204, 115292, 0.0000, 0.0000, 0.0000, 0.0000
1.5840, -0.1177, -0.0785, -9.6105, -0.0051, 0.0083, -0.0032, -0.0332, 0.0070, -0.0952, 0.2429, -0.0077, -0.1056, 205, 115292, 0.0000, 0.0000, 0.0000, 0.0000
1.6040, -0.1177, -0.0785, -9.6105, -0.0051, 0.0083, -0.0032, -0.0333, 0.0069, -0.0951, 0.2428, -0.0076, -0.1057, 206, 115292, 0.0000, 0.0000, 0.0000, 0.0000
1.6240, -0.1177, -0.0785, -9.6105, -0.0051, 0.0083, -0.0032, -0.0332, 0.0070, -0.0952, 0.2429, -0.0076, -0.1058, 207, 115292, 0.0000, 0.0000, 0.0000, 0.0000
1.6440, -0.1177, -0.0785, -9.6105, -0.0051, 0.0083, -0.0032, -0.0332, 0.0069, -0.0952, 0.2428, -0.0077, -0.1058, 208, 115292, 0.0000, 0.0000, 0.0000, 0.0000
1.6630, -0.1177, -0.0785, -9.6105, -0.0051, 0.0083, -0.0032, -0.0332, 0.0069, -0.0951, 0.2429, -0.0076, -0.1057, 209, 115292, 0.0000, 0.0000, 0.0000, 0.0000
1.6840, -0.1177, -0.0785, -9.6105, -0.0051, 0.0083, -0.0032, -0.0333, 0.0070, -0.0952, 0.2428, -0.0076, -0.1057, 210, 115292, 0.0000, 0.0000, 0.0000, 0.0000
1.7040, -0.1177, -0.0785, -9.6105, -0.0051, 0.0083, -0.0032, -0.0333, 0.0070, -0.0951, 0.2429, -0.0076, -0.1057, 211, 115292, 0.0000, 0.0000, 0.0000, 0.0000
1.7240, -0.1177, -0.0785, -9.6105, -0.0051, 0.0083, -0.0032, -0.0332, 0.0069, -0.0952, 0.2429, -0.0076, -0.1058, 212, 115292, 0.0000, 0.0000, 0.0000, 0.0000
1.7440, -0.1177, -0.0785, -9.6105, -0.0051, 0.0083, -0.0032, -0.0333, 0.0069, -0.0951, 0.2428, -0.0076, -0.1058, 213, 115292, 0.0000, 0.0000, 0.0000, 0.0000
1.7640, -0.1177, -0.0785, -9.6105, -0.0051, 0.0083, -0.0032, -0.0332, 0.0069, -0.0951, 0.2428, -0.0077, -0.1057, 214, 115292, 0.0000, 0.0000, 0.0000, 0.0000
1.7840, -0.1177, -0.0785, -9.6105, -0.0051, 0.0083, -0.0032, -0.0332, 0.0070, -0.0952, 0.2428, -0.0076, -0.1058, 215, 115292, 0.0000, 0.0000, 0.0000, 0.0000
1.8040, -0.1177, -0.0785, -9.6105, -0.0051, 0.0083, -0.0032, -0.0333, 0.0069, -0.0951, 0.2429, -0.0077, -0.1057, 216, 115292, 0.0000, 0.0000, 0.0000, 0.0000
1.8240, -0.1177, -0.0785, -9.6105, -0.0051, 0.0083, -0.0032, -0.0332, 0.0069, -0.0952, 0.2429, -0.0077, -0.1056, 217, 115292, 0.0000, 0.0000, 0.0000, 0.0000
1.8440, -0.1177, -0.0785, -9.6105, -0.0051, 0.0083, -0.0032, -0.0333, 0.0069, -0.0951, 0.2429, -0.0076, -0.1058, 218, 115292, 0.0000, 0.0000, 0.0000, 0.0000
1.8640, -0.1177, -0.0785, -9.6105, -0.0051, 0.0083, -0.0032, -0.0332, 0.0069, -0.0952, 0.2429, -0.0078, -0.1056, 219, 115292, 0.0000, 0.0000, 0.0000, 0.0000
1.8840, -0.1177, -0.0785, -9.6105, -0.0051, 0.0083, -0.0032, -0.0333, 0.0069, -0.0951, 0.2428, -0.0076, -0.1057, 220, 115292, 0.0000, 0.0000, 0.0000, 0.0000
1.9040, -0.1177, -0.0785, -9.6105, -0.0051, 0.0083, -0.0032, -0.0333, 0.0069, -0.0951, 0.2429, -0.0076, -0.1057, 221, 115292, 0.0000, 0.0000, 0.0000, 0.0000
1.9240, -0.1177, -0.0785, -9.6105, -0.0051, 0.0083, -0.0032, -0.0332, 0.0069, -0.0952, 0.2429, -0.0077, -0.1056, 222, 115292, 0.0000, 0.0000, 0.0000, 0.0000
1.9440, -0.1177, -0.0785, -9.6105, -0.0051, 0.0083, -0.0032, -0.0333, 0.0069, -0.0951, 0.2428, -0.0075, -0.1057, 223, 115292, 0.0000, 0.0000, 0.0000, 0.0000
1.9640, -0.1177, -0.0785, -9.6105, -0.0051, 0.0083, -0.0032, -0.0332, 0.0069, -0.0952, 0.2429, -0.0077, -0.1055, 224, 115292, 0.0000, 0.0000, 0.0000, 0.0000
1.9840, -0.1177, -0.0785, -9.6105, -0.0051, 0.0083, -0.0032, -0.0333, 0.0069, -0.0951, 0.2429, -0.0076, -0.1059, 225, 115292, 0.0000, 0.0000, 0.0000, 0.0000
2.0040, -0.1177, -0.0785, -9.6105, -0.0051, 0.0083, -0.0032, -0.0332, 0.0069, -0.0952, 0.2429, -0.0076, -0.1057, 226, 115292, 0.0000, 0.0000, 0.0000, 0.0000
2.0240, -0.1177, -0.0785, -9.6105, -0.0051, 0.0083, -0.0032, -0.0332, 0.0069, -0.0952, 0.2428, -0.0077, -0.1057, 227, 115292, 0.0000, 0.0000, 0.0000, 0.0000
2.0440, -0.1177, -0.0785, -9.6105, -0.0051, 0.0083, -0.0032, -0.0333, 0.0070, -0.0951, 0.2423, -0.0074, -0.1054, 228, 115292, 0.0000, 0.0000, 0.0000, 0.0000
2.0640, -0.1177, -0.0785, -9.6105, -0.0051, 0.0083, -0.0032, -0.0330, 0.0068, -0.0951, 0.2446, -0.0078, -0.1067, 229, 115292, 0.0000, 0.0000, 0.0000, 0.0000
2.0840, -0.1177, -0.0785, -9.6105, -0.0051, 0.0083, -0.0032, -0.0332, 0.0071, -0.0951, 0.2429, -0.0073, -0.1063, 230, 115292, 0.0000, 0.0000, 0.0000, 0.0000
2.1040, -0.1177, -0.0785, -9.6105, -0.0051, 0.0083, -0.0032, -0.0332, 0.0068, -0.0952, 0.2430, -0.0078, -0.1057, 231, 115292, 0.0000, 0.0000, 0.0000, 0.0000
2.1240, -0.1177, -0.0785, -9.6105, -0.0051, 0.0083, -0.0032, -0.0333, 0.0070, -0.0951, 0.2438, -0.0081, -0.1065, 232, 115292, 0.0000, 0.0000, 0.0000, 0.0000
2.1440, -0.1177, -0.0785, -9.6105, -0.0051, 0.0083, -0.0032, -0.0332, 0.0069, -0.0952, 0.2437, -0.0079, -0.1059, 233, 115292, 0.0000, 0.0000, 0.0000, 0.0000
2.1640, -0.1177, -0.0785, -9.6105, -0.0051, 0.0083, -0.0032, -0.0332, 0.0069, -0.0952, 0.2431, -0.0079, -0.1060, 234, 115292, 0.0000, 0.0000, 0.0000, 0.0000
2.1840, -0.1177, -0.0785, -9.6105, -0.0051, 0.0083, -0.0032, -0.0333, 0.0069, -0.0952, 0.2429, -0.0079, -0.1064, 235, 115292, 0.0000, 0.0000, 0.0000, 0.0000
2.2040, -0.1177, -0.0785, -9.6105, -0.0051, 0.0083, -0.0032, -0.0331, 0.0069, -0.0953, 0.2436, -0.0080, -0.1052, 236, 115292, 0.0000, 0.0000, 0.0000, 0.0000
2.2240, -0.1177, -0.0785, -9.6105, -0.0051, 0.0083, -0.0032, -0.0333, 0.0069, -0.0951, 0.2435, -0.0080, -0.1063, 237, 115292, 0.0000, 0.0000, 0.0000, 0.0000
2.2450, -0.1177, -0.0785, -9.6105, -0.0051, 0.0083, -0.0032, -0.0333, 0.0069, -0.0954, 0.2432, -0.0078, -0.1059, 238, 115292, 0.0000, 0.0000, 0.0000, 0.0000
2.2650, -0.1177, -0.0785, -9.6105, -0.0051, 0.0083, -0.0032, -0.0332, 0.0069, -0.0952, 0.2431, -0.0080, -0.1057, 239, 115292, 0.0000, 0.0000, 0.0000, 0.0000
2.2850, -0.1177, -0.0785, -9.6105, -0.0051, 0.0083, -0.0032, -0.0333, 0.0069, -0.0953, 0.2435, -0.0080, -0.1060, 240, 115292, 0.0000, 0.0000, 0.0000, 0.0000
2.3050, -0.1177, -0.0785, -9.6105, -0.0051, 0.0083, -0.0032, -0.0332, 0.0069, -0.0953, 0.2435, -0.0081, -0.1058, 241, 115292, 0.0000, 0.0000, 0.0000, 0.0000
2.3250, -0.1177, -0.0785, -9.6105, -0.0051, 0.0083, -0.0032, -0.0333, 0.0069, -0.0952, 0.2432, -0.0081, -0.1062, 242, 115292, 0.0000, 0.0000, 0.0000, 0.0000
2.3450, -0.1177, -0.0785, -9.6105, -0.0051, 0.0083, -0.0032, -0.0332, 0.0070, -0.0953, 0.2433, -0.0081, -0.1060, 243, 115292, 0.0000, 0.0000, 0.0000, 0.0000
2.3650, -0.1177, -0.0785, -9.6105, -0.0051, 0.0083, -0.0032, -0.0332, 0.0069, -0.0952, 0.2435, -0.0082, -0.1063, 244, 115292, 0.0000, 0.0000, 0.0000, 0.0000
2.3850, -0.1177, -0.0785, -9.6105, -0.0051, 0.0083, -0.0032, -0.0332, 0.0070, -0.0953, 0.2433, -0.0083, -0.1059, 245, 115292, 0.0000, 0.0000, 0.0000, 0.0000
2.4050, -0.1177, -0.0785, -9.6105, -0.0051, 0.0083, -0.0032, -0.0331, 0.0069, -0.0953, 0.2432, -0.0080, -0.1063, 246, 115292, 0.0000, 0.0000, 0.0000, 0.0000
2.4250, -0.1177, -0.0785, -9.6105, -0.0051, 0.0083, -0.0032, -0.0332, 0.0070, -0.0952, 0.2432, -0.0083, -0.1058, 247, 115292, 0.0000, 0.0000, 0.0000, 0.0000
2.4450, -0.1177, -0.0785, -9.6105, -0.0051, 0.0083, -0.0032, -0.0332, 0.0069, -0.0954, 0.2435, -0.0080, -0.1063, 248, 115292, 0.0000, 0.0000, 0.0000, 0.0000
2.4650, -0.1177, -0.0785, -9.6105, -0.0051, 0.0083, -0.0032, -0.0332, 0.0069, -0.0953, 0.2432, -0.0083, -0.1058, 249, 115292, 0.0000, 0.0000, 0.0000, 0.0000
2.4850, -0.1177, -0.0785, -9.6105, -0.0051, 0.0083, -0.0032, -0.0332, 0.0070, -0.0953, 0.2432, -0.0081, -0.1062, 250, 115292, 0.0000, 0.0000, 0.0000, 0.0000
2.5050, -0.1177, -0.0785, -9.6105, -0.0051, 0.0083, -0.0032, -0.0333, 0.0069, -0.0953, 0.2434, -0.0082, -0.1057, 251, 115292, 0.0000, 0.0000, 0.0000, 0.0000
2.5250, -0.1177, -0.0785, -9.6105, -0.0051, 0.0083, -0.0032, -0.0333, 0.0069, -0.0952, 0.2434, -0.0081, -0.1063, 252, 115292, 0.0000, 0.0000, 0.0000, 0.0000
2.5450, -0.1177, -0.0785, -9.6105, -0.0051, 0.0083, -0.0032, -0.0332, 0.0069, -0.0954, 0.2435, -0.0082, -0.1059, 253, 115292, 0.0000, 0.0000, 0.0000, 0.0000
2.5650, -0.1177, -0.0785, -9.6105, -0.0051, 0.0083, -0.0032, -0.0332, 0.0070, -0.0952, 0.2433, -0.0082, -0.1064, 254, 115292, 0.0000, 0.0000, 0.0000, 0.0000
2.5850, -0.1177, -0.0785, -9.6105, -0.0051, 0.0083, -0.0032, -0.0331, 0.0069, -0.0953, 0.2436, -0.0081, -0.1061, 255, 115292, 0.0000, 0.0000, 0.0000, 0.0000
2.6050, -0.1177, -0.0785, -9.6105, -0.0051, 0.0083, -0.0032, -0.0332, 0.0069, -0.0952, 0.2434, -0.0081, -0.1058, 256, 115292, 0.0000, 0.0000, 0.0000, 0.0000
2.6250, -0.1177, -0.0785, -9.6105, -0.0051, 0.0083, -0.0032, -0.0332, 0.0070, -0.0954, 0.2434, -0.0080, -0.1059, 257, 115292, 0.0000, 0.0000, 0.0000, 0.0000
2.6450, -0.1177, -0.0785, -9.6105, -0.0051, 0.0083, -0.0032, -0.0332, 0.0070, -0.0952, 0.2431, -0.0083, -0.1060, 258, 115292, 0.0000, 0.0000, 0.0000, 0.0000
2.6650, -0.1177, -0.0785, -9.6105, -0.0051, 0.0083, -0.0032, -0.0333, 0.0068, -0.0953, 0.2434, -0.0079, -0.1059, 259, 115292, 0.0000, 0.0000, 0.0000, 0.0000
2.6850, -0.1177, -0.0785, -9.6105, -0.0051, 0.0083, -0.0032, -0.0332, 0.0070, -0.0953, 0.2433, -0.0082, -0.1060, 260, 115292, 0.0000, 0.0000, 0.0000, 0.0000
2.7050, -0.1177, -0.0785, -9.6105, -0.0051, 0.0083, -0.0032, -0.0333, 0.0068, -0.0953, 0.2433, -0.0080, -0.1061, 261, 115292, 0.0000, 0.0000, 0.0000, 0.0000
2.7250, -0.1177, -0.0785, -9.6105, -0.0051, 0.0083, -0.0032, -0.0331, 0.0070, -0.0952, 0.2434, -0.0081, -0.1065, 262, 115292, 0.0000, 0.0000, 0.0000, 0.0000
2.7450, -0.1177, -0.0785, -9.6105, -0.0051, 0.0083, -0.0032, -0.0331, 0.0069, -0.0953, 0.2435, -0.0081, -0.1057, 263, 115292, 0.0000, 0.0000, 0.0000, 0.0000
2.7650, -0.1177, -0.0785, -9.6105, -0.0051, 0.0083, -0.0032, -0.0333, 0.0070, -0.0953, 0.2432, -0.0080, -0.1061, 264, 115292, 0.0000, 0.0000, 0.0000, 0.0000
2.7850, -0.1177, -0.0785, -9.6105, -0.0051, 0.0083, -0.0032, -0.0332, 0.0070, -0.0953, 0.2433, -0.0083, -0.1061, 265, 115292, 0.0000, 0.0000, 0.0000, 0.0000
2.8050, -0.1177, -0.0785, -9.6105, -0.0051, 0.0083, -0.0032, -0.0333, 0.0070, -0.0952, 0.2433, -0.0081, -0.1062, 266, 115292, 0.0000, 0.0000, 0.0000, 0.0000
2.8250, -0.1177, -0.0785, -9.6105, -0.0051, 0.0083, -0.0032, -0.0332, 0.0070, -0.0954, 0.2433, -0.0081, -0.1061, 267, 115292, 0.0000, 0.0000, 0.0000, 0.0000
2.8450, -0.1177, -0.0785, -9.6105, -0.0051, 0.0083, -0.0032, -0.0332, 0.0070, -0.0954, 0.2433, -0.0081, -0.1060, 268, 115292, 0.0000, 0.0000, 0.0000, 0.0000
2.8650, -0.1177, -0.0785, -9.6105, -0.0051, 0.0083, -0.0032, -0.0332, 0.0070, -0.0957, 0.2433, -0.0086, -0.1064, 269, 115292, 0.0000, 0.0000, 0.0000, 0.0000
2.8850, -0.1177, -0.0785, -9.6105, -0.0051, 0.0083, -0.0032, -0.0330, 0.0070, -0.0966, 0.2434, -0.0107, -0.1079, 270, 115292, 0.0000, 0.0000, 0.0000, 0.0000
2.9050, -0.1177, -0.0785, -9.6105, -0.0051, 0.0083, -0.0032, -0.0330, 0.0070, -0.0976, 0.2427, -0.0134, -0.1096, 271, 115292, 0.0000, 0.0000, 0.0000, 0.0000
2.9250, -0.1177, -0.0785, -9.6105, -0.0051, 0.0083, -0.0032, -0.0328, 0.0071, -0.0985, 0.2392, -0.0155, -0.1114, 272, 115292, 0.0000, 0.0000, 0.0000, 0.0000
2.9450, -0.1177, -0.0785, -9.6105, -0.0051, 0.0083, -0.0032, -0.0326, 0.0073, -0.0993, 0.2335, -0.0177, -0.1129, 273, 115292, 0.0000, 0.0000, 0.0000, 0.0000
2.9650, -0.1177, -0.0785, -9.6105, -0.0051, 0.0083, -0.0032, -0.0323, 0.0074, -0.1007, 0.2286, -0.0186, -0.1134, 274, 115292, 0.0000, 0.0000, 0.0000, 0.0000
2.9850, -0.1177, -0.0785, -9.6105, -0.0051, 0.0083, -0.0032, -0.0322, 0.0078, -0.1028, 0.2229, -0.0195, -0.1111, 275, 115292, 0.0000, 0.0000, 0.0000, 0.0000
3.0050, -0.1177, -0.0785, -9.6105, -0.0051, 0.0083, -0.0032, -0.0320, 0.0082, -0.1046, 0.2165, -0.0203, -0.1109, 276, 115292, 0.0000, 0.0000, 0.0000, 0.0000
3.0250, -0.1177, -0.0785, -9.6105, -0.0051, 0.0083, -0.0032, -0.0320, 0.0085, -0.1075, 0.2101, -0.0200, -0.1111, 277, 115292, 0.0000, 0.0000, 0.0000, 0.0000
3.0450, -0.1177, -0.0785, -9.6105, -0.0051, 0.0083, -0.0032, -0.0319, 0.0089, -0.1106, 0.2038, -0.0188, -0.1114, 278, 115292, 0.0000, 0.0000, 0.0000, 0.0000
3.0650, -0.1177, -0.0785, -9.6105, -0.0051, 0.0083, -0.0032, -0.0314, 0.0092, -0.1142, 0.1972, -0.0187, -0.1119, 279, 115292, 0.0000, 0.0000, 0.0000, 0.0000
3.0850, -0.1177, -0.0785, -9.6105, -0.0051, 0.0083, -0.0032, -0.0312, 0.0097, -0.1183, 0.1898, -0.0198, -0.1134, 280, 115292, 0.0000, 0.0000, 0.0000, 0.0000
3.1050, -0.1177, -0.0785, -9.6105, -0.0051, 0.0083, -0.0032, -0.0307, 0.0102, -0.1228, 0.1830, -0.0202, -0.1141, 281, 115292, 0.0000, 0.0000, 0.0000, 0.0000
3.1250, -0.1177, -0.0785, -9.6105, -0.0051, 0.0083, -0.0032, -0.0305, 0.0109, -0.1274, 0.1756, -0.0210, -0.1150, 282, 115292, 0.0000, 0.0000, 0.0000, 0.0000
3.1450, -0.1177, -0.0785, -9.6105, -0.0051, 0.0083, -0.0032, -0.0300, 0.0115, -0.1319, 0.1681, -0.0207, -0.1141, 283, 115292, 0.0000, 0.0000, 0.0000, 0.0000
3.1650, -0.1177, -0.0785, -9.6105, -0.0051, 0.0083, -0.0032, -0.0296, 0.0121, -0.1368, 0.1609, -0.0195, -0.1149, 284, 115292, 0.0000, 0.0000, 0.0000, 0.0000
3.1850, -0.1177, -0.0785, -9.6105, -0.0051, 0.0083, -0.0032, -0.0290, 0.0129, -0.1413, 0.1537, -0.0197, -0.1150, 285, 115292, 0.0000, 0.0000, 0.0000, 0.0000
3.2050, -0.1177, -0.0785, -9.6105, -0.0051, 0.0083, -0.0032, -0.0284, 0.0136, -0.1459, 0.1463, -0.0197, -0.1158, 286, 115292, 0.0000, 0.0000, 0.0000, 0.0000
3.2250, -0.1177, -0.0785, -9.6105, -0.0051, 0.0083, -0.0032, -0.0278, 0.0145, -0.1501, 0.1395, -0.0196, -0.1163, 287, 115292, 0.0000, 0.0000, 0.0000, 0.0000
3.2450, -0.1177, -0.0785, -9.6105, -0.0051, 0.0083, -0.0032, -0.0273, 0.0153, -0.1542, 0.1323, -0.0202, -0.1169, 288, 115292, 0.0000, 0.0000, 0.0000, 0.0000
3.2650, -0.1177, -0.0785, -9.6105, -0.0051, 0.0083, -0.0032, -0.0266, 0.0161, -0.1582, 0.1264, -0.0190, -0.1188, 289, 115292, 0.0000, 0.0000, 0.0000, 0.0000
3.2850, -0.1177, -0.0785, -9.6105, -0.0051, 0.0083, -0.0032, -0.0261, 0.0168, -0.1616, 0.1194, -0.0184, -0.1195, 290, 115292, 0.0000, 0.0000, 0.0000, 0.0000
3.3050, -0.1177, -0.0785, -9.6105, -0.0051, 0.0083, -0.0032, -0.0251, 0.0177, -0.1649, 0.1131, -0.0182, -0.1197, 291, 115292, 0.0000, 0.0000, 0.0000, 0.0000
3.3250, -0.1177, -0.0785, -9.6105, -0.0051, 0.0083, -0.0032, -0.0243, 0.0185, -0.1677, 0.1068, -0.0173, -0.1202, 292, 115292, 0.0000, 0.0000, 0.0000, 0.0000
3.3450, -0.1177, -0.0785, -9.6105, -0.0051, 0.0083, -0.0032, -0.0236, 0.0192, -0.1703, 0.1009, -0.0174, -0.1204, 293, 115292, 0.0000, 0.0000, 0.0000, 0.0000
3.3650, -0.1177, -0.0785, -9.6105, -0.0051, 0.0083, -0.0032, -0.0227, 0.0200, -0.1725, 0.0951, -0.0170, -0.1211, 294, 115292, 0.0000, 0.0000, 0.0000, 0.0000
3.3850, -0.1177, -0.0785, -9.6105, -0.0051, 0.0083, -0.0032, -0.0218, 0.0209, -0.1745, 0.0895, -0.0174, -0.1206, 295, 115292, 0.0000, 0.0000, 0.0000, 0.0000
3.4050, -0.1177, -0.0785, -9.6105, -0.0051, 0.0083, -0.0032, -0.0208, 0.0217, -0.1765, 0.0840, -0.0177, -0.1200, 296, 115292, 0.0000, 0.0000, 0.0000, 0.0000
3.4250, -0.1177, -0.0785, -9.6105, -0.0051, 0.0083, -0.0032, -0.0200, 0.0225, -0.1780, 0.0793, -0.0172, -0.1199, 297, 115292, 0.0000, 0.0000, 0.0000, 0.0000
3.4450, -0.1177, -0.0785, -9.6105, -0.0051, 0.0083, -0.0032, -0.0191, 0.0235, -0.1797, 0.0742, -0.0163, -0.1200, 298, 115292, 0.0000, 0.0000, 0.0000, 0.0000
3.4650, -0.1177, -0.0785, -9.6105, -0.0051, 0.0083, -0.0032, -0.0182, 0.0242, -0.1812, 0.0696, -0.0156, -0.1193, 299, 115292, 0.0000, 0.0000, 0.0000, 0.0000
3.4850, -0.1177, -0.0785, -9.6105, -0.0051, 0.0083, -0.0032, -0.0174, 0.0250, -0.1825, 0.0654, -0.0146, -0.1189, 300, 115292, 0.0000, 0.0000, 0.0000, 0.0000
3.5050, -0.1177, -0.0785, -9.6105, -0.0051, 0.0083, -0.0032, -0.0164, 0.0258, -0.1840, 0.0611, -0.0135, -0.1181, 301, 115292, 0.0000, 0.0000, 0.0000, 0.0000
3.5250, -0.1177, -0.0785, -9.6105, -0.0051, 0.0083, -0.0032, -0.0155, 0.0267, -0.1851, 0.0573, -0.0131, -0.1183, 302, 115292, 0.0000, 0.0000, 0.0000, 0.0000
3.5450, -0.1177, -0.0785, -9.6105, -0.0051, 0.0083, -0.0032, -0.0145, 0.0275, -0.1866, 0.0531, -0.0128, -0.1188, 303, 115292, 0.0000, 0.0000, 0.0000, 0.0000
3.5650, -0.1177, -0.0785, -9.6105, -0.0051, 0.0083, -0.0032, -0.0136, 0.0283, -0.1876, 0.0496, -0.0127, -0.1182, 304, 115292, 0.0000, 0.0000, 0.0000, 0.0000
3.5850, -0.1177, -0.0785, -9.6105, -0.0051, 0.0083, -0.0032, -0.0125, 0.0291, -0.1888, 0.0460, -0.0128, -0.1174, 305, 115292, 0.0000, 0.0000, 0.0000, 0.0000
3.6050, -0.1177, -0.0785, -9.6105, -0.0051, 0.0083, -0.0032, -0.0116, 0.0299, -0.1899, 0.0429, -0.0129, -0.1175, 306, 115292, 0.0000, 0.0000, 0.0000, 0.0000
3.6250, -0.1177, -0.0785, -9.6105, -0.0051, 0.0083, -0.0032, -0.0107, 0.0305, -0.1907, 0.0401, -0.0127, -0.1186, 307, 115292, 0.0000, 0.0000, 0.0000, 0.0000
3.6450, -0.1177, -0.0785, -9.6105, -0.0051, 0.0083, -0.0032, -0.0096, 0.0312, -0.1914, 0.0371, -0.0116, -0.1184, 308, 115292, 0.0000, 0.0000, 0.0000, 0.0000
3.6650, -0.1177, -0.0785, -9.6105, -0.0051, 0.0083, -0.0032, -0.0088, 0.0319, -0.1920, 0.0346, -0.0106, -0.1193, 309, 115292, 0.0000, 0.0000, 0.0000, 0.0000
3.6850, -0.1177, -0.0785, -9.6105, -0.0051, 0.0083, -0.0032, -0.0077, 0.0328, -0.1926, 0.0320, -0.0099, -0.1189, 310, 115292, 0.0000, 0.0000, 0.0000, 0.0000
3.7050, -0.1177, -0.0785, -9.6105, -0.0051, 0.0083, -0.0032, -0.0069, 0.0335, -0.1928, 0.0294, -0.0093, -0.1180, 311, 115292, 0.0000, 0.0000, 0.0000, 0.0000
3.7250, -0.1177, -0.0785, -9.6105, -0.0051, 0.0083, -0.0032, -0.0060, 0.0342, -0.1932, 0.0271, -0.0080, -0.1187, 312, 115292, 0.0000, 0.0000, 0.0000, 0.0000
3.7450, -0.1177, -0.0785, -9.6105, -0.0051, 0.0083, -0.0032, -0.0050, 0.0349, -0.1933, 0.0249, -0.0067, -0.1187, 313, 115292, 0.0000, 0.0000, 0.0000, 0.0000
3.7650, -0.1177, -0.0785, -9.6105, -0.0051, 0.0083, -0.0032, -0.0042, 0.0355, -0.1933, 0.0234, -0.0060, -0.1183, 314, 115292, 0.0000, 0.0000, 0.0000, 0.0000
3.7850, -0.1177, -0.0785, -9.6105, -0.0051, 0.0083, -0.0032, -0.0033, 0.0362, -0.1935, 0.0216, -0.0060, -0.1182, 315, 115292, 0.0000, 0.0000, 0.0000, 0.0000
3.8050, -0.1177, -0.0785, -9.6105, -0.0051, 0.0083, -0.0032, -0.0025, 0.0369, -0.1935, 0.0201, -0.0062, -0.1179, 316, 115292, 0.0000, 0.0000, 0.0000, 0.0000
3.8250, -0.1177, -0.0785, -9.6105, -0.0051, 0.0083, -0.0032, -0.0016, 0.0376, -0.1937, 0.0184, -0.0068, -0.1179, 317, 115292, 0.0000, 0.0000, 0.0000, 0.0000
3.8450, -0.1177, -0.0785, -9.6105, -0.0051, 0.0083, -0.0032, -0.0008, 0.0383, -0.1939, 0.0169, -0.0073, -0.1188, 318, 115292, 0.0000, 0.0000, 0.0000, 0.0000
3.8650, -0.1177, -0.0785, -9.6105, -0.0051, 0.0083, -0.0032, -0.0000, 0.0389, -0.1942, 0.0155, -0.0075, -0.1191, 319, 115292, 0.0000, 0.0000, 0.0000, 0.0000
3.8850, -0.1177, -0.0785, -9.6105, -0.0051, 0.0083, -0.0032, 0.0006, 0.0394, -0.1947, 0.0144, -0.0076, -0.1197, 320, 115292, 0.0000, 0.0000, 0.0000, 0.0000
3.9050, -0.1177, -0.0785, -9.6105, -0.0051, 0.0083, -0.0032, 0.0013, 0.0403, -0.1951, 0.0136, -0.0070, -0.1203, 321, 115292, 0.0000, 0.0000, 0.0000, 0.0000
3.9250, -0.1177, -0.0785, -9.6105, -0.0051, 0.0083, -0.0032, 0.0019, 0.0408, -0.1960, 0.0122, -0.0067, -0.1198, 322, 115292, 0.0000, 0.0000, 0.0000, 0.0000
3.9450, -0.1177, -0.0785, -9.6105, -0.0051, 0.0083, -0.0032, 0.0023, 0.0416, -0.1968, 0.0117, -0.0066, -0.1197, 323, 115292, 0.0000, 0.0000, 0.0000, 0.0000
3.9650, -0.1177, -0.0785, -9.6105, -0.0051, 0.0083, -0.0032, 0.0029, 0.0422, -0.1978, 0.0108, -0.0067, -0.1206, 324, 115292, 0.0000, 0.0000, 0.0000, 0.0000
3.9850, -0.1177, -0.0785, -9.6105, -0.0051, 0.0083, -0.0032, 0.0033, 0.0429, -0.1986, 0.0104, -0.0061, -0.1206, 325, 115292, 0.0000, 0.0000, 0.0000, 0.0000
4.0050, -0.1177, -0.0785, -9.6105, -0.0051, 0.0083, -0.0032, 0.0038, 0.0435, -0.1993, 0.0100, -0.0056, -0.1214, 326, 115292, 0.0000, 0.0000, 0.0000, 0.0000
4.0250, -0.1177, -0.0785, -9.6105, -0.0051, 0.0083, -0.0032, 0.0044, 0.0441, -0.2001, 0.0095, -0.0057, -0.1227, 327, 115292, 0.0000, 0.0000, 0.0000, 0.0000
4.0450, -0.1177, -0.0785, -9.6105, -0.0051, 0.0083, -0.0032, 0.0047, 0.0447, -0.2007, 0.0091, -0.0058, -0.1238, 328, 115292, 0.0000, 0.0000, 0.0000, 0.0000
4.0650, -0.1177, -0.0785, -9.6105, -0.0051, 0.0083, -0.0032, 0.0053, 0.0452, -0.2015, 0.0084, -0.0062, -0.1242, 329, 115292, 0.0000, 0.0000, 0.0000, 0.0000
4.0870, -0.1177, -0.0785, -9.6105, -0.0051, 0.0083, -0.0032, 0.0057, 0.0457, -0.2018, 0.0084, -0.0071, -0.1237, 330, 115292, 0.0000, 0.0000, 0.0000, 0.0000
4.1070, -0.1177, -0.0785, -9.6105, -0.0051, 0.0083, -0.0032, 0.0061, 0.0462, -0.2022, 0.0081, -0.0080, -0.1243, 331, 115292, 0.0000, 0.0000, 0.0000, 0.0000
4.1270, -0.1177, -0.0785, -9.6105, -0.0051, 0.0083, -0.0032, 0.0066, 0.0466, -0.2026, 0.0077, -0.0098, -0.1253, 332, 115292, 0.0000, 0.0000, 0.0000, 0.0000
4.1470, -0.1177, -0.0785, -9.6105, -0.0051, 0.0083, -0.0032, 0.0070, 0.0470, -0.2026, 0.0073, -0.0117, -0.1266, 333, 115292, 0.0000, 0.0000, 0.0000, 0.0000
4.1670, -0.1177, -0.0785, -9.6105, -0.0051, 0.0083, -0.0032, 0.0076, 0.0473, -0.2030, 0.0072, -0.0129, -0.1281, 334, 115292, 0.0000, 0.0000, 0.0000, 0.0000
4.1870, -0.1177, -0.0785, -9.6105, -0.0051, 0.0083, -0.0032, 0.0080, 0.0478, -0.2030, 0.0069, -0.0143, -0.1287, 335, 115292, 0.0000, 0.0000, 0.0000, 0.0000
4.2070, -0.1177, -0.0785, -9.6105, -0.0051, 0.0083, -0.0032, 0.0084, 0.0482, -0.2031, 0.0069, -0.0148, -0.1289, 336, 115292, 0.0000, 0.0000, 0.0000, 0.0000
4.2270, -0.1177, -0.0785, -9.6105, -0.0051, 0.0083, -0.0032, 0.0087, 0.0485, -0.2034, 0.0069, -0.0151, -0.1289, 337, 115292, 0.0000, 0.0000, 0.0000, 0.0000
4.2390, -0.1177, -0.0785, -9.6105, -0.0051, 0.0083, -0.0032, 0.0091, 0.0488, -0.2034, 0.0069, -0.0152, -0.1290, 338, 115292, 0.0000, 0.0000, 0.0000, 0.0000
4.2590, -0.1177, -0.0785, -9.6105, -0.0051, 0.0083, -0.0032, 0.0095, 0.0490, -0.2038, 0.0068, -0.0157, -0.1298, 339, 115292, 0.0000, 0.0000, 0.0000, 0.0000
4.2790, -0.1177, -0.0785, -9.6105, -0.0051, 0.0083, -0.0032, 0.0099, 0.0492, -0.2039, 0.0070, -0.0154, -0.1294, 340, 115292, 0.0000, 0.0000, 0.0000, 0.0000
4.2990, -0.1177, -0.0785, -9.6105, -0.0051, 0.0083, -0.0032, 0.0103, 0.0494, -0.2043, 0.0073, -0.0147, -0.1295, 341, 115292, 0.0000, 0.0000, 0.0000, 0.0000
4.3190, -0.1177, -0.0785, -9.6105, -0.0051, 0.0083, -0.0032, 0.0106, 0.0497, -0.2044, 0.0074, -0.0141, -0.1297, 342, 115292, 0.0000, 0.0000, 0.0000, 0.0000
4.3390, -0.1177, -0.0785, -9.6105, -0.0051, 0.0083, -0.0032, 0.0110, 0.0499, -0.2047, 0.0074, -0.0144, -0.1294, 343, 115292, 0.0000, 0.0000, 0.0000, 0.0000
4.3590, -0.1177, -0.0785, -9.6105, -0.0051, 0.0083, -0.0032, 0.0113, 0.0499, -0.2050, 0.0072, -0.0157, -0.1291, 344, 115292, 0.0000, 0.0000, 0.0000, 0.0000
4.3790, -0.1177, -0.0785, -9.6105, -0.0051, 0.0083, -0.0032, 0.0117, 0.0501, -0.2051, 0.0070, -0.0164, -0.1280, 345, 115292, 0.0000, 0.0000, 0.0000, 0.0000
4.4010, -0.1177, -0.0785, -9.6105, -0.0051, 0.0083, -0.0032, 0.0121, 0.0503, -0.2055, 0.0074, -0.0164, -0.1269, 346, 115292, 0.0000, 0.0000, 0.0000, 0.0000
4.4210, -0.1177, -0.0785, -9.6105, -0.0051, 0.0083, -0.0032, 0.0124, 0.0504, -0.2057, 0.0072, -0.0155, -0.1262, 347, 115292, 0.0000, 0.0000, 0.0000, 0.0000
4.4410, -0.1177, -0.0785, -9.6105, -0.0051, 0.0083, -0.0032, 0.0128, 0.0505, -0.2063, 0.0072, -0.0155, -0.1256, 348, 115292, 0.0000, 0.0000, 0.0000, 0.0000
4.4610, -0.1177, -0.0785, -9.6105, -0.0051, 0.0083, -0.0032, 0.0134, 0.0503, -0.2068, 0.0073, -0.0161, -0.1255, 349, 115292, 0.0000, 0.0000, 0.0000, 0.0000
4.4800, -0.1177, -0.0785, -9.6105, -0.0051, 0.0083, -0.0032, 0.0139, 0.0505, -0.2073, 0.0075, -0.0170, -0.1256, 350, 115292, 0.0000, 0.0000, 0.0000, 0.0000
4.5000, -0.1177, -0.0785, -9.6105, -0.0051, 0.0083, -0.0032, 0.0144, 0.0504, -0.2079, 0.0077, -0.0180, -0.1257, 351, 115292, 0.0000, 0.0000, 0.0000, 0.0000
4.5210, -0.1177, -0.0785, -9.6105, -0.0051, 0.0083, -0.0032, 0.0148, 0.0505, -0.2085, 0.0075, -0.0185, -0.1256, 352, 115292, 0.0000, 0.0000, 0.0000, 0.0000
4.5410, -0.1177, -0.0785, -9.6105, -0.0051, 0.0083, -0.0032, 0.0153, 0.0505, -0.2093, 0.0077, -0.0188, -0.1248, 353, 115292, 0.0000, 0.0000, 0.0000, 0.0000
4.5610, -0.1177, -0.0785, -9.6105, -0.0051, 0.0083, -0.0032, 0.0157, 0.0504, -0.2098, 0.0079, -0.0194, -0.1246, 354, 115292, 0.0000, 0.0000, 0.0000, 0.0000
4.5800, -0.1177, -0.0785, -9.6105, -0.0051, 0.0083, -0.0032, 0.0163, 0.0505, -0.2105, 0.0077, -0.0199, -0.1244, 355, 115292, 0.0000, 0.0000, 0.0000, 0.0000
4.6000, -0.1177, -0.0785, -9.6105, -0.0051, 0.0083, -0.0032, 0.0170, 0.0504, -0.2114, 0.0080, -0.0206, -0.1252, 356, 115292, 0.0000, 0.0000, 0.0000, 0.0000
4.6210, -0.1177, -0.0785, -9.6105, -0.0051, 0.0083, -0.0032, 0.0175, 0.0503, -0.2119, 0.0083, -0.0212, -0.1245, 357, 115292, 0.0000, 0.0000, 0.0000, 0.0000
4.6410, -0.1177, -0.0785, -9.6105, -0.0051, 0.0083, -0.0032, 0.0183, 0.0502, -0.2129, 0.0089, -0.0217, -0.1245, 358, 115292, 0.0000, 0.0000, 0.0000, 0.0000
4.6600, -0.1177, -0.0785, -9.6105, -0.0051, 0.0083, -0.0032, 0.0187, 0.0502, -0.2135, 0.0095, -0.0210, -0.1237, 359, 115292, 0.0000, 0.0000, 0.0000, 0.0000
4.6800, -0.1177, -0.0785, -9.6105, -0.0051, 0.0083, -0.0032, 0.0195, 0.0501, -0.2144, 0.0100, -0.0203, -0.1233, 360, 115292, 0.0000, 0.0000, 0.0000, 0.0000
4.7030, -0.1177, -0.0785, -9.6105, -0.0051, 0.0083, -0.0032, 0.0201, 0.0501, -0.2150, 0.0103, -0.0202, -0.1236, 361, 115292, 0.0000, 0.0000, 0.0000, 0.0000
4.7230, -0.1177, -0.0785, -9.6105, -0.0051, 0.0083, -0.0032, 0.0208, 0.0500, -0.2158, 0.0105, -0.0197, -0.1224, 362, 115292, 0.0000, 0.0000, 0.0000, 0.0000
4.7430, -0.1177, -0.0785, -9.6105, -0.0051, 0.0083, -0.0032, 0.0216, 0.0500, -0.2166, 0.0107, -0.0194, -0.1210, 363, 115292, 0.0000, 0.0000, 0.0000, 0.0000
4.7630, -0.1177, -0.0785, -9.6105, -0.0051, 0.0083, -0.0032, 0.0222, 0.0500, -0.2171, 0.0112, -0.0193, -0.1200, 364, 115292, 0.0000, 0.0000, 0.0000, 0.0000
4.7830, -0.1177, -0.0785, -9.6105, -0.0051, 0.0083, -0.0032, 0.0230, 0.0499, -0.2179, 0.0112, -0.0186, -0.1193, 365, 115292, 0.0000, 0.0000, 0.0000, 0.0000
4.8030, -0.1177, -0.0785, -9.6105, -0.0051, 0.0083, -0.0032, 0.0237, 0.0498, -0.2184, 0.0118, -0.0185, -0.1193, 366, 115292, 0.0000, 0.0000, 0.0000, 0.0000
4.8230, -0.1177, -0.0785, -9.6105, -0.0051, 0.0083, -0.0032, 0.0247, 0.0497, -0.2189, 0.0118, -0.0184, -0.1189, 367, 115292, 0.0000, 0.0000, 0.0000, 0.0000
4.8430, -0.1177, -0.0785, -9.6105, -0.0051, 0.0083, -0.0032, 0.0256, 0.0495, -0.2194, 0.0123, -0.0183, -0.1185, 368, 115292, 0.0000, 0.0000, 0.0000, 0.0000
4.8630, -0.1177, -0.0785, -9.6105, -0.0051, 0.0083, -0.0032, 0.0265, 0.0495, -0.2196, 0.0127, -0.0180, -0.1179, 369, 115292, 0.0000, 0.0000, 0.0000, 0.0000
4.8830, -0.1177, -0.0785, -9.6105, -0.0051, 0.0083, -0.0032, 0.0274, 0.0494, -0.2201, 0.0128, -0.0179, -0.1170, 370, 115292, 0.0000, 0.0000, 0.0000, 0.0000
4.9030, -0.1177, -0.0785, -9.6105, -0.0051, 0.0083, -0.0032, 0.0282, 0.0493, -0.2202, 0.0134, -0.0175, -0.1168, 371, 115292, 0.0000, 0.0000, 0.0000, 0.0000
4.9230, -0.1177, -0.0785, -9.6105, -0.0051, 0.0083, -0.0032, 0.0292, 0.0493, -0.2204, 0.0135, -0.0170, -0.1151, 372, 115292, 0.0000, 0.0000, 0.0000, 0.0000
4.9430, -0.1177, -0.0785, -9.6105, -0.0051, 0.0083, -0.0032, 0.0301, 0.0493, -0.2206, 0.0138, -0.0162, -0.1149, 373, 115292, 0.0000, 0.0000, 0.0000, 0.0000
4.9630, -0.1177, -0.0785, -9.6105, -0.0051, 0.0083, -0.0032, 0.0312, 0.0493, -0.2209, 0.0139, -0.0169, -0.1145, 374, 115292, 0.0000, 0.0000, 0.0000, 0.0000
4.9830, -0.1177, -0.0785, -9.6105, -0.0051, 0.0083, -0.0032, 0.0321, 0.0491, -0.2211, 0.0145, -0.0178, -0.1139, 375, 115292, 0.0000, 0.0000, 0.0000, 0.0000
5.0030, -0.1177, -0.0785, -9.6105, -0.0051, 0.0083, -0.0032, 0.0330, 0.0491, -0.2213, 0.0146, -0.0178, -0.1141, 376, 115292, 0.0000, 0.0000, 0.0000, 0.0000
5.0230, -0.1177, -0.0785, -9.6105, -0.0051, 0.0083, -0.0032, 0.0341, 0.0493, -0.2217, 0.0148, -0.0173, -0.1140, 377, 115292, 0.0000, 0.0000, -0.0010, 0.0000
5.0430, -0.1177, -0.0785, -9.6105, -0.0051, 0.0083, -0.0032, 0.0349, 0.0492, -0.2218, 0.0150, -0.0162, -0.1138, 378, 115292, 0.0000, 0.0000, -0.0077, 0.0000
5.0630, -0.1177, -0.0785, -9.6105, -0.0051, 0.0083, -0.0032, 0.0360, 0.0493, -0.2223, 0.0152, -0.0156, -0.1131, 379, 115292, 0.0000, 0.0000, -0.0143, 0.0000
5.0830, -0.1177, -0.0785, -9.6105, -0.0051, 0.0083, -0.0032, 0.0368, 0.0493, -0.2226, 0.0156, -0.0155, -0.1124, 380, 115292, 0.0000, 0.0000, -0.0210, 0.0000
5.1030, -0.1177, -0.0785, -9.6105, -0.0051, 0.0083, -0.0032, 0.0378, 0.0495, -0.2231, 0.0152, -0.0161, -0.1116, 381, 115292, 0.0000, 0.0000, -0.0277, 0.0000
5.1230, -0.1177, -0.0785, -9.6105, -0.0051, 0.0083, -0.0032, 0.0389, 0.0497, -0.2237, 0.0153, -0.0160, -0.1110, 382, 115292, 0.0000, 0.0000, -0.0343, 0.0000
5.1430, -0.1177, -0.0785, -9.6105, -0.0051, 0.0083, -0.0032, 0.0398, 0.0499, -0.2242, 0.0156, -0.0160, -0.1100, 383, 115292, 0.0000, 0.0000, -0.0410, 0.0000
5.1630, -0.1177, -0.0785, -9.6105, -0.0051, 0.0083, -0.0032, 0.0409, 0.0500, -0.2248, 0.0160, -0.0153, -0.1092, 384, 115292, 0.0000, 0.0000, -0.0477, 0.0000
5.1830, -0.1177, -0.0785, -9.6105, -0.0051, 0.0083, -0.0032, 0.0418, 0.0503, -0.2252, 0.0158, -0.0149, -0.1098, 385, 115292, 0.0000, 0.0000, -0.0543, 0.0000
5.2030, -0.1177, -0.0785, -9.6105, -0.0051, 0.0083, -0.0032, 0.0428, 0.0505, -0.2259, 0.0162, -0.0150, -0.1102, 386, 115292, 0.0000, 0.0000, -0.0610, 0.0000
5.2230, -0.1177, -0.0785, -9.6105, -0.0051, 0.0083, -0.0032, 0.0439, 0.0508, -0.2266, 0.0162, -0.0145, -0.1107, 387, 115292, 0.0000, 0.0000, -0.0677, 0.0000
5.2430, -0.1177, -0.0785, -9.6105, -0.0051, 0.0083, -0.0032, 0.0448, 0.0511, -0.2273, 0.0169, -0.0145, -0.1114, 388, 115292, 0.0000, 0.0000, -0.0743, 0.0000
5.2630, -0.1177, -0.0785, -9.6105, -0.0051, 0.0083, -0.0032, 0.0459, 0.0514, -0.2281, 0.0171, -0.0142, -0.1120, 389, 115292, 0.0000, 0.0000, -0.0810, 0.0000
5.2830, -0.1177, -0.0785, -9.6105, -0.0051, 0.0083, -0.0032, 0.0469, 0.0519, -0.2288, 0.0172, -0.0140, -0.1122, 390, 115292, 0.0000, 0.0000, -0.0877, 0.0000
5.3030, -0.1177, -0.0785, -9.6105, -0.0051, 0.0083, -0.0032, 0.0479, 0.0524, -0.2298, 0.0171, -0.0149, -0.1130, 391, 115292, 0.0000, 0.0000, -0.0943, 0.0000
5.3230, -0.1177, -0.0785, -9.6105, -0.0051, 0.0083, -0.0032, 0.0490, 0.0527, -0.2307, 0.0171, -0.0153, -0.1125, 392, 115292, 0.0000, 0.0000, -0.1010, 0.0000
5.3430, -0.1177, -0.0785, -9.6105, -0.0051, 0.0083, -0.0032, 0.0499, 0.0532, -0.2315, 0.0178, -0.0159, -0.1135, 393, 115292, 0.0000, 0.0000, -0.1077, 0.0000
5.3630, -0.1177, -0.0785, -9.6105, -0.0051, 0.0083, -0.0032, 0.0511, 0.0537, -0.2328, 0.0181, -0.0155, -0.1141, 394, 115292, 0.0000, 0.0000, -0.1143, 0.0000
5.3830, -0.1177, -0.0785, -9.6105, -0.0051, 0.0083, -0.0032, 0.0522, 0.0543, -0.2338, 0.0179, -0.0152, -0.1134, 395, 115292, 0.0000, 0.0000, -0.1210, 0.0000
5.4030, -0.1177, -0.0785, -9.6105, -0.0051, 0.0083, -0.0032, 0.0533, 0.0548, -0.2350, 0.0182, -0.0150, -0.1143, 396, 115292, 0.0000, 0.0000, -0.1277, 0.0000
5.4230, -0.1177, -0.0785, -9.6105, -0.0051, 0.0083, -0.0032, 0.0541, 0.0553, -0.2362, 0.0184, -0.0146, -0.1148, 397, 115292, 0.0000, 0.0000, -0.1343, 0.0000
5.4430, -0.1177, -0.0785, -9.6105, -0.0051, 0.0083, -0.0032, 0.0553, 0.0558, -0.2377, 0.0186, -0.0143, -0.1156, 398, 115292, 0.0000, 0.0000, -0.1410, 0.0000
5.4630, -0.1177, -0.0785, -9.6105, -0.0051, 0.0083, -0.0032, 0.0564, 0.0565, -0.2393, 0.0188, -0.0137, -0.1159, 399, 115292, 0.0000, 0.0000, -0.1477, 0.0000
5.4830, -0.1177, -0.0785, -9.6105, -0.0051, 0.0083, -0.0032, 0.0574, 0.0570, -0.2408, 0.0189, -0.0124, -0.1164, 400, 115292, 0.0000, 0.0000, -0.1543, 0.0000
5.5030, -0.1177, -0.0785, -9.6105, -0.0051, 0.0083, -0.0032, 0.0583, 0.0575, -0.2426, 0.0191, -0.0115, -0.1166, 401, 115292, 0.0000, 0.0000, -0.1610, 0.0000
5.5230, -0.1177, -0.0785, -9.6105, -0.0051, 0.0083, -0.0032, 0.0594, 0.0581, -0.2445, 0.0195, -0.0103, -0.1168, 402, 115292, 0.0000, 0.0000, -0.1677, 0.0000
5.5430, -0.1177, -0.0785, -9.6105, -0.0051, 0.0083, -0.0032, 0.0603, 0.0586, -0.2466, 0.0200, -0.0093, -0.1173, 403, 115292, 0.0000, 0.0000, -0.1743, 0.0000
5.5630, -0.1177, -0.0785, -9.6105, -0.0051, 0.0083, -0.0032, 0.0612, 0.0590, -0.2487, 0.0202, -0.0084, -0.1177, 404, 115292, 0.0000, 0.0000, -0.1810, 0.0000
5.5830, -0.1177, -0.0785, -9.6105, -0.0051, 0.0083, -0.0032, 0.0622, 0.0596, -0.2509, 0.0205, -0.0079, -0.1184, 405, 115292, 0.0000, 0.0000, -0.1877, 0.0000
5.6030, -0.1177, -0.0785, -9.6105, -0.0051, 0.0083, -0.0032, 0.0633, 0.0601, -0.2532, 0.0207, -0.0078, -0.1196, 406, 115292, 0.0000, 0.0000, -0.1943, 0.0000
5.6230, -0.1177, -0.0785, -9.6105, -0.0051, 0.0083, -0.0032, 0.0639, 0.0606, -0.2556, 0.0205, -0.0076, -0.1192, 407, 115292, 0.0000, 0.0000, -0.2010, 0.0000
5.6430, -0.1177, -0.0785, -9.6105, -0.0051, 0.0083, -0.0032, 0.0648, 0.0611, -0.2581, 0.0210, -0.0071, -0.1189, 408, 115292, 0.0000, 0.0000, -0.2077, 0.0000
5.6630, -0.1177, -0.0785, -9.6105, -0.0051, 0.0083, -0.0032, 0.0656, 0.0616, -0.2604, 0.0204, -0.0066, -0.1190, 409, 115292, 0.0000, 0.0000, -0.2143, 0.0000
5.6830, -0.1177, -0.0785, -9.6105, -0.0051, 0.0083, -0.0032, 0.0663, 0.0621, -0.2630, 0.0208, -0.0058, -0.1193, 410, 115292, 0.0000, 0.0000, -0.2210, 0.0000
5.7030, -0.1177, -0.0785, -9.6105, -0.0051, 0.0083, -0.0032, 0.0670, 0.0624, -0.2656, 0.0211, -0.0051, -0.1194, 411, 115292, 0.0000, 0.0000, -0.2277, 0.0000
5.7230, -0.1177, -0.0785, -9.6105, -0.0051, 0.0083, -0.0032, 0.0677, 0.0627, -0.2681, 0.0211, -0.0043, -0.1187, 412, 115292, 0.0000, 0.0000, -0.2343, 0.0000
5.7430, -0.1177, -0.0785, -9.6105, -0.0051, 0.0083, -0.0032, 0.0685, 0.0631, -0.2709, 0.0213, -0.0043, -0.1196, 413, 115292, 0.0000, 0.0000, -0.2410, 0.0000
5.7630, -0.1177, -0.0785, -9.6105, -0.0051, 0.0083, -0.0032, 0.0690, 0.0634, -0.2734, 0.0209, -0.0044, -0.1194, 414, 115292, 0.0000, 0.0000, -0.2477, 0.0000
5.7830, -0.1177, -0.0785, -9.6105, -0.0051, 0.0083, -0.0032, 0.0695, 0.0637, -0.2763, 0.0213, -0.0044, -0.1206, 415, 115292, 0.0000, 0.0000, -0.2543, 0.0000
5.8030, -0.1177, -0.0785, -9.6105, -0.0051, 0.0083, -0.0032, 0.0700, 0.0641, -0.2791, 0.0208, -0.0046, -0.1212, 416, 115292, 0.0000, 0.0000, -0.2610, 0.0000
5.8230, -0.1177, -0.0785, -9.6105, -0.0051, 0.0083, -0.0032, 0.0705, 0.0643, -0.2820, 0.0206, -0.0054, -0.1209, 417, 115292, 0.0000, 0.0000, -0.2677, 0.0000
5.8430, -0.1177, -0.0785, -9.6105, -0.0051, 0.0083, -0.0032, 0.0709, 0.0646, -0.2850, 0.0210, -0.0053, -0.1213, 418, 115292, 0.0000, 0.0000, -0.2743, 0.0000
5.8630, -0.1177, -0.0785, -9.6105, -0.0051, 0.0083, -0.0032, 0.0712, 0.0647, -0.2878, 0.0207, -0.0046, -0.1201, 419, 115292, 0.0000, 0.0000, -0.2810, 0.0000
5.8830, -0.1177, -0.0785, -9.6105, -0.0051, 0.0083, -0.0032, 0.0716, 0.0649, -0.2910, 0.0209, -0.0047, -0.1206, 420, 115292, 0.0000, 0.0000, -0.2877, 0.0000
5.9030, -0.1177, -0.0785, -9.6105, -0.0051, 0.0083, -0.0032, 0.0719, 0.0651, -0.2938, 0.0208, -0.0041, -0.1197, 421, 115292, 0.0000, 0.0000, -0.2943, 0.0000
5.9230, -0.1177, -0.0785, -9.6105, -0.0051, 0.0083, -0.0032, 0.0722, 0.0652, -0.2968, 0.0207, -0.0039, -0.1194, 422, 115292, 0.0000, 0.0000, -0.3010, 0.0000
5.9430, -0.1177, -0.0785, -9.6105, -0.0051, 0.0083, -0.0032, 0.0724, 0.0655, -0.2999, 0.0208, -0.0032, -0.1193, 423, 115292, 0.0000, 0.0000, -0.3077, 0.0000
5.9630, -0.1177, -0.0785, -9.6105, -0.0051, 0.0083, -0.0032, 0.0726, 0.0656, -0.3028, 0.0207, -0.0029, -0.1185, 424, 115292, 0.0000, 0.0000, -0.3143, 0.0000
5.9830, -0.1177, -0.0785, -9.6105, -0.0051, 0.0083, -0.0032, 0.0727, 0.0656, -0.3062, 0.0206, -0.0036, -0.1189, 425, 115292, 0.0000, 0.0000, -0.3210, 0.0000
6.0030, -0.1177, -0.0785, -9.6105, -0.0051, 0.0083, -0.0032, 0.0728, 0.0658, -0.3093, 0.0202, -0.0039, -0.1188, 426, 115292, 0.0000, 0.0000, -0.3277, 0.0000
6.0230, -0.1177, -0.0785, -9.6105, -0.0051, 0.0083, -0.0032, 0.0729, 0.0658, -0.3126, 0.0201, -0.0047, -0.1189, 427, 115292, 0.0000, 0.0000, -0.3343, 0.0000
6.0430, -0.1177, -0.0785, -9.6105, -0.0051, 0.0083, -0.0032, 0.0729, 0.0659, -0.3160, 0.0200, -0.0053, -0.1195, 428, 115292, 0.0000, 0.0000, -0.3410, 0.0000
6.0630, -0.1177, -0.0785, -9.6105, -0.0051, 0.0083, -0.0032, 0.0729, 0.0659, -0.3193, 0.0199, -0.0058, -0.1191, 429, 115292, 0.0000, 0.0000, -0.3477, 0.0000
6.0830, -0.1177, -0.0785, -9.6105, -0.0051, 0.0083, -0.0032, 0.0728, 0.0661, -0.3229, 0.0196, -0.0067, -0.1189, 430, 115292, 0.0000, 0.0000, -0.3543, 0.0000
6.1030, -0.1177, -0.0785, -9.6105, -0.0051, 0.0083, -0.0032, 0.0726, 0.0663, -0.3263, 0.0194, -0.0065, -0.1178, 431, 115292, 0.0000, 0.0000, -0.3610, 0.0000
6.1230, -0.1177, -0.0785, -9.6105, -0.0051, 0.0083, -0.0032, 0.0725, 0.0664, -0.3300, 0.0192, -0.0069, -0.1176, 432, 115292, 0.0000, 0.0000, -0.3677, 0.0000
6.1430, -0.1177, -0.0785, -9.6105, -0.0051, 0.0083, -0.0032, 0.0721, 0.0665, -0.3336, 0.0190, -0.0070, -0.1173, 433, 115292, 0.0000, 0.0000, -0.3743, 0.0000
6.1630, -0.1177, -0.0785, -9.6105, -0.0051, 0.0083, -0.0032, 0.0720, 0.0665, -0.3373, 0.0186, -0.0080, -0.1176, 434, 115292, 0.0000, 0.0000, -0.3810, 0.0000
6.1830, -0.1177, -0.0785, -9.6105, -0.0051, 0.0083, -0.0032, 0.0717, 0.0666, -0.3406, 0.0185, -0.0082, -0.1180, 435, 115292, 0.0000, 0.0000, -0.3877, 0.0000
6.2030, -0.1177, -0.0785, -9.6105, -0.0051, 0.0083, -0.0032, 0.0714, 0.0666, -0.3440, 0.0187, -0.0090, -0.1187, 436, 115292, 0.0000, 0.0000, -0.3943, 0.0000
6.2230, -0.1177, -0.0785, -9.6105, -0.0051, 0.0083, -0.0032, 0.0712, 0.0667, -0.3471, 0.0185, -0.0091, -0.1191, 437, 115292, 0.0000, 0.0000, -0.4010, 0.0000
6.2460, -0.1177, -0.0785, -9.6105, -0.0051, 0.0083, -0.0032, 0.0708, 0.0669, -0.3501, 0.0185, -0.0103, -0.1192, 438, 115292, 0.0000, 0.0000, -0.4077, 0.0000
6.2660, -0.1177, -0.0785, -9.6105, -0.0051, 0.0083, -0.0032, 0.0707, 0.0668, -0.3532, 0.0181, -0.0113, -0.1184, 439, 115292, 0.0000, 0.0000, -0.4153, 0.0000
6.2860, -0.1177, -0.0785, -9.6105, -0.0051, 0.0083, -0.0032, 0.0704, 0.0670, -0.3560, 0.0178, -0.0128, -0.1183, 440, 115292, 0.0000, 0.0000, -0.4220, 0.0000
6.3060, -0.1177, -0.0785, -9.6105, -0.0051, 0.0083, -0.0032, 0.0702, 0.0670, -0.3589, 0.0177, -0.0138, -0.1183, 441, 115292, 0.0000, 0.0000, -0.4287, 0.0000
6.3260, -0.1177, -0.0785, -9.6105, -0.0051, 0.0083, -0.0032, 0.0699, 0.0671, -0.3619, 0.0176, -0.0140, -0.1179, 442, 115292, 0.0000, 0.0000, -0.4353, 0.0000
6.3460, -0.1177, -0.0785, -9.6105, -0.0051, 0.0083, -0.0032, 0.0696, 0.0671, -0.3647, 0.0178, -0.0136, -0.1186, 443, 115292, 0.0000, 0.0000, -0.4420, 0.0000
6.3660, -0.1177, -0.0785, -9.6105, -0.0051, 0.0083, -0.0032, 0.0693, 0.0673, -0.3678, 0.0176, -0.0145, -0.1173, 444, 115292, 0.0000, 0.0000, -0.4487, 0.0000
6.3860, -0.1177, -0.0785, -9.6105, -0.0051, 0.0083, -0.0032, 0.0691, 0.0674, -0.3707, 0.0173, -0.0154, -0.1173, 445, 115292, 0.0000, 0.0000, -0.4553, 0.0000
6.4060, -0.1177, -0.0785, -9.6105, -0.0051, 0.0083, -0.0032, 0.0688, 0.0675, -0.3740, 0.0174, -0.0164, -0.1169, 446, 115292, 0.0000, 0.0000, -0.4620, 0.0000
6.4260, -0.1177, -0.0785, -9.6105, -0.0051, 0.0083, -0.0032, 0.0687, 0.0676, -0.3773, 0.0172, -0.0176, -0.1156, 447, 115292, 0.0000, 0.0000, -0.4687, 0.0000
6.4460, -0.1177, -0.0785, -9.6105, -0.0051, 0.0083, -0.0032, 0.0684, 0.0678, -0.3807, 0.0171, -0.0177, -0.1152, 448, 115292, 0.0000, 0.0000, -0.4753, 0.0000
6.4660, -0.1177, -0.0785, -9.6105, -0.0051, 0.0083, -0.0032, 0.0681, 0.0681, -0.3843, 0.0178, -0.0179, -0.1145, 449, 115292, 0.0000, 0.0000, -0.4820, 0.0000
6.4860, -0.1177, -0.0785, -9.6105, -0.0051, 0.0083, -0.0032, 0.0678, 0.0682, -0.3873, 0.0173, -0.0181, -0.1146, 450, 115292, 0.0000, 0.0000, -0.4887, 0.0000
6.5060, -0.1177, -0.0785, -9.6105, -0.0051, 0.0083, -0.0032, 0.0677, 0.0684, -0.3908, 0.0174, -0.0194, -0.1150, 451, 115292, 0.0000, 0.0000, -0.4953, 0.0000
6.5260, -0.1177, -0.0785, -9.6105, -0.0051, 0.0083, -0.0032, 0.0676, 0.0687, -0.3938, 0.0175, -0.0203, -0.1162, 452, 115292, 0.0000, 0.0000, -0.5020, 0.0000
6.5460, -0.1177, -0.0785, -9.6105, -0.0051, 0.0083, -0.0032, 0.0674, 0.0689, -0.3970, 0.0172, -0.0208, -0.1167, 453, 115292, 0.0000, 0.0000, -0.5087, 0.0000
6.5660, -0.1177, -0.0785, -9.6105, -0.0051, 0.0083, -0.0032, 0.0672, 0.0691, -0.4001, 0.0174, -0.0206, -0.1171, 454, 115292, 0.0000, 0.0000, -0.5153, 0.0000
6.5860, -0.1177, -0.0785, -9.6105, -0.0051, 0.0083, -0.0032, 0.0672, 0.0694, -0.4031, 0.0174, -0.0216, -0.1174, 455, 115292, 0.0000, 0.0000, -0.5220, 0.0000
6.6060, -0.1177, -0.0785, -9.6105, -0.0051, 0.0083, -0.0032, 0.0671, 0.0696, -0.4063, 0.0172, -0.0211, -0.1166, 456, 115292, 0.0000, 0.0000, -0.5287, 0.0000
6.6260, -0.1177, -0.0785, -9.6105, -0.0051, 0.0083, -0.0032, 0.0670, 0.0698, -0.4093, 0.0179, -0.0213, -0.1178, 457, 115292, 0.0000, 0.0000, -0.5353, 0.0000
6.6460, -0.1177, -0.0785, -9.6105, -0.0051, 0.0083, -0.0032, 0.0672, 0.0700, -0.4125, 0.0175, -0.0217, -0.1185, 458, 115292, 0.0000, 0.0000, -0.5420, 0.0000
6.6660, -0.1177, -0.0785, -9.6105, -0.0051, 0.0083, -0.0032, 0.0671, 0.0701, -0.4157, 0.0178, -0.0215, -0.1184, 459, 115292, 0.0000, 0.0000, -0.5487, 0.0000
6.6860, -0.1177, -0.0785, -9.6105, -0.0051, 0.0083, -0.0032, 0.0672, 0.0705, -0.4186, 0.0181, -0.0214, -0.1187, 460, 115292, 0.0000, 0.0000, -0.5553, 0.0000
6.7060, -0.1177, -0.0785, -9.6105, -0.0051, 0.0083, -0.0032, 0.0673, 0.0704, -0.4219, 0.0182, -0.0208, -0.1190, 461, 115292, 0.0000, 0.0000, -0.5620, 0.0000
6.7260, -0.1177, -0.0785, -9.6105, -0.0051, 0.0083, -0.0032, 0.0675, 0.0707, -0.4250, 0.0190, -0.0209, -0.1197, 462, 115292, 0.0000, 0.0000, -0.5687, 0.0000
6.7460, -0.1177, -0.0785, -9.6105, -0.0051, 0.0083, -0.0032, 0.0678, 0.0709, -0.4282, 0.0187, -0.0203, -0.1197, 463, 115292, 0.0000, 0.0000, -0.5753, 0.0000
6.7660, -0.1177, -0.0785, -9.6105, -0.0051, 0.0083, -0.0032, 0.0680, 0.0711, -0.4316, 0.0190, -0.0208, -0.1196, 464, 115292, 0.0000, 0.0000, -0.5820, 0.0000
6.7860, -0.1177, -0.0785, -9.6105, -0.0051, 0.0083, -0.0032, 0.0684, 0.0712, -0.4348, 0.0195, -0.0219, -0.1204, 465, 115292, 0.0000, 0.0000, -0.5887, 0.0000
6.8060, -0.1177, -0.0785, -9.6105, -0.0051, 0.0083, -0.0032, 0.0688, 0.0713, -0.4383, 0.0195, -0.0226, -0.1199, 466, 115292, 0.0000, 0.0000, -0.5953, 0.0000
6.8260, -0.1177, -0.0785, -9.6105, -0.0051, 0.0083, -0.0032, 0.0692, 0.0714, -0.4415, 0.0201, -0.0235, -0.1209, 467, 115292, 0.0000, 0.0000, -0.6020, 0.0000
6.8460, -0.1177, -0.0785, -9.6105, -0.0051, 0.0083, -0.0032, 0.0696, 0.0714, -0.4451, 0.0202, -0.0232, -0.1201, 468, 115292, 0.0000, 0.0000, -0.6087, 0.0000
6.8660, -0.1177, -0.0785, -9.6105, -0.0051, 0.0083, -0.0032, 0.0700, 0.0715, -0.4485, 0.0204, -0.0236, -0.1205, 469, 115292, 0.0000, 0.0000, -0.6153, 0.0000
6.8860, -0.1177, -0.0785, -9.6105, -0.0051, 0.0083, -0.0032, 0.0707, 0.0715, -0.4519, 0.0207, -0.0239, -0.1208, 470, 115292, 0.0000, 0.0000, -0.6220, 0.0000
6.9060, -0.1177, -0.0785, -9.6105, -0.0051, 0.0083, -0.0032, 0.0711, 0.0714, -0.4555, 0.0210, -0.0236, -0.1206, 471, 115292, 0.0000, 0.0000, -0.6287, 0.0000
6.9260, -0.1177, -0.0785, -9.6105, -0.0051, 0.0083, -0.0032, 0.0719, 0.0716, -0.4589, 0.0216, -0.0234, -0.1213, 472, 115292, 0.0000, 0.0000, -0.6353, 0.0000
6.9460, -0.1177, -0.0785, -9.6105, -0.0051, 0.0083, -0.0032, 0.0724, 0.0715, -0.4624, 0.0221, -0.0224, -0.1208, 473, 115292, 0.0000, 0.0000, -0.6420, 0.0000
6.9660, -0.1177, -0.0785, -9.6105, -0.0051, 0.0083, -0.0032, 0.0731, 0.0715, -0.4652, 0.0228, -0.0209, -0.1207, 474, 115292, 0.0000, 0.0000, -0.6487, 0.0000
6.9860, -0.1177, -0.0785, -9.6105, -0.0051, 0.0083, -0.0032, 0.0740, 0.0713, -0.4679, 0.0233, -0.0199, -0.1201, 475, 115292, 0.0000, 0.0000, -0.6553, 0.0000
7.0060, -0.1177, -0.0785, -9.6105, -0.0051, 0.0083, -0.0032, 0.0746, 0.0713, -0.4705, 0.0240, -0.0193, -0.1206, 476, 115292, 0.0000, 0.0000, -0.6620, 0.0000
7.0260, -0.1177, -0.0785, -9.6105, -0.0051, 0.0083, -0.0032, 0.0754, 0.0711, -0.4734, 0.0243, -0.0189, -0.1204, 477, 115292, 0.0000, 0.0000, -0.6687, 0.0000
7.0460, -0.1177, -0.0785, -9.6105, -0.0051, 0.0083, -0.0032, 0.0763, 0.0710, -0.4761, 0.0248, -0.0184, -0.1204, 478, 115292, 0.0000, 0.0000, -0.6753, 0.0000
7.0660, -0.1177, -0.0785, -9.6105, -0.0051, 0.0083, -0.0032, 0.0771, 0.0709, -0.4790, 0.0255, -0.0175, -0.1201, 479, 115292, 0.0000, 0.0000, -0.6820, 0.0000
7.0860, -0.1177, -0.0785, -9.6105, -0.0051, 0.0083, -0.0032, 0.0781, 0.0708, -0.4820, 0.0257, -0.0169, -0.1193, 480, 115292, 0.0000, 0.0000, -0.6887, 0.0000
7.1060, -0.1177, -0.0785, -9.6105, -0.0051, 0.0083, -0.0032, 0.0788, 0.0706, -0.4849, 0.0263, -0.0159, -0.1182, 481, 115292, 0.0000, 0.0000, -0.6953, 0.0000
7.1260, -0.1177, -0.0785, -9.6105, -0.0051, 0.0083, -0.0032, 0.0799, 0.0705, -0.4882, 0.0265, -0.0159, -0.1176, 482, 115292, 0.0000, 0.0000, -0.7020, 0.0000
7.1460, -0.1177, -0.0785, -9.6105, -0.0051, 0.0083, -0.0032, 0.0809, 0.0703, -0.4913, 0.0271, -0.0153, -0.1179, 483, 115292, 0.0000, 0.0000, -0.7087, 0.0000
7.1660, -0.1177, -0.0785, -9.6105, -0.0051, 0.0083, -0.0032, 0.0816, 0.0702, -0.4947, 0.0276, -0.0141, -0.1169, 484, 115292, 0.0000, 0.0000, -0.7153, 0.0000
7.1860, -0.1177, -0.0785, -9.6105, -0.0051, 0.0083, -0.0032, 0.0828, 0.0700, -0.4983, 0.0281, -0.0132, -0.1172, 485, 115292, 0.0000, 0.0000, -0.7220, 0.0000
7.2060, -0.1177, -0.0785, -9.6105, -0.0051, 0.0083, -0.0032, 0.0837, 0.0698, -0.5017, 0.0285, -0.0125, -0.1161, 486, 115292, 0.0000, 0.0000, -0.7287, 0.0000
7.2260, -0.1177, -0.0785, -9.6105, -0.0051, 0.0083, -0.0032, 0.0848, 0.0697, -0.5054, 0.0290, -0.0120, -0.1159, 487, 115292, 0.0000, 0.0000, -0.7353, 0.0000
7.2460, -0.1177, -0.0785, -9.6105, -0.0051, 0.0083, -0.0032, 0.0859, 0.0694, -0.5090, 0.0293, -0.0114, -0.1153, 488, 115292, 0.0000, 0.0000, -0.7420, 0.0000
7.2660, -0.1177, -0.0785, -9.6105, -0.0051, 0.0083, -0.0032, 0.0867, 0.0694, -0.5129, 0.0294, -0.0109, -0.1142, 489, 115292, 0.0000, 0.0000, -0.7487, 0.0000
7.2860, -0.1177, -0.0785, -9.6105, -0.0051, 0.0083, -0.0032, 0.0879, 0.0691, -0.5168, 0.0300, -0.0111, -0.1141, 490, 115292, 0.0000, 0.0000, -0.7553, 0.0000
7.3060, -0.1177, -0.0785, -9.6105, -0.0051, 0.0083, -0.0032, 0.0890, 0.0689, -0.5208, 0.0301, -0.0108, -0.1128, 491, 115292, 0.0000, 0.0000, -0.7620, 0.0000
7.3260, -0.1177, -0.0785, -9.6105, -0.0051, 0.0083, -0.0032, 0.0901, 0.0688, -0.5248, 0.0305, -0.0109, -0.1136, 492, 115292, 0.0000, 0.0000, -0.7687, 0.0000
7.3460, -0.1177, -0.0785, -9.6105, -0.0051, 0.0083, -0.0032, 0.0910, 0.0686, -0.5289, 0.0308, -0.0110, -0.1130, 493, 115292, 0.0000, 0.0000, -0.7753, 0.0000
7.3660, -0.1177, -0.0785, -9.6105, -0.0051, 0.0083, -0.0032, 0.0922, 0.0686, -0.5331, 0.0309, -0.0105, -0.1126, 494, 115292, 0.0000, 0.0000, -0.7820, 0.0000
7.3860, -0.1177, -0.0785, -9.6105, -0.0051, 0.0083, -0.0032, 0.0930, 0.0684, -0.5373, 0.0312, -0.0098, -0.1127, 495, 115292, 0.0000, 0.0000, -0.7887, 0.0000
7.4060, -0.1177, -0.0785, -9.6105, -0.0051, 0.0083, -0.0032, 0.0941, 0.0683, -0.5416, 0.0313, -0.0090, -0.1118, 496, 115292, 0.0000, 0.0000, -0.7953, 0.0000
7.4260, -0.1177, -0.0785, -9.6105, -0.0051, 0.0083, -0.0032, 0.0951, 0.0681, -0.5459, 0.0317, -0.0091, -0.1125, 497, 115292, 0.0000, 0.0000, -0.8020, 0.0000
7.4460, -0.1177, -0.0785, -9.6105, -0.0051, 0.0083, -0.0032, 0.0960, 0.0682, -0.5502, 0.0318, -0.0081, -0.1122, 498, 115292, 0.0000, 0.0000, -0.8087, 0.0000
7.4660, -0.1177, -0.0785, -9.6105, -0.0051, 0.0083, -0.0032, 0.0972, 0.0680, -0.5547, 0.0316, -0.0085, -0.1117, 499, 115292, 0.0000, 0.0000, -0.8153, 0.0000
7.4860, -0.1177, -0.0785, -9.6105, -0.0051, 0.0083, -0.0032, 0.0981, 0.0680, -0.5591, 0.0317, -0.0085, -0.1119, 500, 115292, 0.0000, 0.0000, -0.8220, 0.0000
7.5060, -0.1177, -0.0785, -9.6105, -0.0051, 0.0083, -0.0032, 0.0991, 0.0680, -0.5637, 0.0322, -0.0074, -0.1113, 501, 115292, 0.0000, 0.0000, -0.8287, 0.0000
7.5260, -0.1177, -0.0785, -9.6105, -0.0051, 0.0083, -0.0032, 0.1001, 0.0679, -0.5682, 0.0323, -0.0072, -0.1109, 502, 115292, 0.0000, 0.0000, -0.8353, 0.0000
7.5460, -0.1177, -0.0785, -9.6105, -0.0051, 0.0083, -0.0032, 0.1010, 0.0680, -0.5728, 0.0323, -0.0069, -0.1108, 503, 115292, 0.0000, 0.0000, -0.8420, 0.0000
7.5660, -0.1177, -0.0785, -9.6105, -0.0051, 0.0083, -0.0032, 0.1020, 0.0680, -0.5775, 0.0326, -0.0070, -0.1111, 504, 115292, 0.0000, 0.0000, -0.8487, 0.0000
7.5860, -0.1177, -0.0785, -9.6105, -0.0051, 0.0083, -0.0032, 0.1028, 0.0679, -0.5820, 0.0327, -0.0065, -0.1104, 505, 115292, 0.0000, 0.0000, -0.8553, 0.0000
7.6060, -0.1177, -0.0785, -9.6105, -0.0051, 0.0083, -0.0032, 0.1038, 0.0680, -0.5868, 0.0331, -0.0062, -0.1115, 506, 115292, 0.0000, 0.0000, -0.8620, 0.0000
