time (s), accel_x (m/s^2), accel_y (m/s^2), accel_z (m/s^2), gyro_x (rad/s), gyro_y (rad/s), gyro_z (rad/s), x (m), y (m), z (m), yaw (rad), pitch (rad), roll (rad), mocap_counter, counter, desired x, desired y, desired z, desired yaw
0.0000, -0.2942, -0.0883, -9.6497, -0.0065, 0.0051, 0.0070, -0.0123, -0.0103, -0.0963, 0.0606, 0.1072, -0.0966, 303, 146608, 0.0000, 0.0000, 0.0000, 0.0000
0.0200, -0.2942, -0.0883, -9.6497, -0.0065, 0.0051, 0.0070, -0.0124, -0.0104, -0.0963, 0.0608, 0.1070, -0.0967, 304, 146608, 0.0000, 0.0000, 0.0000, 0.0000
0.0400, -0.2942, -0.0883, -9.6497, -0.0065, 0.0051, 0.0070, -0.0125, -0.0104, -0.0963, 0.0608, 0.1071, -0.0967, 305, 146608, 0.0000, 0.0000, 0.0000, 0.0000
0.0600, -0.2942, -0.0883, -9.6497, -0.0065, 0.0051, 0.0070, -0.0124, -0.0103, -0.0964, 0.0608, 0.1072, -0.0969, 306, 146608, 0.0000, 0.0000, 0.0000, 0.0000
0.0800, -0.2942, -0.0883, -9.6497, -0.0065, 0.0051, 0.0070, -0.0124, -0.0104, -0.0962, 0.0608, 0.1070, -0.0967, 307, 146608, 0.0000, 0.0000, 0.0000, 0.0000
0.1000, -0.2942, -0.0883, -9.6497, -0.0065, 0.0051, 0.0070, -0.0124, -0.0104, -0.0963, 0.0607, 0.1070, -0.0967, 308, 146608, 0.0000, 0.0000, 0.0000, 0.0000
0.1200, -0.2942, -0.0883, -9.6497, -0.0065, 0.0051, 0.0070, -0.0125, -0.0104, -0.0963, 0.0609, 0.1071, -0.0967, 309, 146608, 0.0000, 0.0000, 0.0000, 0.0000
0.1400, -0.2942, -0.0883, -9.6497, -0.0065, 0.0051, 0.0070, -0.0124, -0.0104, -0.0963, 0.0608, 0.1070, -0.0967, 310, 146608, 0.0000, 0.0000, 0.0000, 0.0000
0.1600, -0.2942, -0.0883, -9.6497, -0.0065, 0.0051, 0.0070, -0.0124, -0.0104, -0.0963, 0.0607, 0.1072, -0.0966, 311, 146608, 0.0000, 0.0000, 0.0000, 0.0000
0.1800, -0.2942, -0.0883, -9.6497, -0.0065, 0.0051, 0.0070, -0.0125, -0.0104, -0.0963, 0.0609, 0.1072, -0.0967, 312, 146608, 0.0000, 0.0000, 0.0000, 0.0000
0.2000, -0.2942, -0.0883, -9.6497, -0.0065, 0.0051, 0.0070, -0.0123, -0.0103, -0.0964, 0.0606, 0.1072, -0.0963, 313, 146608, 0.0000, 0.0000, 0.0000, 0.0000
0.2200, -0.2942, -0.0883, -9.6497, -0.0065, 0.0051, 0.0070, -0.0125, -0.0104, -0.0962, 0.0608, 0.1070, -0.0966, 314, 146608, 0.0000, 0.0000, 0.0000, 0.0000
0.2400, -0.2942, -0.0883, -9.6497, -0.0065, 0.0051, 0.0070, -0.0124, -0.0104, -0.0963, 0.0608, 0.1070, -0.0965, 315, 146608, 0.0000, 0.0000, 0.0000, 0.0000
0.2600, -0.2942, -0.0883, -9.6497, -0.0065, 0.0051, 0.0070, -0.0125, -0.0104, -0.0963, 0.0608, 0.1070, -0.0968, 316, 146608, 0.0000, 0.0000, 0.0000, 0.0000
0.2800, -0.2942, -0.0883, -9.6497, -0.0065, 0.0051, 0.0070, -0.0125, -0.0103, -0.0963, 0.0607, 0.1070, -0.0966, 317, 146608, 0.0000, 0.0000, 0.0000, 0.0000
0.3000, -0.2942, -0.0883, -9.6497, -0.0065, 0.0051, 0.0070, -0.0124, -0.0104, -0.0963, 0.0606, 0.1069, -0.0965, 318, 146608, 0.0000, 0.0000, 0.0000, 0.0000
0.3200, -0.2942, -0.0883, -9.6497, -0.0065, 0.0051, 0.0070, -0.0125, -0.0104, -0.0963, 0.0608, 0.1071, -0.0968, 319, 146608, 0.0000, 0.0000, 0.0000, 0.0000
0.3400, -0.2942, -0.0883, -9.6497, -0.0065, 0.0051, 0.0070, -0.0124, -0.0104, -0.0964, 0.0608, 0.1069, -0.0965, 320, 146608, 0.0000, 0.0000, 0.0000, 0.0000
0.3600, -0.2942, -0.0883, -9.6497, -0.0065, 0.0051, 0.0070, -0.0125, -0.0103, -0.0962, 0.0607, 0.1070, -0.0966, 321, 146608, 0.0000, 0.0000, 0.0000, 0.0000
0.3800, -0.2942, -0.0883, -9.6497, -0.0065, 0.0051, 0.0070, -0.0125, -0.0103, -0.0963, 0.0607, 0.1070, -0.0965, 322, 146608, 0.0000, 0.0000, 0.0000, 0.0000
0.4000, -0.2942, -0.0883, -9.6497, -0.0065, 0.0051, 0.0070, -0.0124, -0.0104, -0.0963, 0.0607, 0.1068, -0.0962, 323, 146608, 0.0000, 0.0000, 0.0000, 0.0000
0.4200, -0.2942, -0.0883, -9.6497, -0.0065, 0.0051, 0.0070, -0.0125, -0.0103, -0.0963, 0.0608, 0.1071, -0.0967, 324, 146608, 0.0000, 0.0000, 0.0000, 0.0000
0.4400, -0.2942, -0.0883, -9.6497, -0.0065, 0.0051, 0.0070, -0.0125, -0.0103, -0.0964, 0.0607, 0.1070, -0.0967, 325, 146608, 0.0000, 0.0000, 0.0000, 0.0000
0.4600, -0.2942, -0.0883, -9.6497, -0.0065, 0.0051, 0.0070, -0.0125, -0.0104, -0.0962, 0.0607, 0.1069, -0.0965, 326, 146608, 0.0000, 0.0000, 0.0000, 0.0000
0.4800, -0.2942, -0.0883, -9.6497, -0.0065, 0.0051, 0.0070, -0.0125, -0.0104, -0.0963, 0.0607, 0.1070, -0.0966, 327, 146608, 0.0000, 0.0000, 0.0000, 0.0000
0.5000, -0.2942, -0.0883, -9.6497, -0.0065, 0.0051, 0.0070, -0.0125, -0.0104, -0.0963, 0.0607, 0.1071, -0.0968, 328, 146608, 0.0000, 0.0000, 0.0000, 0.0000
0.5200, -0.2942, -0.0883, -9.6497, -0.0065, 0.0051, 0.0070, -0.0125, -0.0103, -0.0963, 0.0607, 0.1069, -0.0966, 329, 146608, 0.0000, 0.0000, 0.0000, 0.0000
0.5400, -0.2942, -0.0883, -9.6497, -0.0065, 0.0051, 0.0070, -0.0125, -0.0104, -0.0963, 0.0608, 0.1069, -0.0965, 330, 146608, 0.0000, 0.0000, 0.0000, 0.0000
0.5600, -0.2942, -0.0883, -9.6497, -0.0065, 0.0051, 0.0070, -0.0125, -0.0104, -0.0962, 0.0607, 0.1071, -0.0966, 331, 146608, 0.0000, 0.0000, 0.0000, 0.0000
0.5800, -0.2942, -0.0883, -9.6497, -0.0065, 0.0051, 0.0070, -0.0124, -0.0103, -0.0963, 0.0608, 0.1070, -0.0964, 332, 146608, 0.0000, 0.0000, 0.0000, 0.0000
0.6000, -0.2942, -0.0883, -9.6497, -0.0065, 0.0051, 0.0070, -0.0125, -0.0104, -0.0962, 0.0608, 0.1069, -0.0963, 333, 146608, 0.0000, 0.0000, 0.0000, 0.0000
0.6200, -0.2942, -0.0883, -9.6497, -0.0065, 0.0051, 0.0070, -0.0124, -0.0104, -0.0963, 0.0607, 0.1071, -0.0965, 334, 146608, 0.0000, 0.0000, 0.0000, 0.0000
0.6400, -0.2942, -0.0883, -9.6497, -0.0065, 0.0051, 0.0070, -0.0124, -0.0104, -0.0963, 0.0608, 0.1072, -0.0967, 335, 146608, 0.0000, 0.0000, 0.0000, 0.0000
0.6600, -0.2942, -0.0883, -9.6497, -0.0065, 0.0051, 0.0070, -0.0125, -0.0103, -0.0962, 0.0608, 0.1069, -0.0964, 336, 146608, 0.0000, 0.0000, 0.0000, 0.0000
0.6800, -0.2942, -0.0883, -9.6497, -0.0065, 0.0051, 0.0070, -0.0124, -0.0104, -0.0964, 0.0607, 0.1071, -0.0965, 337, 146608, 0.0000, 0.0000, 0.0000, 0.0000
0.7000, -0.2942, -0.0883, -9.6497, -0.0065, 0.0051, 0.0070, -0.0125, -0.0104, -0.0962, 0.0607, 0.1071, -0.0966, 338, 146608, 0.0000, 0.0000, 0.0000, 0.0000
0.7200, -0.2942, -0.0883, -9.6497, -0.0065, 0.0051, 0.0070, -0.0124, -0.0104, -0.0963, 0.0607, 0.1071, -0.0964, 339, 146608, 0.0000, 0.0000, 0.0000, 0.0000
0.7400, -0.2942, -0.0883, -9.6497, -0.0065, 0.0051, 0.0070, -0.0125, -0.0103, -0.0963, 0.0608, 0.1071, -0.0966, 340, 146608, 0.0000, 0.0000, 0.0000, 0.0000
0.7600, -0.2942, -0.0883, -9.6497, -0.0065, 0.0051, 0.0070, -0.0124, -0.0104, -0.0963, 0.0608, 0.1071, -0.0966, 341, 146608, 0.0000, 0.0000, 0.0000, 0.0000
0.7800, -0.2942, -0.0883, -9.6497, -0.0065, 0.0051, 0.0070, -0.0124, -0.0104, -0.0963, 0.0607, 0.1070, -0.0965, 342, 146608, 0.0000, 0.0000, 0.0000, 0.0000
0.8000, -0.2942, -0.0883, -9.6497, -0.0065, 0.0051, 0.0070, -0.0125, -0.0103, -0.0963, 0.0608, 0.1071, -0.0965, 343, 146608, 0.0000, 0.0000, 0.0000, 0.0000
0.8200, -0.2942, -0.0883, -9.6497, -0.0065, 0.0051, 0.0070, -0.0124, -0.0104, -0.0963, 0.0608, 0.1070, -0.0963, 344, 146608, 0.0000, 0.0000, 0.0000, 0.0000
0.8400, -0.2942, -0.0883, -9.6497, -0.0065, 0.0051, 0.0070, -0.0125, -0.0103, -0.0963, 0.0608, 0.1071, -0.0965, 345, 146608, 0.0000, 0.0000, 0.0000, 0.0000
0.8600, -0.2942, -0.0883, -9.6497, -0.0065, 0.0051, 0.0070, -0.0124, -0.0104, -0.0963, 0.0607, 0.1069, -0.0962, 346, 146608, 0.0000, 0.0000, 0.0000, 0.0000
0.8800, -0.2942, -0.0883, -9.6497, -0.0065, 0.0051, 0.0070, -0.0125, -0.0104, -0.0963, 0.0608, 0.1070, -0.0964, 347, 146608, 0.0000, 0.0000, 0.0000, 0.0000
0.9000, -0.2942, -0.0883, -9.6497, -0.0065, 0.0051, 0.0070, -0.0125, -0.0103, -0.0963, 0.0607, 0.1071, -0.0965, 348, 146608, 0.0000, 0.0000, 0.0000, 0.0000
0.9200, -0.2942, -0.0883, -9.6497, -0.0065, 0.0051, 0.0070, -0.0124, -0.0104, -0.0963, 0.0607, 0.1069, -0.0962, 349, 146608, 0.0000, 0.0000, 0.0000, 0.0000
0.9400, -0.2942, -0.0883, -9.6497, -0.0065, 0.0051, 0.0070, -0.0125, -0.0104, -0.0962, 0.0608, 0.1070, -0.0966, 350, 146608, 0.0000, 0.0000, 0.0000, 0.0000
0.9600, -0.2942, -0.0883, -9.6497, -0.0065, 0.0051, 0.0070, -0.0124, -0.0104, -0.0963, 0.0607, 0.1070, -0.0964, 351, 146608, 0.0000, 0.0000, 0.0000, 0.0000
0.9800, -0.2942, -0.0883, -9.6497, -0.0065, 0.0051, 0.0070, -0.0125, -0.0104, -0.0963, 0.0607, 0.1069, -0.0965, 352, 146608, 0.0000, 0.0000, 0.0000, 0.0000
1.0000, -0.2942, -0.0883, -9.6497, -0.0065, 0.0051, 0.0070, -0.0125, -0.0104, -0.0963, 0.0608, 0.1071, -0.0966, 353, 146608, 0.0000, 0.0000, 0.0000, 0.0000
1.0200, -0.2942, -0.0883, -9.6497, -0.0065, 0.0051, 0.0070, -0.0124, -0.0104, -0.0963, 0.0608, 0.1069, -0.0964, 354, 146608, 0.0000, 0.0000, 0.0000, 0.0000
1.0400, -0.2942, -0.0883, -9.6497, -0.0065, 0.0051, 0.0070, -0.0125, -0.0103, -0.0963, 0.0608, 0.1071, -0.0966, 355, 146608, 0.0000, 0.0000, 0.0000, 0.0000
1.0600, -0.2942, -0.0883, -9.6497, -0.0065, 0.0051, 0.0070, -0.0124, -0.0104, -0.0963, 0.0607, 0.1069, -0.0963, 356, 146608, 0.0000, 0.0000, 0.0000, 0.0000
1.0800, -0.2942, -0.0883, -9.6497, -0.0065, 0.0051, 0.0070, -0.0125, -0.0104, -0.0963, 0.0607, 0.1070, -0.0965, 357, 146608, 0.0000, 0.0000, 0.0000, 0.0000
1.1000, -0.2942, -0.0883, -9.6497, -0.0065, 0.0051, 0.0070, -0.0125, -0.0103, -0.0964, 0.0608, 0.1071, -0.0965, 358, 146608, 0.0000, 0.0000, 0.0000, 0.0000
1.1200, -0.2942, -0.0883, -9.6497, -0.0065, 0.0051, 0.0070, -0.0124, -0.0104, -0.0963, 0.0607, 0.1070, -0.0965, 359, 146608, 0.0000, 0.0000, 0.0000, 0.0000
1.1400, -0.2942, -0.0883, -9.6497, -0.0065, 0.0051, 0.0070, -0.0125, -0.0104, -0.0963, 0.0608, 0.1071, -0.0966, 360, 146608, 0.0000, 0.0000, 0.0000, 0.0000
1.1600, -0.2942, -0.0883, -9.6497, -0.0065, 0.0051, 0.0070, -0.0124, -0.0104, -0.0963, 0.0608, 0.1070, -0.0965, 361, 146608, 0.0000, 0.0000, 0.0000, 0.0000
1.1800, -0.2942, -0.0883, -9.6497, -0.0065, 0.0051, 0.0070, -0.0125, -0.0104, -0.0962, 0.0608, 0.1070, -0.0966, 362, 146608, 0.0000, 0.0000, 0.0000, 0.0000
1.2000, -0.2942, -0.0883, -9.6497, -0.0065, 0.0051, 0.0070, -0.0124, -0.0104, -0.0963, 0.0608, 0.1071, -0.0965, 363, 146608, 0.0000, 0.0000, 0.0000, 0.0000
1.2200, -0.2942, -0.0883, -9.6497, -0.0065, 0.0051, 0.0070, -0.0124, -0.0104, -0.0963, 0.0603, 0.1068, -0.0964, 364, 146608, 0.0000, 0.0000, 0.0000, 0.0000
1.2400, -0.2942, -0.0883, -9.6497, -0.0065, 0.0051, 0.0070, -0.0124, -0.0104, -0.0962, 0.0606, 0.1070, -0.0962, 365, 146608, 0.0000, 0.0000, 0.0000, 0.0000
1.2630, -0.2942, -0.0883, -9.6497, -0.0065, 0.0051, 0.0070, -0.0124, -0.0104, -0.0964, 0.0621, 0.1072, -0.0968, 366, 146608, 0.0000, 0.0000, 0.0000, 0.0000
1.2830, -0.2942, -0.0883, -9.6497, -0.0065, 0.0051, 0.0070, -0.0126, -0.0104, -0.0963, 0.0619, 0.1072, -0.0967, 367, 146608, 0.0000, 0.0000, 0.0000, 0.0000
1.3030, -0.2942, -0.0883, -9.6497, -0.0065, 0.0051, 0.0070, -0.0125, -0.0106, -0.0964, 0.0612, 0.1075, -0.0957, 368, 146608, 0.0000, 0.0000, 0.0000, 0.0000
1.3230, -0.2942, -0.0883, -9.6497, -0.0065, 0.0051, 0.0070, -0.0124, -0.0104, -0.0962, 0.0613, 0.1069, -0.0971, 369, 146608, 0.0000, 0.0000, 0.0000, 0.0000
1.3370, -0.2942, -0.0883, -9.6497, -0.0065, 0.0051, 0.0070, -0.0125, -0.0104, -0.0965, 0.0613, 0.1069, -0.0963, 370, 146608, 0.0000, 0.0000, 0.0000, 0.0000
1.3660, -0.2942, -0.0883, -9.6497, -0.0065, 0.0051, 0.0070, -0.0125, -0.0104, -0.0964, 0.0616, 0.1071, -0.0966, 371, 146608, 0.0000, 0.0000, 0.0000, 0.0000
1.3760, -0.2942, -0.0883, -9.6497, -0.0065, 0.0051, 0.0070, -0.0125, -0.0105, -0.0964, 0.0619, 0.1068, -0.0966, 372, 146608, 0.0000, 0.0000, 0.0000, 0.0000
1.3960, -0.2942, -0.0883, -9.6497, -0.0065, 0.0051, 0.0070, -0.0125, -0.0103, -0.0965, 0.0617, 0.1070, -0.0966, 373, 146608, 0.0000, 0.0000, 0.0000, 0.0000
1.4160, -0.2942, -0.0883, -9.6497, -0.0065, 0.0051, 0.0070, -0.0124, -0.0104, -0.0963, 0.0616, 0.1066, -0.0971, 374, 146608, 0.0000, 0.0000, 0.0000, 0.0000
1.4360, -0.2942, -0.0883, -9.6497, -0.0065, 0.0051, 0.0070, -0.0123, -0.0104, -0.0964, 0.0617, 0.1069, -0.0962, 375, 146608, 0.0000, 0.0000, 0.0000, 0.0000
1.4560, -0.2942, -0.0883, -9.6497, -0.0065, 0.0051, 0.0070, -0.0125, -0.0105, -0.0965, 0.0618, 0.1070, -0.0965, 376, 146608, 0.0000, 0.0000, 0.0000, 0.0000
1.4760, -0.2942, -0.0883, -9.6497, -0.0065, 0.0051, 0.0070, -0.0124, -0.0105, -0.0964, 0.0617, 0.1072, -0.0962, 377, 146608, 0.0000, 0.0000, 0.0000, 0.0000
1.4960, -0.2942, -0.0883, -9.6497, -0.0065, 0.0051, 0.0070, -0.0124, -0.0105, -0.0965, 0.0616, 0.1070, -0.0962, 378, 146608, 0.0000, 0.0000, 0.0000, 0.0000
1.5160, -0.2942, -0.0883, -9.6497, -0.0065, 0.0051, 0.0070, -0.0125, -0.0105, -0.0965, 0.0617, 0.1070, -0.0962, 379, 146608, 0.0000, 0.0000, 0.0000, 0.0000
1.5360, -0.2942, -0.0883, -9.6497, -0.0065, 0.0051, 0.0070, -0.0124, -0.0105, -0.0965, 0.0618, 0.1069, -0.0961, 380, 146608, 0.0000, 0.0000, 0.0000, 0.0000
1.5560, -0.2942, -0.0883, -9.6497, -0.0065, 0.0051, 0.0070, -0.0125, -0.0105, -0.0965, 0.0622, 0.1069, -0.0964, 381, 146608, 0.0000, 0.0000, 0.0000, 0.0000
1.5760, -0.2942, -0.0883, -9.6497, -0.0065, 0.0051, 0.0070, -0.0124, -0.0104, -0.0965, 0.0620, 0.1068, -0.0967, 382, 146608, 0.0000, 0.0000, 0.0000, 0.0000
1.5960, -0.2942, -0.0883, -9.6497, -0.0065, 0.0051, 0.0070, -0.0125, -0.0105, -0.0964, 0.0618, 0.1068, -0.0964, 383, 146608, 0.0000, 0.0000, 0.0000, 0.0000
1.6160, -0.2942, -0.0883, -9.6497, -0.0065, 0.0051, 0.0070, -0.0124, -0.0104, -0.0964, 0.0617, 0.1069, -0.0967, 384, 146608, 0.0000, 0.0000, 0.0000, 0.0000
1.6360, -0.2942, -0.0883, -9.6497, -0.0065, 0.0051, 0.0070, -0.0124, -0.0105, -0.0965, 0.0621, 0.1070, -0.0959, 385, 146608, 0.0000, 0.0000, 0.0000, 0.0000
1.6560, -0.2942, -0.0883, -9.6497, -0.0065, 0.0051, 0.0070, -0.0125, -0.0104, -0.0964, 0.0617, 0.1072, -0.0964, 386, 146608, 0.0000, 0.0000, 0.0000, 0.0000
1.6760, -0.2942, -0.0883, -9.6497, -0.0065, 0.0051, 0.0070, -0.0125, -0.0105, -0.0965, 0.0617, 0.1071, -0.0964, 387, 146608, 0.0000, 0.0000, 0.0000, 0.0000
1.6960, -0.2942, -0.0883, -9.6497, -0.0065, 0.0051, 0.0070, -0.0125, -0.0103, -0.0964, 0.0614, 0.1070, -0.0966, 388, 146608, 0.0000, 0.0000, 0.0000, 0.0000
1.7160, -0.2942, -0.0883, -9.6497, -0.0065, 0.0051, 0.0070, -0.0126, -0.0105, -0.0965, 0.0618, 0.1070, -0.0964, 389, 146608, 0.0000, 0.0000, 0.0000, 0.0000
1.7360, -0.2942, -0.0883, -9.6497, -0.0065, 0.0051, 0.0070, -0.0124, -0.0103, -0.0964, 0.0615, 0.1069, -0.0964, 390, 146608, 0.0000, 0.0000, 0.0000, 0.0000
1.7560, -0.2942, -0.0883, -9.6497, -0.0065, 0.0051, 0.0070, -0.0125, -0.0104, -0.0964, 0.0617, 0.1068, -0.0966, 391, 146608, 0.0000, 0.0000, 0.0000, 0.0000
1.7860, -0.2942, -0.0883, -9.6497, -0.0065, 0.0051, 0.0070, -0.0124, -0.0103, -0.0964, 0.0615, 0.1068, -0.0963, 392, 146608, 0.0000, 0.0000, 0.0000, 0.0000
1.7960, -0.2942, -0.0883, -9.6497, -0.0065, 0.0051, 0.0070, -0.0125, -0.0105, -0.0963, 0.0618, 0.1067, -0.0970, 393, 146608, 0.0000, 0.0000, 0.0000, 0.0000
1.8160, -0.2942, -0.0883, -9.6497, -0.0065, 0.0051, 0.0070, -0.0124, -0.0104, -0.0965, 0.0619, 0.1073, -0.0964, 394, 146608, 0.0000, 0.0000, 0.0000, 0.0000
1.8360, -0.2942, -0.0883, -9.6497, -0.0065, 0.0051, 0.0070, -0.0125, -0.0105, -0.0964, 0.0617, 0.1068, -0.0965, 395, 146608, 0.0000, 0.0000, 0.0000, 0.0000
1.8560, -0.2942, -0.0883, -9.6497, -0.0065, 0.0051, 0.0070, -0.0125, -0.0103, -0.0964, 0.0616, 0.1071, -0.0963, 396, 146608, 0.0000, 0.0000, 0.0000, 0.0000
1.8860, -0.2942, -0.0883, -9.6497, -0.0065, 0.0051, 0.0070, -0.0125, -0.0104, -0.0964, 0.0617, 0.1068, -0.0960, 397, 146608, 0.0000, 0.0000, 0.0000, 0.0000
1.8960, -0.2942, -0.0883, -9.6497, -0.0065, 0.0051, 0.0070, -0.0125, -0.0104, -0.0964, 0.0618, 0.1069, -0.0965, 398, 146608, 0.0000, 0.0000, 0.0000, 0.0000
1.9160, -0.2942, -0.0883, -9.6497, -0.0065, 0.0051, 0.0070, -0.0124, -0.0104, -0.0964, 0.0620, 0.1070, -0.0971, 399, 146608, 0.0000, 0.0000, 0.0000, 0.0000
1.9360, -0.2942, -0.0883, -9.6497, -0.0065, 0.0051, 0.0070, -0.0125, -0.0104, -0.0964, 0.0617, 0.1070, -0.0963, 400, 146608, 0.0000, 0.0000, 0.0000, 0.0000
1.9560, -0.2942, -0.0883, -9.6497, -0.0065, 0.0051, 0.0070, -0.0125, -0.0104, -0.0965, 0.0614, 0.1071, -0.0965, 401, 146608, 0.0000, 0.0000, 0.0000, 0.0000
1.9760, -0.2942, -0.0883, -9.6497, -0.0065, 0.0051, 0.0070, -0.0125, -0.0104, -0.0964, 0.0615, 0.1070, -0.0965, 402, 146608, 0.0000, 0.0000, 0.0000, 0.0000
1.9980, -0.2942, -0.0883, -9.6497, -0.0065, 0.0051, 0.0070, -0.0125, -0.0104, -0.0964, 0.0616, 0.1069, -0.0967, 403, 146608, 0.0000, 0.0000, 0.0000, 0.0000
2.0180, -0.2942, -0.0883, -9.6497, -0.0065, 0.0051, 0.0070, -0.0124, -0.0104, -0.0964, 0.0618, 0.1072, -0.0970, 404, 146608, 0.0000, 0.0000, 0.0000, 0.0000
2.0370, -0.2942, -0.0883, -9.6497, -0.0065, 0.0051, 0.0070, -0.0125, -0.0104, -0.0964, 0.0615, 0.1071, -0.0967, 405, 146608, 0.0000, 0.0000, 0.0000, 0.0000
2.0570, -0.2942, -0.0883, -9.6497, -0.0065, 0.0051, 0.0070, -0.0124, -0.0104, -0.0965, 0.0614, 0.1071, -0.0962, 406, 146608, 0.0000, 0.0000, 0.0000, 0.0000
2.0780, -0.2942, -0.0883, -9.6497, -0.0065, 0.0051, 0.0070, -0.0125, -0.0104, -0.0964, 0.0618, 0.1069, -0.0968, 407, 146608, 0.0000, 0.0000, 0.0000, 0.0000
2.0980, -0.2942, -0.0883, -9.6497, -0.0065, 0.0051, 0.0070, -0.0125, -0.0103, -0.0964, 0.0616, 0.1071, -0.0970, 408, 146608, 0.0000, 0.0000, 0.0000, 0.0000
2.1180, -0.2942, -0.0883, -9.6497, -0.0065, 0.0051, 0.0070, -0.0125, -0.0104, -0.0965, 0.0617, 0.1074, -0.0964, 409, 146608, 0.0000, 0.0000, 0.0000, 0.0000
2.1380, -0.2942, -0.0883, -9.6497, -0.0065, 0.0051, 0.0070, -0.0125, -0.0104, -0.0964, 0.0616, 0.1072, -0.0967, 410, 146608, 0.0000, 0.0000, 0.0000, 0.0000
2.1580, -0.2942, -0.0883, -9.6497, -0.0065, 0.0051, 0.0070, -0.0124, -0.0104, -0.0965, 0.0615, 0.1069, -0.0963, 411, 146608, 0.0000, 0.0000, 0.0000, 0.0000
2.1780, -0.2942, -0.0883, -9.6497, -0.0065, 0.0051, 0.0070, -0.0125, -0.0104, -0.0964, 0.0617, 0.1073, -0.0971, 412, 146608, 0.0000, 0.0000, 0.0000, 0.0000
2.1980, -0.2942, -0.0883, -9.6497, -0.0065, 0.0051, 0.0070, -0.0124, -0.0104, -0.0965, 0.0615, 0.1069, -0.0963, 413, 146608, 0.0000, 0.0000, 0.0000, 0.0000
2.2180, -0.2942, -0.0883, -9.6497, -0.0065, 0.0051, 0.0070, -0.0125, -0.0104, -0.0964, 0.0617, 0.1073, -0.0965, 414, 146608, 0.0000, 0.0000, 0.0000, 0.0000
2.2380, -0.2942, -0.0883, -9.6497, -0.0065, 0.0051, 0.0070, -0.0125, -0.0104, -0.0964, 0.0617, 0.1071, -0.0968, 415, 146608, 0.0000, 0.0000, 0.0000, 0.0000
2.2580, -0.2942, -0.0883, -9.6497, -0.0065, 0.0051, 0.0070, -0.0124, -0.0104, -0.0965, 0.0617, 0.1069, -0.0968, 416, 146608, 0.0000, 0.0000, 0.0000, 0.0000
2.2780, -0.2942, -0.0883, -9.6497, -0.0065, 0.0051, 0.0070, -0.0125, -0.0105, -0.0964, 0.0616, 0.1074, -0.0962, 417, 146608, 0.0000, 0.0000, 0.0000, 0.0000
2.2980, -0.2942, -0.0883, -9.6497, -0.0065, 0.0051, 0.0070, -0.0124, -0.0103, -0.0966, 0.0615, 0.1071, -0.0965, 418, 146608, 0.0000, 0.0000, 0.0000, 0.0000
2.3180, -0.2942, -0.0883, -9.6497, -0.0065, 0.0051, 0.0070, -0.0124, -0.0104, -0.0966, 0.0617, 0.1066, -0.0971, 419, 146608, 0.0000, 0.0000, 0.0000, 0.0000
2.3380, -0.2942, -0.0883, -9.6497, -0.0065, 0.0051, 0.0070, -0.0124, -0.0102, -0.0969, 0.0615, 0.1068, -0.0965, 420, 146608, 0.0000, 0.0000, 0.0000, 0.0000
2.3580, -0.2942, -0.0883, -9.6497, -0.0065, 0.0051, 0.0070, -0.0124, -0.0103, -0.0971, 0.0618, 0.1064, -0.0963, 421, 146608, 0.0000, 0.0000, 0.0000, 0.0000
2.3780, -0.2942, -0.0883, -9.6497, -0.0065, 0.0051, 0.0070, -0.0124, -0.0102, -0.0975, 0.0618, 0.1063, -0.0959, 422, 146608, 0.0000, 0.0000, 0.0000, 0.0000
2.3980, -0.2942, -0.0883, -9.6497, -0.0065, 0.0051, 0.0070, -0.0124, -0.0101, -0.0981, 0.0612, 0.1075, -0.0950, 423, 146608, 0.0000, 0.0000, 0.0000, 0.0000
2.4180, -0.0981, -0.0392, -9.7282, 0.0430, 0.2234, 0.0317, -0.0125, -0.0098, -0.0988, 0.0602, 0.1091, -0.0948, 424, 152363, 0.0000, 0.0000, 0.0000, 0.0000
2.4380, -0.0981, -0.0392, -9.7282, 0.0430, 0.2234, 0.0317, -0.0126, -0.0095, -0.1001, 0.0600, 0.1110, -0.0959, 425, 152363, 0.0000, 0.0000, 0.0000, 0.0000
2.4580, -0.0981, -0.0392, -9.7282, 0.0430, 0.2234, 0.0317, -0.0124, -0.0088, -0.1017, 0.0588, 0.1110, -0.0967, 426, 152363, 0.0000, 0.0000, 0.0000, 0.0000
2.4780, -0.0981, -0.0392, -9.7282, 0.0430, 0.2234, 0.0317, -0.0123, -0.0081, -0.1035, 0.0579, 0.1115, -0.0962, 427, 152363, 0.0000, 0.0000, 0.0000, 0.0000
2.4980, -0.0981, -0.0392, -9.7282, 0.0430, 0.2234, 0.0317, -0.0121, -0.0073, -0.1060, 0.0568, 0.1127, -0.0958, 428, 152363, 0.0000, 0.0000, 0.0000, 0.0000
2.5180, -0.0981, -0.0392, -9.7282, 0.0430, 0.2234, 0.0317, -0.0116, -0.0065, -0.1089, 0.0553, 0.1123, -0.0945, 429, 152363, 0.0000, 0.0000, 0.0000, 0.0000
2.5380, -0.0981, -0.0392, -9.7282, 0.0430, 0.2234, 0.0317, -0.0111, -0.0054, -0.1122, 0.0544, 0.1125, -0.0953, 430, 152363, 0.0000, 0.0000, 0.0000, 0.0000
2.5580, -0.0981, -0.0392, -9.7282, 0.0430, 0.2234, 0.0317, -0.0108, -0.0044, -0.1158, 0.0525, 0.1130, -0.0954, 431, 152363, 0.0000, 0.0000, 0.0000, 0.0000
2.5780, -0.0981, -0.0392, -9.7282, 0.0430, 0.2234, 0.0317, -0.0105, -0.0033, -0.1197, 0.0512, 0.1142, -0.0958, 432, 152363, 0.0000, 0.0000, 0.0000, 0.0000
2.5980, -0.0981, -0.0392, -9.7282, 0.0430, 0.2234, 0.0317, -0.0100, -0.0020, -0.1238, 0.0499, 0.1147, -0.0966, 433, 152363, 0.0000, 0.0000, 0.0000, 0.0000
2.6180, -0.0981, -0.0392, -9.7282, 0.0430, 0.2234, 0.0317, -0.0094, -0.0007, -0.1279, 0.0486, 0.1155, -0.0983, 434, 152363, 0.0000, 0.0000, 0.0000, 0.0000
2.6380, -0.0981, -0.0392, -9.7282, 0.0430, 0.2234, 0.0317, -0.0090, 0.0007, -0.1323, 0.0474, 0.1173, -0.1000, 435, 152363, 0.0000, 0.0000, 0.0000, 0.0000
2.6570, -0.0981, -0.0392, -9.7282, 0.0430, 0.2234, 0.0317, -0.0085, 0.0022, -0.1365, 0.0462, 0.1186, -0.1029, 436, 152363, 0.0000, 0.0000, 0.0000, 0.0000
2.6780, -0.0981, -0.0392, -9.7282, 0.0430, 0.2234, 0.0317, -0.0078, 0.0037, -0.1409, 0.0452, 0.1195, -0.1048, 437, 152363, 0.0000, 0.0000, 0.0000, 0.0000
2.6980, -0.0981, -0.0392, -9.7282, 0.0430, 0.2234, 0.0317, -0.0071, 0.0053, -0.1452, 0.0439, 0.1214, -0.1068, 438, 152363, 0.0000, 0.0000, 0.0000, 0.0000
2.7170, -0.0981, -0.0392, -9.7282, 0.0430, 0.2234, 0.0317, -0.0065, 0.0070, -0.1494, 0.0427, 0.1221, -0.1086, 439, 152363, 0.0000, 0.0000, 0.0000, 0.0000
2.7380, -0.0981, -0.0392, -9.7282, 0.0430, 0.2234, 0.0317, -0.0058, 0.0086, -0.1537, 0.0417, 0.1233, -0.1108, 440, 152363, 0.0000, 0.0000, 0.0000, 0.0000
2.7580, -0.0981, -0.0392, -9.7282, 0.0430, 0.2234, 0.0317, -0.0052, 0.0105, -0.1579, 0.0407, 0.1241, -0.1132, 441, 152363, 0.0000, 0.0000, 0.0000, 0.0000
2.7780, -0.0981, -0.0392, -9.7282, 0.0430, 0.2234, 0.0317, -0.0043, 0.0123, -0.1620, 0.0391, 0.1239, -0.1148, 442, 152363, 0.0000, 0.0000, 0.0000, 0.0000
2.7980, -0.0981, -0.0392, -9.7282, 0.0430, 0.2234, 0.0317, -0.0036, 0.0140, -0.1658, 0.0379, 0.1240, -0.1168, 443, 152363, 0.0000, 0.0000, 0.0000, 0.0000
2.8180, -0.0981, -0.0392, -9.7282, 0.0430, 0.2234, 0.0317, -0.0028, 0.0160, -0.1697, 0.0364, 0.1233, -0.1185, 444, 152363, 0.0000, 0.0000, 0.0000, 0.0000
2.8380, -0.0981, -0.0392, -9.7282, 0.0430, 0.2234, 0.0317, -0.0019, 0.0178, -0.1734, 0.0351, 0.1236, -0.1196, 445, 152363, 0.0000, 0.0000, 0.0000, 0.0000
2.8580, -0.0981, -0.0392, -9.7282, 0.0430, 0.2234, 0.0317, -0.0013, 0.0197, -0.1767, 0.0335, 0.1241, -0.1204, 446, 152363, 0.0000, 0.0000, 0.0000, 0.0000
2.8780, -0.0981, -0.0392, -9.7282, 0.0430, 0.2234, 0.0317, -0.0005, 0.0215, -0.1801, 0.0325, 0.1254, -0.1212, 447, 152363, 0.0000, 0.0000, 0.0000, 0.0000
2.8980, -0.0981, -0.0392, -9.7282, 0.0430, 0.2234, 0.0317, 0.0001, 0.0235, -0.1833, 0.0311, 0.1261, -0.1223, 448, 152363, 0.0000, 0.0000, 0.0000, 0.0000
2.9180, -0.0981, -0.0392, -9.7282, 0.0430, 0.2234, 0.0317, 0.0009, 0.0254, -0.1862, 0.0298, 0.1268, -0.1234, 449, 152363, 0.0000, 0.0000, 0.0000, 0.0000
2.9380, -0.0981, -0.0392, -9.7282, 0.0430, 0.2234, 0.0317, 0.0015, 0.0273, -0.1889, 0.0283, 0.1271, -0.1238, 450, 152363, 0.0000, 0.0000, 0.0000, 0.0000
2.9570, -0.0981, -0.0392, -9.7282, 0.0430, 0.2234, 0.0317, 0.0021, 0.0293, -0.1914, 0.0273, 0.1279, -0.1247, 451, 152363, 0.0000, 0.0000, 0.0000, 0.0000
2.9780, -0.0981, -0.0392, -9.7282, 0.0430, 0.2234, 0.0317, 0.0028, 0.0311, -0.1938, 0.0260, 0.1278, -0.1256, 452, 152363, 0.0000, 0.0000, 0.0000, 0.0000
2.9980, -0.0981, -0.0392, -9.7282, 0.0430, 0.2234, 0.0317, 0.0035, 0.0330, -0.1957, 0.0248, 0.1277, -0.1260, 453, 152363, 0.0000, 0.0000, 0.0000, 0.0000
3.0180, -0.0981, -0.0392, -9.7282, 0.0430, 0.2234, 0.0317, 0.0042, 0.0349, -0.1977, 0.0234, 0.1274, -0.1279, 454, 152363, 0.0000, 0.0000, 0.0000, 0.0000
3.0380, -0.0981, -0.0392, -9.7282, 0.0430, 0.2234, 0.0317, 0.0048, 0.0365, -0.1993, 0.0226, 0.1276, -0.1300, 455, 152363, 0.0000, 0.0000, 0.0000, 0.0000
3.0580, -0.0981, -0.0392, -9.7282, 0.0430, 0.2234, 0.0317, 0.0055, 0.0382, -0.2009, 0.0214, 0.1275, -0.1311, 456, 152363, 0.0000, 0.0000, 0.0000, 0.0000
3.0780, -0.0981, -0.0392, -9.7282, 0.0430, 0.2234, 0.0317, 0.0060, 0.0400, -0.2023, 0.0206, 0.1275, -0.1328, 457, 152363, 0.0000, 0.0000, 0.0000, 0.0000
3.0980, -0.0981, -0.0392, -9.7282, 0.0430, 0.2234, 0.0317, 0.0067, 0.0417, -0.2035, 0.0192, 0.1272, -0.1340, 458, 152363, 0.0000, 0.0000, 0.0000, 0.0000
3.1180, -0.0981, -0.0392, -9.7282, 0.0430, 0.2234, 0.0317, 0.0073, 0.0432, -0.2048, 0.0187, 0.1277, -0.1357, 459, 152363, 0.0000, 0.0000, 0.0000, 0.0000
3.1380, -0.0981, -0.0392, -9.7282, 0.0430, 0.2234, 0.0317, 0.0078, 0.0448, -0.2058, 0.0178, 0.1280, -0.1362, 460, 152363, 0.0000, 0.0000, 0.0000, 0.0000
3.1580, -0.0981, -0.0392, -9.7282, 0.0430, 0.2234, 0.0317, 0.0084, 0.0463, -0.2068, 0.0172, 0.1281, -0.1366, 461, 152363, 0.0000, 0.0000, 0.0000, 0.0000
3.1780, -0.0981, -0.0392, -9.7282, 0.0430, 0.2234, 0.0317, 0.0089, 0.0477, -0.2077, 0.0168, 0.1280, -0.1373, 462, 152363, 0.0000, 0.0000, 0.0000, 0.0000
3.1980, -0.0981, -0.0392, -9.7282, 0.0430, 0.2234, 0.0317, 0.0095, 0.0492, -0.2086, 0.0162, 0.1296, -0.1370, 463, 152363, 0.0000, 0.0000, 0.0000, 0.0000
3.2180, -0.0981, -0.0392, -9.7282, 0.0430, 0.2234, 0.0317, 0.0098, 0.0506, -0.2094, 0.0154, 0.1299, -0.1365, 464, 152363, 0.0000, 0.0000, 0.0000, 0.0000
3.2380, -0.0981, -0.0392, -9.7282, 0.0430, 0.2234, 0.0317, 0.0101, 0.0518, -0.2102, 0.0149, 0.1299, -0.1361, 465, 152363, 0.0000, 0.0000, 0.0000, 0.0000
3.2580, -0.0981, -0.0392, -9.7282, 0.0430, 0.2234, 0.0317, 0.0106, 0.0532, -0.2110, 0.0144, 0.1303, -0.1359, 466, 152363, 0.0000, 0.0000, 0.0000, 0.0000
3.2780, -0.0981, -0.0392, -9.7282, 0.0430, 0.2234, 0.0317, 0.0110, 0.0543, -0.2116, 0.0135, 0.1296, -0.1360, 467, 152363, 0.0000, 0.0000, 0.0000, 0.0000
3.2980, -0.0981, -0.0392, -9.7282, 0.0430, 0.2234, 0.0317, 0.0114, 0.0554, -0.2122, 0.0128, 0.1294, -0.1360, 468, 152363, 0.0000, 0.0000, 0.0000, 0.0000
3.3180, -0.0981, -0.0392, -9.7282, 0.0430, 0.2234, 0.0317, 0.0117, 0.0564, -0.2128, 0.0127, 0.1299, -0.1363, 469, 152363, 0.0000, 0.0000, 0.0000, 0.0000
3.3380, -0.0981, -0.0392, -9.7282, 0.0430, 0.2234, 0.0317, 0.0121, 0.0574, -0.2134, 0.0124, 0.1304, -0.1360, 470, 152363, 0.0000, 0.0000, 0.0000, 0.0000
3.3580, -0.0981, -0.0392, -9.7282, 0.0430, 0.2234, 0.0317, 0.0125, 0.0582, -0.2140, 0.0118, 0.1304, -0.1355, 471, 152363, 0.0000, 0.0000, 0.0000, 0.0000
3.3780, -0.0981, -0.0392, -9.7282, 0.0430, 0.2234, 0.0317, 0.0126, 0.0591, -0.2148, 0.0112, 0.1295, -0.1356, 472, 152363, 0.0000, 0.0000, 0.0000, 0.0000
3.3980, -0.0981, -0.0392, -9.7282, 0.0430, 0.2234, 0.0317, 0.0129, 0.0600, -0.2157, 0.0107, 0.1288, -0.1353, 473, 152363, 0.0000, 0.0000, 0.0000, 0.0000
3.4180, -0.0981, -0.0392, -9.7282, 0.0430, 0.2234, 0.0317, 0.0132, 0.0608, -0.2165, 0.0100, 0.1274, -0.1351, 474, 152363, 0.0000, 0.0000, 0.0000, 0.0000
3.4380, -0.0981, -0.0392, -9.7282, 0.0430, 0.2234, 0.0317, 0.0133, 0.0616, -0.2174, 0.0095, 0.1268, -0.1348, 475, 152363, 0.0000, 0.0000, 0.0000, 0.0000
3.4580, -0.0981, -0.0392, -9.7282, 0.0430, 0.2234, 0.0317, 0.0136, 0.0622, -0.2184, 0.0092, 0.1259, -0.1346, 476, 152363, 0.0000, 0.0000, 0.0000, 0.0000
3.4780, -0.0981, -0.0392, -9.7282, 0.0430, 0.2234, 0.0317, 0.0137, 0.0629, -0.2191, 0.0092, 0.1253, -0.1349, 477, 152363, 0.0000, 0.0000, 0.0000, 0.0000
3.4980, -0.0981, -0.0392, -9.7282, 0.0430, 0.2234, 0.0317, 0.0140, 0.0635, -0.2201, 0.0089, 0.1251, -0.1352, 478, 152363, 0.0000, 0.0000, 0.0000, 0.0000
3.5180, -0.0981, -0.0392, -9.7282, 0.0430, 0.2234, 0.0317, 0.0140, 0.0640, -0.2207, 0.0085, 0.1248, -0.1353, 479, 152363, 0.0000, 0.0000, 0.0000, 0.0000
3.5380, -0.0981, -0.0392, -9.7282, 0.0430, 0.2234, 0.0317, 0.0142, 0.0646, -0.2216, 0.0086, 0.1249, -0.1350, 480, 152363, 0.0000, 0.0000, 0.0000, 0.0000
3.5580, -0.0981, -0.0392, -9.7282, 0.0430, 0.2234, 0.0317, 0.0144, 0.0650, -0.2223, 0.0086, 0.1247, -0.1354, 481, 152363, 0.0000, 0.0000, 0.0000, 0.0000
3.5780, -0.0981, -0.0392, -9.7282, 0.0430, 0.2234, 0.0317, 0.0145, 0.0654, -0.2230, 0.0087, 0.1236, -0.1358, 482, 152363, 0.0000, 0.0000, 0.0000, 0.0000
3.5980, -0.0981, -0.0392, -9.7282, 0.0430, 0.2234, 0.0317, 0.0147, 0.0657, -0.2238, 0.0087, 0.1232, -0.1356, 483, 152363, 0.0000, 0.0000, 0.0000, 0.0000
3.6180, -0.0981, -0.0392, -9.7282, 0.0430, 0.2234, 0.0317, 0.0148, 0.0661, -0.2245, 0.0085, 0.1223, -0.1354, 484, 152363, 0.0000, 0.0000, 0.0000, 0.0000
3.6380, -0.0981, -0.0392, -9.7282, 0.0430, 0.2234, 0.0317, 0.0150, 0.0663, -0.2254, 0.0088, 0.1213, -0.1359, 485, 152363, 0.0000, 0.0000, 0.0000, 0.0000
3.6580, -0.0981, -0.0392, -9.7282, 0.0430, 0.2234, 0.0317, 0.0152, 0.0665, -0.2261, 0.0084, 0.1204, -0.1356, 486, 152363, 0.0000, 0.0000, 0.0000, 0.0000
3.6780, -0.0981, -0.0392, -9.7282, 0.0430, 0.2234, 0.0317, 0.0154, 0.0667, -0.2268, 0.0083, 0.1197, -0.1350, 487, 152363, 0.0000, 0.0000, 0.0000, 0.0000
3.6980, -0.0981, -0.0392, -9.7282, 0.0430, 0.2234, 0.0317, 0.0157, 0.0668, -0.2277, 0.0083, 0.1183, -0.1346, 488, 152363, 0.0000, 0.0000, 0.0000, 0.0000
3.7180, -0.0981, -0.0392, -9.7282, 0.0430, 0.2234, 0.0317, 0.0158, 0.0668, -0.2284, 0.0079, 0.1169, -0.1343, 489, 152363, 0.0000, 0.0000, 0.0000, 0.0000
3.7380, -0.0981, -0.0392, -9.7282, 0.0430, 0.2234, 0.0317, 0.0161, 0.0669, -0.2292, 0.0080, 0.1164, -0.1342, 490, 152363, 0.0000, 0.0000, 0.0000, 0.0000
3.7580, -0.0981, -0.0392, -9.7282, 0.0430, 0.2234, 0.0317, 0.0164, 0.0668, -0.2299, 0.0078, 0.1149, -0.1342, 491, 152363, 0.0000, 0.0000, 0.0000, 0.0000
3.7780, -0.0981, -0.0392, -9.7282, 0.0430, 0.2234, 0.0317, 0.0166, 0.0667, -0.2307, 0.0082, 0.1138, -0.1347, 492, 152363, 0.0000, 0.0000, 0.0000, 0.0000
3.7980, -0.0981, -0.0392, -9.7282, 0.0430, 0.2234, 0.0317, 0.0170, 0.0666, -0.2313, 0.0080, 0.1130, -0.1341, 493, 152363, 0.0000, 0.0000, 0.0000, 0.0000
3.8180, -0.0981, -0.0392, -9.7282, 0.0430, 0.2234, 0.0317, 0.0173, 0.0663, -0.2319, 0.0083, 0.1123, -0.1341, 494, 152363, 0.0000, 0.0000, 0.0000, 0.0000
3.8380, -0.0981, -0.0392, -9.7282, 0.0430, 0.2234, 0.0317, 0.0176, 0.0661, -0.2325, 0.0083, 0.1123, -0.1335, 495, 152363, 0.0000, 0.0000, 0.0000, 0.0000
3.8580, -0.0981, -0.0392, -9.7282, 0.0430, 0.2234, 0.0317, 0.0180, 0.0658, -0.2330, 0.0082, 0.1122, -0.1330, 496, 152363, 0.0000, 0.0000, 0.0000, 0.0000
3.8780, -0.0981, -0.0392, -9.7282, 0.0430, 0.2234, 0.0317, 0.0184, 0.0657, -0.2333, 0.0082, 0.1116, -0.1327, 497, 152363, 0.0000, 0.0000, 0.0000, 0.0000
3.8980, -0.0981, -0.0392, -9.7282, 0.0430, 0.2234, 0.0317, 0.0188, 0.0653, -0.2337, 0.0081, 0.1123, -0.1323, 498, 152363, 0.0000, 0.0000, 0.0000, 0.0000
3.9180, -0.0981, -0.0392, -9.7282, 0.0430, 0.2234, 0.0317, 0.0192, 0.0649, -0.2341, 0.0082, 0.1119, -0.1324, 499, 152363, 0.0000, 0.0000, 0.0000, 0.0000
3.9380, -0.0981, -0.0392, -9.7282, 0.0430, 0.2234, 0.0317, 0.0197, 0.0644, -0.2344, 0.0084, 0.1117, -0.1318, 500, 152363, 0.0000, 0.0000, 0.0000, 0.0000
3.9580, -0.0981, -0.0392, -9.7282, 0.0430, 0.2234, 0.0317, 0.0202, 0.0640, -0.2347, 0.0080, 0.1116, -0.1319, 501, 152363, 0.0000, 0.0000, 0.0000, 0.0000
3.9780, -0.0981, -0.0392, -9.7282, 0.0430, 0.2234, 0.0317, 0.0208, 0.0636, -0.2349, 0.0083, 0.1113, -0.1312, 502, 152363, 0.0000, 0.0000, 0.0000, 0.0000
3.9990, -0.0981, -0.0392, -9.7282, 0.0430, 0.2234, 0.0317, 0.0214, 0.0630, -0.2350, 0.0080, 0.1111, -0.1306, 503, 152363, 0.0000, 0.0000, 0.0000, 0.0000
4.0190, -0.0981, -0.0392, -9.7282, 0.0430, 0.2234, 0.0317, 0.0220, 0.0625, -0.2354, 0.0078, 0.1113, -0.1295, 504, 152363, 0.0000, 0.0000, 0.0000, 0.0000
4.0390, -0.0981, -0.0392, -9.7282, 0.0430, 0.2234, 0.0317, 0.0226, 0.0619, -0.2355, 0.0080, 0.1107, -0.1292, 505, 152363, 0.0000, 0.0000, 0.0000, 0.0000
4.0590, -0.0981, -0.0392, -9.7282, 0.0430, 0.2234, 0.0317, 0.0234, 0.0613, -0.2359, 0.0078, 0.1105, -0.1280, 506, 152363, 0.0000, 0.0000, 0.0000, 0.0000
4.0790, -0.0981, -0.0392, -9.7282, 0.0430, 0.2234, 0.0317, 0.0242, 0.0607, -0.2361, 0.0083, 0.1102, -0.1279, 507, 152363, 0.0000, 0.0000, 0.0000, 0.0000
4.0990, -0.0981, -0.0392, -9.7282, 0.0430, 0.2234, 0.0317, 0.0249, 0.0601, -0.2362, 0.0081, 0.1106, -0.1273, 508, 152363, 0.0000, 0.0000, 0.0000, 0.0000
4.1190, -0.0981, -0.0392, -9.7282, 0.0430, 0.2234, 0.0317, 0.0257, 0.0595, -0.2364, 0.0083, 0.1116, -0.1265, 509, 152363, 0.0000, 0.0000, 0.0000, 0.0000
4.1390, -0.0981, -0.0392, -9.7282, 0.0430, 0.2234, 0.0317, 0.0264, 0.0587, -0.2364, 0.0087, 0.1124, -0.1260, 510, 152363, 0.0000, 0.0000, 0.0000, 0.0000
4.1610, -0.0981, -0.0392, -9.7282, 0.0430, 0.2234, 0.0317, 0.0273, 0.0580, -0.2366, 0.0086, 0.1132, -0.1249, 511, 152363, 0.0000, 0.0000, 0.0000, 0.0000
4.1810, -0.0981, -0.0392, -9.7282, 0.0430, 0.2234, 0.0317, 0.0283, 0.0574, -0.2367, 0.0083, 0.1133, -0.1245, 512, 152363, 0.0000, 0.0000, 0.0000, 0.0000
4.2010, -0.0981, -0.0392, -9.7282, 0.0430, 0.2234, 0.0317, 0.0291, 0.0567, -0.2368, 0.0082, 0.1132, -0.1240, 513, 152363, 0.0000, 0.0000, 0.0000, 0.0000
4.2210, -0.0981, -0.0392, -9.7282, 0.0430, 0.2234, 0.0317, 0.0301, 0.0559, -0.2370, 0.0080, 0.1135, -0.1233, 514, 152363, 0.0000, 0.0000, 0.0000, 0.0000
4.2410, -0.0981, -0.0392, -9.7282, 0.0430, 0.2234, 0.0317, 0.0310, 0.0551, -0.2371, 0.0082, 0.1131, -0.1225, 515, 152363, 0.0000, 0.0000, 0.0000, 0.0000
4.2600, -0.0981, -0.0392, -9.7282, 0.0430, 0.2234, 0.0317, 0.0323, 0.0544, -0.2374, 0.0078, 0.1122, -0.1219, 516, 152363, 0.0000, 0.0000, 0.0000, 0.0000
4.2800, -0.0981, -0.0392, -9.7282, 0.0430, 0.2234, 0.0317, 0.0333, 0.0536, -0.2374, 0.0077, 0.1124, -0.1217, 517, 152363, 0.0000, 0.0000, 0.0000, 0.0000
4.3000, -0.0981, -0.0392, -9.7282, 0.0430, 0.2234, 0.0317, 0.0343, 0.0530, -0.2376, 0.0076, 0.1134, -0.1210, 518, 152363, 0.0000, 0.0000, 0.0000, 0.0000
4.3210, -0.0981, -0.0392, -9.7282, 0.0430, 0.2234, 0.0317, 0.0354, 0.0521, -0.2378, 0.0077, 0.1140, -0.1203, 519, 152363, 0.0000, 0.0000, 0.0000, 0.0000
4.3370, -0.0981, -0.0392, -9.7282, 0.0430, 0.2234, 0.0317, 0.0364, 0.0514, -0.2378, 0.0080, 0.1152, -0.1205, 520, 152363, 0.0000, 0.0000, 0.0000, 0.0000
4.3580, -0.0981, -0.0392, -9.7282, 0.0430, 0.2234, 0.0317, 0.0375, 0.0505, -0.2380, 0.0080, 0.1168, -0.1197, 521, 152363, 0.0000, 0.0000, 0.0000, 0.0000
4.3780, -0.0981, -0.0392, -9.7282, 0.0430, 0.2234, 0.0317, 0.0386, 0.0498, -0.2380, 0.0078, 0.1184, -0.1199, 522, 152363, 0.0000, 0.0000, 0.0000, 0.0000
4.4020, -0.0981, -0.0392, -9.7282, 0.0430, 0.2234, 0.0317, 0.0398, 0.0490, -0.2381, 0.0079, 0.1189, -0.1198, 523, 152363, 0.0000, 0.0000, 0.0000, 0.0000
4.4220, 0.1863, 0.2452, -9.6596, 0.0180, -0.0148, -0.0271, 0.0411, 0.0482, -0.2383, 0.0075, 0.1190, -0.1199, 524, 154363, 0.0000, 0.0000, 0.0000, 0.0000
4.4420, 0.1863, 0.2452, -9.6596, 0.0180, -0.0148, -0.0271, 0.0422, 0.0474, -0.2384, 0.0075, 0.1190, -0.1197, 525, 154363, 0.0000, 0.0000, 0.0000, 0.0000
4.4620, 0.1863, 0.2452, -9.6596, 0.0180, -0.0148, -0.0271, 0.0435, 0.0467, -0.2388, 0.0070, 0.1192, -0.1186, 526, 154363, 0.0000, 0.0000, 0.0000, 0.0000
4.4820, 0.1863, 0.2452, -9.6596, 0.0180, -0.0148, -0.0271, 0.0447, 0.0460, -0.2391, 0.0067, 0.1193, -0.1183, 527, 154363, 0.0000, 0.0000, 0.0000, 0.0000
4.5020, 0.1863, 0.2452, -9.6596, 0.0180, -0.0148, -0.0271, 0.0459, 0.0452, -0.2394, 0.0068, 0.1195, -0.1177, 528, 154363, 0.0000, 0.0000, 0.0000, 0.0000
4.5220, 0.1863, 0.2452, -9.6596, 0.0180, -0.0148, -0.0271, 0.0470, 0.0445, -0.2398, 0.0067, 0.1206, -0.1169, 529, 154363, 0.0000, 0.0000, 0.0000, 0.0000
4.5420, 0.1863, 0.2452, -9.6596, 0.0180, -0.0148, -0.0271, 0.0483, 0.0439, -0.2400, 0.0067, 0.1217, -0.1159, 530, 154363, 0.0000, 0.0000, 0.0000, 0.0000
4.5620, 0.1863, 0.2452, -9.6596, 0.0180, -0.0148, -0.0271, 0.0495, 0.0431, -0.2404, 0.0066, 0.1231, -0.1151, 531, 154363, 0.0000, 0.0000, 0.0000, 0.0000
4.5820, 0.1863, 0.2452, -9.6596, 0.0180, -0.0148, -0.0271, 0.0507, 0.0425, -0.2406, 0.0064, 0.1236, -0.1149, 532, 154363, 0.0000, 0.0000, 0.0000, 0.0000
4.6020, 0.1863, 0.2452, -9.6596, 0.0180, -0.0148, -0.0271, 0.0520, 0.0420, -0.2409, 0.0064, 0.1245, -0.1146, 533, 154363, 0.0000, 0.0000, 0.0000, 0.0000
4.6220, 0.1863, 0.2452, -9.6596, 0.0180, -0.0148, -0.0271, 0.0530, 0.0414, -0.2412, 0.0063, 0.1262, -0.1135, 534, 154363, 0.0000, 0.0000, 0.0000, 0.0000
4.6420, 0.1863, 0.2452, -9.6596, 0.0180, -0.0148, -0.0271, 0.0543, 0.0409, -0.2415, 0.0059, 0.1275, -0.1129, 535, 154363, 0.0000, 0.0000, 0.0000, 0.0000
4.6620, 0.1863, 0.2452, -9.6596, 0.0180, -0.0148, -0.0271, 0.0553, 0.0405, -0.2416, 0.0062, 0.1286, -0.1125, 536, 154363, 0.0000, 0.0000, 0.0000, 0.0000
4.6820, 0.1863, 0.2452, -9.6596, 0.0180, -0.0148, -0.0271, 0.0563, 0.0399, -0.2420, 0.0063, 0.1290, -0.1124, 537, 154363, 0.0000, 0.0000, 0.0000, 0.0000
4.7020, 0.1863, 0.2452, -9.6596, 0.0180, -0.0148, -0.0271, 0.0574, 0.0393, -0.2422, 0.0064, 0.1289, -0.1117, 538, 154363, 0.0000, 0.0000, 0.0000, 0.0000
4.7220, 0.1863, 0.2452, -9.6596, 0.0180, -0.0148, -0.0271, 0.0586, 0.0390, -0.2423, 0.0062, 0.1288, -0.1117, 539, 154363, 0.0000, 0.0000, 0.0000, 0.0000
4.7420, 0.1863, 0.2452, -9.6596, 0.0180, -0.0148, -0.0271, 0.0596, 0.0385, -0.2425, 0.0061, 0.1289, -0.1119, 540, 154363, 0.0000, 0.0000, 0.0000, 0.0000
4.7620, 0.1863, 0.2452, -9.6596, 0.0180, -0.0148, -0.0271, 0.0606, 0.0381, -0.2424, 0.0062, 0.1289, -0.1132, 541, 154363, 0.0000, 0.0000, 0.0000, 0.0000
4.7820, 0.1863, 0.2452, -9.6596, 0.0180, -0.0148, -0.0271, 0.0616, 0.0377, -0.2425, 0.0056, 0.1289, -0.1139, 542, 154363, 0.0000, 0.0000, 0.0000, 0.0000
4.8020, 0.1863, 0.2452, -9.6596, 0.0180, -0.0148, -0.0271, 0.0624, 0.0373, -0.2426, 0.0057, 0.1294, -0.1142, 543, 154363, 0.0000, 0.0000, 0.0000, 0.0000
4.8220, 0.1863, 0.2452, -9.6596, 0.0180, -0.0148, -0.0271, 0.0633, 0.0370, -0.2425, 0.0055, 0.1293, -0.1139, 544, 154363, 0.0000, 0.0000, 0.0000, 0.0000
4.8420, 0.1863, 0.2452, -9.6596, 0.0180, -0.0148, -0.0271, 0.0643, 0.0368, -0.2425, 0.0053, 0.1296, -0.1135, 545, 154363, 0.0000, 0.0000, 0.0000, 0.0000
4.8620, 0.1863, 0.2452, -9.6596, 0.0180, -0.0148, -0.0271, 0.0651, 0.0366, -0.2424, 0.0053, 0.1292, -0.1142, 546, 154363, 0.0000, 0.0000, 0.0000, 0.0000
4.8820, 0.1863, 0.2452, -9.6596, 0.0180, -0.0148, -0.0271, 0.0661, 0.0362, -0.2423, 0.0052, 0.1293, -0.1137, 547, 154363, 0.0000, 0.0000, 0.0000, 0.0000
4.9020, 0.1863, 0.2452, -9.6596, 0.0180, -0.0148, -0.0271, 0.0668, 0.0360, -0.2422, 0.0054, 0.1297, -0.1134, 548, 154363, 0.0000, 0.0000, 0.0000, 0.0000
4.9220, 0.1863, 0.2452, -9.6596, 0.0180, -0.0148, -0.0271, 0.0674, 0.0361, -0.2418, 0.0050, 0.1349, -0.1079, 549, 154363, 0.0000, 0.0000, 0.0000, 0.0000
4.9420, 0.1863, 0.2452, -9.6596, 0.0180, -0.0148, -0.0271, 0.0674, 0.0364, -0.2409, 0.0063, 0.1486, -0.0970, 550, 154363, 0.0000, 0.0000, 0.0000, 0.0000
4.9620, 0.1863, 0.2452, -9.6596, 0.0180, -0.0148, -0.0271, 0.0671, 0.0369, -0.2398, 0.0079, 0.1682, -0.0851, 551, 154363, 0.0000, 0.0000, 0.0000, 0.0000
4.9820, 0.1863, 0.2452, -9.6596, 0.0180, -0.0148, -0.0271, 0.0667, 0.0373, -0.2385, 0.0091, 0.1877, -0.0743, 552, 154363, 0.0000, 0.0000, 0.0000, 0.0000
5.0020, 0.1863, 0.2452, -9.6596, 0.0180, -0.0148, -0.0271, 0.0664, 0.0378, -0.2372, 0.0096, 0.2015, -0.0697, 553, 154363, 0.0000, 0.0000, 0.0000, 0.0000
5.0220, 0.1863, 0.2452, -9.6596, 0.0180, -0.0148, -0.0271, 0.0661, 0.0381, -0.2366, 0.0104, 0.2061, -0.0717, 554, 154363, 0.0000, 0.0000, -0.0007, 0.0000
5.0420, 0.1863, 0.2452, -9.6596, 0.0180, -0.0148, -0.0271, 0.0659, 0.0383, -0.2362, 0.0105, 0.2029, -0.0760, 555, 154363, 0.0000, 0.0000, -0.0073, 0.0000
5.0620, 0.1863, 0.2452, -9.6596, 0.0180, -0.0148, -0.0271, 0.0655, 0.0389, -0.2358, 0.0095, 0.1967, -0.0799, 556, 154363, 0.0000, 0.0000, -0.0140, 0.0000
5.0820, 0.1863, 0.2452, -9.6596, 0.0180, -0.0148, -0.0271, 0.0647, 0.0396, -0.2353, 0.0092, 0.1918, -0.0830, 557, 154363, 0.0000, 0.0000, -0.0207, 0.0000
5.1020, 0.1863, 0.2452, -9.6596, 0.0180, -0.0148, -0.0271, 0.0636, 0.0406, -0.2348, 0.0085, 0.1881, -0.0845, 558, 154363, 0.0000, 0.0000, -0.0273, 0.0000
5.1220, 0.1863, 0.2452, -9.6596, 0.0180, -0.0148, -0.0271, 0.0623, 0.0416, -0.2341, 0.0079, 0.1846, -0.0860, 559, 154363, 0.0000, 0.0000, -0.0340, 0.0000
5.1420, 0.1863, 0.2452, -9.6596, 0.0180, -0.0148, -0.0271, 0.0607, 0.0428, -0.2338, 0.0072, 0.1794, -0.0894, 560, 154363, 0.0000, 0.0000, -0.0407, 0.0000
5.1620, 0.1863, 0.2452, -9.6596, 0.0180, -0.0148, -0.0271, 0.0592, 0.0438, -0.2340, 0.0064, 0.1721, -0.0951, 561, 154363, 0.0000, 0.0000, -0.0473, 0.0000
5.1820, 0.1863, 0.2452, -9.6596, 0.0180, -0.0148, -0.0271, 0.0573, 0.0451, -0.2342, 0.0055, 0.1641, -0.1013, 562, 154363, 0.0000, 0.0000, -0.0540, 0.0000
5.2020, 0.1863, 0.2452, -9.6596, 0.0180, -0.0148, -0.0271, 0.0551, 0.0464, -0.2348, 0.0048, 0.1568, -0.1054, 563, 154363, 0.0000, 0.0000, -0.0607, 0.0000
5.2220, 0.1863, 0.2452, -9.6596, 0.0180, -0.0148, -0.0271, 0.0530, 0.0479, -0.2352, 0.0038, 0.1499, -0.1085, 564, 154363, 0.0000, 0.0000, -0.0673, 0.0000
5.2420, 0.1863, 0.2452, -9.6596, 0.0180, -0.0148, -0.0271, 0.0506, 0.0492, -0.2357, 0.0031, 0.1433, -0.1113, 565, 154363, 0.0000, 0.0000, -0.0740, 0.0000
5.2620, 0.1863, 0.2452, -9.6596, 0.0180, -0.0148, -0.0271, 0.0482, 0.0507, -0.2364, 0.0026, 0.1377, -0.1137, 566, 154363, 0.0000, 0.0000, -0.0807, 0.0000
5.2820, 0.1863, 0.2452, -9.6596, 0.0180, -0.0148, -0.0271, 0.0457, 0.0523, -0.2369, 0.0018, 0.1326, -0.1164, 567, 154363, 0.0000, 0.0000, -0.0873, 0.0000
5.3020, 0.1863, 0.2452, -9.6596, 0.0180, -0.0148, -0.0271, 0.0430, 0.0538, -0.2375, 0.0013, 0.1279, -0.1190, 568, 154363, 0.0000, 0.0000, -0.0940, 0.0000
5.3220, 0.1863, 0.2452, -9.6596, 0.0180, -0.0148, -0.0271, 0.0406, 0.0554, -0.2382, 0.0008, 0.1224, -0.1212, 569, 154363, 0.0000, 0.0000, -0.1007, 0.0000
5.3420, 0.1863, 0.2452, -9.6596, 0.0180, -0.0148, -0.0271, 0.0381, 0.0570, -0.2388, -0.0000, 0.1174, -0.1226, 570, 154363, 0.0000, 0.0000, -0.1073, 0.0000
5.3620, 0.1863, 0.2452, -9.6596, 0.0180, -0.0148, -0.0271, 0.0357, 0.0586, -0.2396, -0.0004, 0.1126, -0.1249, 571, 154363, 0.0000, 0.0000, -0.1140, 0.0000
5.3820, 0.1863, 0.2452, -9.6596, 0.0180, -0.0148, -0.0271, 0.0332, 0.0599, -0.2402, -0.0005, 0.1082, -0.1273, 572, 154363, 0.0000, 0.0000, -0.1207, 0.0000
5.4020, 0.1863, 0.2452, -9.6596, 0.0180, -0.0148, -0.0271, 0.0308, 0.0613, -0.2409, -0.0010, 0.1035, -0.1304, 573, 154363, 0.0000, 0.0000, -0.1273, 0.0000
5.4220, 0.2746, 0.1079, -9.7282, -0.1841, -0.2107, 0.0105, 0.0286, 0.0627, -0.2416, -0.0009, 0.0997, -0.1328, 574, 155363, 0.0000, 0.0000, -0.1340, 0.0000
5.4420, 0.2746, 0.1079, -9.7282, -0.1841, -0.2107, 0.0105, 0.0263, 0.0640, -0.2423, -0.0016, 0.0958, -0.1352, 575, 155363, 0.0000, 0.0000, -0.1407, 0.0000
5.4620, 0.2746, 0.1079, -9.7282, -0.1841, -0.2107, 0.0105, 0.0241, 0.0653, -0.2432, -0.0015, 0.0928, -0.1371, 576, 155363, 0.0000, 0.0000, -0.1473, 0.0000
5.4820, 0.2746, 0.1079, -9.7282, -0.1841, -0.2107, 0.0105, 0.0222, 0.0664, -0.2438, -0.0014, 0.0896, -0.1384, 577, 155363, 0.0000, 0.0000, -0.1540, 0.0000
5.5020, 0.2746, 0.1079, -9.7282, -0.1841, -0.2107, 0.0105, 0.0203, 0.0674, -0.2447, -0.0010, 0.0882, -0.1395, 578, 155363, 0.0000, 0.0000, -0.1607, 0.0000
5.5220, 0.2746, 0.1079, -9.7282, -0.1841, -0.2107, 0.0105, 0.0186, 0.0685, -0.2455, -0.0004, 0.0862, -0.1410, 579, 155363, 0.0000, 0.0000, -0.1673, 0.0000
5.5420, 0.2746, 0.1079, -9.7282, -0.1841, -0.2107, 0.0105, 0.0171, 0.0692, -0.2463, -0.0005, 0.0842, -0.1426, 580, 155363, 0.0000, 0.0000, -0.1740, 0.0000
5.5620, 0.2746, 0.1079, -9.7282, -0.1841, -0.2107, 0.0105, 0.0156, 0.0701, -0.2472, -0.0001, 0.0822, -0.1435, 581, 155363, 0.0000, 0.0000, -0.1807, 0.0000
5.5820, 0.2746, 0.1079, -9.7282, -0.1841, -0.2107, 0.0105, 0.0143, 0.0709, -0.2481, -0.0001, 0.0803, -0.1442, 582, 155363, 0.0000, 0.0000, -0.1873, 0.0000
5.6020, 0.2746, 0.1079, -9.7282, -0.1841, -0.2107, 0.0105, 0.0133, 0.0714, -0.2490, 0.0005, 0.0789, -0.1441, 583, 155363, 0.0000, 0.0000, -0.1940, 0.0000
5.6220, 0.2746, 0.1079, -9.7282, -0.1841, -0.2107, 0.0105, 0.0122, 0.0718, -0.2501, 0.0007, 0.0767, -0.1454, 584, 155363, 0.0000, 0.0000, -0.2007, 0.0000
5.6420, 0.2746, 0.1079, -9.7282, -0.1841, -0.2107, 0.0105, 0.0115, 0.0720, -0.2510, 0.0011, 0.0759, -0.1465, 585, 155363, 0.0000, 0.0000, -0.2073, 0.0000
5.6620, 0.2746, 0.1079, -9.7282, -0.1841, -0.2107, 0.0105, 0.0109, 0.0723, -0.2520, 0.0020, 0.0758, -0.1479, 586, 155363, 0.0000, 0.0000, -0.2140, 0.0000
5.6820, 0.2746, 0.1079, -9.7282, -0.1841, -0.2107, 0.0105, 0.0104, 0.0724, -0.2531, 0.0024, 0.0761, -0.1487, 587, 155363, 0.0000, 0.0000, -0.2207, 0.0000
5.7020, 0.2746, 0.1079, -9.7282, -0.1841, -0.2107, 0.0105, 0.0101, 0.0723, -0.2543, 0.0033, 0.0764, -0.1484, 588, 155363, 0.0000, 0.0000, -0.2273, 0.0000
5.7220, 0.2746, 0.1079, -9.7282, -0.1841, -0.2107, 0.0105, 0.0100, 0.0722, -0.2555, 0.0042, 0.0771, -0.1486, 589, 155363, 0.0000, 0.0000, -0.2340, 0.0000
5.7420, 0.2746, 0.1079, -9.7282, -0.1841, -0.2107, 0.0105, 0.0102, 0.0719, -0.2569, 0.0046, 0.0750, -0.1504, 590, 155363, 0.0000, 0.0000, -0.2407, 0.0000
5.7620, 0.2746, 0.1079, -9.7282, -0.1841, -0.2107, 0.0105, 0.0105, 0.0713, -0.2583, 0.0049, 0.0733, -0.1521, 591, 155363, 0.0000, 0.0000, -0.2473, 0.0000
5.7820, 0.2746, 0.1079, -9.7282, -0.1841, -0.2107, 0.0105, 0.0111, 0.0708, -0.2596, 0.0055, 0.0724, -0.1519, 592, 155363, 0.0000, 0.0000, -0.2540, 0.0000
5.8020, 0.2746, 0.1079, -9.7282, -0.1841, -0.2107, 0.0105, 0.0118, 0.0703, -0.2610, 0.0063, 0.0723, -0.1498, 593, 155363, 0.0000, 0.0000, -0.2607, 0.0000
5.8220, 0.2746, 0.1079, -9.7282, -0.1841, -0.2107, 0.0105, 0.0127, 0.0696, -0.2624, 0.0072, 0.0736, -0.1472, 594, 155363, 0.0000, 0.0000, -0.2673, 0.0000
5.8420, 0.2746, 0.1079, -9.7282, -0.1841, -0.2107, 0.0105, 0.0139, 0.0688, -0.2641, 0.0084, 0.0738, -0.1458, 595, 155363, 0.0000, 0.0000, -0.2740, 0.0000
5.8620, 0.2746, 0.1079, -9.7282, -0.1841, -0.2107, 0.0105, 0.0149, 0.0677, -0.2656, 0.0092, 0.0751, -0.1444, 596, 155363, 0.0000, 0.0000, -0.2807, 0.0000
5.8820, 0.2746, 0.1079, -9.7282, -0.1841, -0.2107, 0.0105, 0.0163, 0.0667, -0.2673, 0.0099, 0.0770, -0.1436, 597, 155363, 0.0000, 0.0000, -0.2873, 0.0000
5.9020, 0.2746, 0.1079, -9.7282, -0.1841, -0.2107, 0.0105, 0.0180, 0.0655, -0.2691, 0.0107, 0.0782, -0.1423, 598, 155363, 0.0000, 0.0000, -0.2940, 0.0000
5.9220, 0.2746, 0.1079, -9.7282, -0.1841, -0.2107, 0.0105, 0.0198, 0.0641, -0.2710, 0.0117, 0.0799, -0.1418, 599, 155363, 0.0000, 0.0000, -0.3007, 0.0000
5.9420, 0.2746, 0.1079, -9.7282, -0.1841, -0.2107, 0.0105, 0.0216, 0.0629, -0.2730, 0.0125, 0.0816, -0.1398, 600, 155363, 0.0000, 0.0000, -0.3073, 0.0000
5.9620, 0.2746, 0.1079, -9.7282, -0.1841, -0.2107, 0.0105, 0.0236, 0.0614, -0.2750, 0.0135, 0.0836, -0.1376, 601, 155363, 0.0000, 0.0000, -0.3140, 0.0000
5.9820, 0.2746, 0.1079, -9.7282, -0.1841, -0.2107, 0.0105, 0.0258, 0.0599, -0.2774, 0.0142, 0.0854, -0.1363, 602, 155363, 0.0000, 0.0000, -0.3207, 0.0000
6.0030, 0.2746, 0.1079, -9.7282, -0.1841, -0.2107, 0.0105, 0.0280, 0.0582, -0.2797, 0.0148, 0.0877, -0.1346, 603, 155363, 0.0000, 0.0000, -0.3273, 0.0000
6.0230, 0.2746, 0.1079, -9.7282, -0.1841, -0.2107, 0.0105, 0.0305, 0.0565, -0.2821, 0.0159, 0.0903, -0.1329, 604, 155363, 0.0000, 0.0000, -0.3343, 0.0000
6.0430, 0.2746, 0.1079, -9.7282, -0.1841, -0.2107, 0.0105, 0.0330, 0.0547, -0.2847, 0.0165, 0.0927, -0.1312, 605, 155363, 0.0000, 0.0000, -0.3410, 0.0000
6.0630, 0.2746, 0.1079, -9.7282, -0.1841, -0.2107, 0.0105, 0.0356, 0.0530, -0.2873, 0.0175, 0.0956, -0.1293, 606, 155363, 0.0000, 0.0000, -0.3477, 0.0000
6.0830, 0.2746, 0.1079, -9.7282, -0.1841, -0.2107, 0.0105, 0.0383, 0.0512, -0.2902, 0.0183, 0.0981, -0.1275, 607, 155363, 0.0000, 0.0000, -0.3543, 0.0000
6.1030, 0.2746, 0.1079, -9.7282, -0.1841, -0.2107, 0.0105, 0.0411, 0.0494, -0.2931, 0.0183, 0.1003, -0.1247, 608, 155363, 0.0000, 0.0000, -0.3610, 0.0000
6.1230, 0.2746, 0.1079, -9.7282, -0.1841, -0.2107, 0.0105, 0.0440, 0.0474, -0.2962, 0.0192, 0.1020, -0.1225, 609, 155363, 0.0000, 0.0000, -0.3677, 0.0000
6.1430, 0.2746, 0.1079, -9.7282, -0.1841, -0.2107, 0.0105, 0.0470, 0.0455, -0.2994, 0.0197, 0.1042, -0.1200, 610, 155363, 0.0000, 0.0000, -0.3743, 0.0000
6.1630, 0.2746, 0.1079, -9.7282, -0.1841, -0.2107, 0.0105, 0.0501, 0.0437, -0.3025, 0.0199, 0.1061, -0.1183, 611, 155363, 0.0000, 0.0000, -0.3810, 0.0000
6.1830, 0.2746, 0.1079, -9.7282, -0.1841, -0.2107, 0.0105, 0.0531, 0.0416, -0.3059, 0.0210, 0.1086, -0.1163, 612, 155363, 0.0000, 0.0000, -0.3877, 0.0000
6.2030, 0.2746, 0.1079, -9.7282, -0.1841, -0.2107, 0.0105, 0.0562, 0.0397, -0.3091, 0.0216, 0.1112, -0.1145, 613, 155363, 0.0000, 0.0000, -0.3943, 0.0000
6.2230, 0.2746, 0.1079, -9.7282, -0.1841, -0.2107, 0.0105, 0.0593, 0.0379, -0.3126, 0.0217, 0.1136, -0.1118, 614, 155363, 0.0000, 0.0000, -0.4010, 0.0000
6.2430, 0.2746, 0.1079, -9.7282, -0.1841, -0.2107, 0.0105, 0.0623, 0.0360, -0.3160, 0.0221, 0.1158, -0.1101, 615, 155363, 0.0000, 0.0000, -0.4077, 0.0000
6.2630, 0.2746, 0.1079, -9.7282, -0.1841, -0.2107, 0.0105, 0.0655, 0.0340, -0.3193, 0.0229, 0.1184, -0.1081, 616, 155363, 0.0000, 0.0000, -0.4143, 0.0000
6.2830, 0.2746, 0.1079, -9.7282, -0.1841, -0.2107, 0.0105, 0.0686, 0.0321, -0.3229, 0.0232, 0.1213, -0.1073, 617, 155363, 0.0000, 0.0000, -0.4210, 0.0000
6.3030, 0.2746, 0.1079, -9.7282, -0.1841, -0.2107, 0.0105, 0.0717, 0.0302, -0.3263, 0.0238, 0.1246, -0.1060, 618, 155363, 0.0000, 0.0000, -0.4277, 0.0000
6.3230, 0.2746, 0.1079, -9.7282, -0.1841, -0.2107, 0.0105, 0.0748, 0.0284, -0.3297, 0.0244, 0.1267, -0.1058, 619, 155363, 0.0000, 0.0000, -0.4343, 0.0000
6.3430, 0.2746, 0.1079, -9.7282, -0.1841, -0.2107, 0.0105, 0.0779, 0.0266, -0.3332, 0.0245, 0.1287, -0.1047, 620, 155363, 0.0000, 0.0000, -0.4410, 0.0000
6.3630, 0.2746, 0.1079, -9.7282, -0.1841, -0.2107, 0.0105, 0.0809, 0.0249, -0.3367, 0.0245, 0.1298, -0.1028, 621, 155363, 0.0000, 0.0000, -0.4477, 0.0000
6.3830, 0.2746, 0.1079, -9.7282, -0.1841, -0.2107, 0.0105, 0.0837, 0.0234, -0.3402, 0.0246, 0.1315, -0.1008, 622, 155363, 0.0000, 0.0000, -0.4543, 0.0000
6.4030, 0.2746, 0.1079, -9.7282, -0.1841, -0.2107, 0.0105, 0.0867, 0.0218, -0.3438, 0.0245, 0.1330, -0.0994, 623, 155363, 0.0000, 0.0000, -0.4610, 0.0000
6.4230, 0.2746, 0.1079, -9.7282, -0.1841, -0.2107, 0.0105, 0.0896, 0.0203, -0.3472, 0.0247, 0.1347, -0.0984, 624, 155363, 0.0000, 0.0000, -0.4677, 0.0000
6.4430, 0.2746, 0.1079, -9.7282, -0.1841, -0.2107, 0.0105, 0.0922, 0.0189, -0.3508, 0.0247, 0.1368, -0.0969, 625, 155363, 0.0000, 0.0000, -0.4743, 0.0000
6.4630, 0.2746, 0.1079, -9.7282, -0.1841, -0.2107, 0.0105, 0.0950, 0.0176, -0.3544, 0.0250, 0.1379, -0.0958, 626, 155363, 0.0000, 0.0000, -0.4810, 0.0000
6.4830, 0.2746, 0.1079, -9.7282, -0.1841, -0.2107, 0.0105, 0.0975, 0.0164, -0.3577, 0.0247, 0.1410, -0.0945, 627, 155363, 0.0000, 0.0000, -0.4877, 0.0000
6.5030, 0.2746, 0.1079, -9.7282, -0.1841, -0.2107, 0.0105, 0.0998, 0.0152, -0.3610, 0.0246, 0.1447, -0.0920, 628, 155363, 0.0000, 0.0000, -0.4943, 0.0000
6.5230, 0.2746, 0.1079, -9.7282, -0.1841, -0.2107, 0.0105, 0.1022, 0.0142, -0.3643, 0.0244, 0.1474, -0.0902, 629, 155363, 0.0000, 0.0000, -0.5010, 0.0000
6.5430, 0.2746, 0.1079, -9.7282, -0.1841, -0.2107, 0.0105, 0.1046, 0.0131, -0.3675, 0.0245, 0.1480, -0.0900, 630, 155363, 0.0000, 0.0000, -0.5077, 0.0000
6.5630, 0.2746, 0.1079, -9.7282, -0.1841, -0.2107, 0.0105, 0.1068, 0.0122, -0.3709, 0.0242, 0.1492, -0.0902, 631, 155363, 0.0000, 0.0000, -0.5143, 0.0000
6.5830, 0.2746, 0.1079, -9.7282, -0.1841, -0.2107, 0.0105, 0.1090, 0.0114, -0.3743, 0.0240, 0.1499, -0.0904, 632, 155363, 0.0000, 0.0000, -0.5210, 0.0000
6.6030, 0.2746, 0.1079, -9.7282, -0.1841, -0.2107, 0.0105, 0.1110, 0.0107, -0.3776, 0.0240, 0.1505, -0.0905, 633, 155363, 0.0000, 0.0000, -0.5277, 0.0000
6.6230, 0.2746, 0.1079, -9.7282, -0.1841, -0.2107, 0.0105, 0.1128, 0.0101, -0.3808, 0.0237, 0.1525, -0.0899, 634, 155363, 0.0000, 0.0000, -0.5343, 0.0000
6.6430, 0.2746, 0.1079, -9.7282, -0.1841, -0.2107, 0.0105, 0.1145, 0.0097, -0.3839, 0.0236, 0.1552, -0.0877, 635, 155363, 0.0000, 0.0000, -0.5410, 0.0000
6.6630, 0.2746, 0.1079, -9.7282, -0.1841, -0.2107, 0.0105, 0.1160, 0.0094, -0.3871, 0.0232, 0.1558, -0.0861, 636, 155363, 0.0000, 0.0000, -0.5477, 0.0000
6.6830, 0.2746, 0.1079, -9.7282, -0.1841, -0.2107, 0.0105, 0.1175, 0.0091, -0.3901, 0.0228, 0.1562, -0.0851, 637, 155363, 0.0000, 0.0000, -0.5543, 0.0000
6.7030, 0.2746, 0.1079, -9.7282, -0.1841, -0.2107, 0.0105, 0.1190, 0.0091, -0.3933, 0.0220, 0.1557, -0.0843, 638, 155363, 0.0000, 0.0000, -0.5610, 0.0000
6.7230, 0.2746, 0.1079, -9.7282, -0.1841, -0.2107, 0.0105, 0.1202, 0.0090, -0.3965, 0.0215, 0.1550, -0.0845, 639, 155363, 0.0000, 0.0000, -0.5677, 0.0000
6.7430, 0.2746, 0.1079, -9.7282, -0.1841, -0.2107, 0.0105, 0.1213, 0.0090, -0.3996, 0.0208, 0.1547, -0.0847, 640, 155363, 0.0000, 0.0000, -0.5743, 0.0000
6.7630, 0.2746, 0.1079, -9.7282, -0.1841, -0.2107, 0.0105, 0.1223, 0.0093, -0.4028, 0.0202, 0.1545, -0.0837, 641, 155363, 0.0000, 0.0000, -0.5810, 0.0000
6.7830, 0.2746, 0.1079, -9.7282, -0.1841, -0.2107, 0.0105, 0.1231, 0.0096, -0.4059, 0.0199, 0.1537, -0.0840, 642, 155363, 0.0000, 0.0000, -0.5877, 0.0000
6.8030, 0.2746, 0.1079, -9.7282, -0.1841, -0.2107, 0.0105, 0.1239, 0.0100, -0.4091, 0.0193, 0.1538, -0.0834, 643, 155363, 0.0000, 0.0000, -0.5943, 0.0000
6.8230, 0.2746, 0.1079, -9.7282, -0.1841, -0.2107, 0.0105, 0.1245, 0.0107, -0.4118, 0.0189, 0.1544, -0.0836, 644, 155363, 0.0000, 0.0000, -0.6010, 0.0000
6.8430, 0.2746, 0.1079, -9.7282, -0.1841, -0.2107, 0.0105, 0.1250, 0.0113, -0.4147, 0.0187, 0.1548, -0.0850, 645, 155363, 0.0000, 0.0000, -0.6077, 0.0000
6.8630, 0.2746, 0.1079, -9.7282, -0.1841, -0.2107, 0.0105, 0.1253, 0.0120, -0.4175, 0.0183, 0.1552, -0.0866, 646, 155363, 0.0000, 0.0000, -0.6143, 0.0000
6.8830, 0.2746, 0.1079, -9.7282, -0.1841, -0.2107, 0.0105, 0.1255, 0.0128, -0.4202, 0.0182, 0.1552, -0.0879, 647, 155363, 0.0000, 0.0000, -0.6210, 0.0000
6.9030, 0.2746, 0.1079, -9.7282, -0.1841, -0.2107, 0.0105, 0.1257, 0.0138, -0.4230, 0.0176, 0.1545, -0.0899, 648, 155363, 0.0000, 0.0000, -0.6277, 0.0000
6.9230, 0.2746, 0.1079, -9.7282, -0.1841, -0.2107, 0.0105, 0.1256, 0.0148, -0.4258, 0.0175, 0.1548, -0.0911, 649, 155363, 0.0000, 0.0000, -0.6343, 0.0000
6.9430, 0.2746, 0.1079, -9.7282, -0.1841, -0.2107, 0.0105, 0.1255, 0.0159, -0.4286, 0.0172, 0.1552, -0.0930, 650, 155363, 0.0000, 0.0000, -0.6410, 0.0000
6.9630, 0.2746, 0.1079, -9.7282, -0.1841, -0.2107, 0.0105, 0.1252, 0.0171, -0.4314, 0.0169, 0.1545, -0.0947, 651, 155363, 0.0000, 0.0000, -0.6477, 0.0000
6.9830, 0.2746, 0.1079, -9.7282, -0.1841, -0.2107, 0.0105, 0.1249, 0.0184, -0.4343, 0.0164, 0.1542, -0.0957, 652, 155363, 0.0000, 0.0000, -0.6543, 0.0000
7.0030, 0.2746, 0.1079, -9.7282, -0.1841, -0.2107, 0.0105, 0.1244, 0.0198, -0.4372, 0.0160, 0.1529, -0.0970, 653, 155363, 0.0000, 0.0000, -0.6610, 0.0000
7.0230, 0.2746, 0.1079, -9.7282, -0.1841, -0.2107, 0.0105, 0.1239, 0.0212, -0.4402, 0.0161, 0.1513, -0.0994, 654, 155363, 0.0000, 0.0000, -0.6677, 0.0000
7.0430, 0.2746, 0.1079, -9.7282, -0.1841, -0.2107, 0.0105, 0.1232, 0.0226, -0.4433, 0.0155, 0.1513, -0.1004, 655, 155363, 0.0000, 0.0000, -0.6743, 0.0000
7.0630, 0.2746, 0.1079, -9.7282, -0.1841, -0.2107, 0.0105, 0.1223, 0.0242, -0.4464, 0.0153, 0.1503, -0.1022, 656, 155363, 0.0000, 0.0000, -0.6810, 0.0000
7.0830, 0.2746, 0.1079, -9.7282, -0.1841, -0.2107, 0.0105, 0.1216, 0.0256, -0.4496, 0.0148, 0.1482, -0.1036, 657, 155363, 0.0000, 0.0000, -0.6877, 0.0000
7.1030, 0.2746, 0.1079, -9.7282, -0.1841, -0.2107, 0.0105, 0.1207, 0.0272, -0.4527, 0.0146, 0.1463, -0.1061, 658, 155363, 0.0000, 0.0000, -0.6943, 0.0000
7.1230, 0.2746, 0.1079, -9.7282, -0.1841, -0.2107, 0.0105, 0.1197, 0.0289, -0.4561, 0.0142, 0.1451, -0.1070, 659, 155363, 0.0000, 0.0000, -0.7010, 0.0000
7.1430, 0.2746, 0.1079, -9.7282, -0.1841, -0.2107, 0.0105, 0.1186, 0.0305, -0.4595, 0.0139, 0.1434, -0.1083, 660, 155363, 0.0000, 0.0000, -0.7077, 0.0000
7.1630, 0.2746, 0.1079, -9.7282, -0.1841, -0.2107, 0.0105, 0.1175, 0.0322, -0.4628, 0.0136, 0.1415, -0.1098, 661, 155363, 0.0000, 0.0000, -0.7143, 0.0000
7.1830, 0.2746, 0.1079, -9.7282, -0.1841, -0.2107, 0.0105, 0.1163, 0.0338, -0.4664, 0.0136, 0.1402, -0.1117, 662, 155363, 0.0000, 0.0000, -0.7210, 0.0000
7.2030, 0.2746, 0.1079, -9.7282, -0.1841, -0.2107, 0.0105, 0.1150, 0.0355, -0.4699, 0.0133, 0.1392, -0.1125, 663, 155363, 0.0000, 0.0000, -0.7277, 0.0000
7.2230, 0.2746, 0.1079, -9.7282, -0.1841, -0.2107, 0.0105, 0.1137, 0.0372, -0.4736, 0.0129, 0.1373, -0.1135, 664, 155363, 0.0000, 0.0000, -0.7343, 0.0000
7.2430, 0.2746, 0.1079, -9.7282, -0.1841, -0.2107, 0.0105, 0.1124, 0.0389, -0.4772, 0.0130, 0.1361, -0.1144, 665, 155363, 0.0000, 0.0000, -0.7410, 0.0000
7.2630, 0.2746, 0.1079, -9.7282, -0.1841, -0.2107, 0.0105, 0.1112, 0.0407, -0.4809, 0.0126, 0.1344, -0.1156, 666, 155363, 0.0000, 0.0000, -0.7477, 0.0000
7.2830, 0.2746, 0.1079, -9.7282, -0.1841, -0.2107, 0.0105, 0.1098, 0.0424, -0.4849, 0.0123, 0.1332, -0.1160, 667, 155363, 0.0000, 0.0000, -0.7543, 0.0000
7.3030, 0.2746, 0.1079, -9.7282, -0.1841, -0.2107, 0.0105, 0.1083, 0.0440, -0.4887, 0.0127, 0.1324, -0.1176, 668, 155363, 0.0000, 0.0000, -0.7610, 0.0000
7.3230, 0.2746, 0.1079, -9.7282, -0.1841, -0.2107, 0.0105, 0.1070, 0.0457, -0.4928, 0.0123, 0.1310, -0.1187, 669, 155363, 0.0000, 0.0000, -0.7677, 0.0000
7.3430, 0.2746, 0.1079, -9.7282, -0.1841, -0.2107, 0.0105, 0.1055, 0.0473, -0.4967, 0.0122, 0.1296, -0.1194, 670, 155363, 0.0000, 0.0000, -0.7743, 0.0000
7.3630, 0.2746, 0.1079, -9.7282, -0.1841, -0.2107, 0.0105, 0.1041, 0.0490, -0.5009, 0.0121, 0.1281, -0.1201, 671, 155363, 0.0000, 0.0000, -0.7810, 0.0000
7.3830, 0.2746, 0.1079, -9.7282, -0.1841, -0.2107, 0.0105, 0.1027, 0.0507, -0.5051, 0.0120, 0.1267, -0.1207, 672, 155363, 0.0000, 0.0000, -0.7877, 0.0000
7.4030, 0.2746, 0.1079, -9.7282, -0.1841, -0.2107, 0.0105, 0.1014, 0.0522, -0.5092, 0.0121, 0.1253, -0.1215, 673, 155363, 0.0000, 0.0000, -0.7943, 0.0000
7.4230, 0.2746, 0.1079, -9.7282, -0.1841, -0.2107, 0.0105, 0.1000, 0.0538, -0.5136, 0.0118, 0.1240, -0.1222, 674, 155363, 0.0000, 0.0000, -0.8010, 0.0000
7.4430, 0.2746, 0.1079, -9.7282, -0.1841, -0.2107, 0.0105, 0.0986, 0.0554, -0.5179, 0.0119, 0.1229, -0.1222, 675, 155363, 0.0000, 0.0000, -0.8077, 0.0000
7.4630, 0.2746, 0.1079, -9.7282, -0.1841, -0.2107, 0.0105, 0.0972, 0.0568, -0.5223, 0.0117, 0.1213, -0.1230, 676, 155363, 0.0000, 0.0000, -0.8143, 0.0000
7.4830, 0.2746, 0.1079, -9.7282, -0.1841, -0.2107, 0.0105, 0.0959, 0.0582, -0.5266, 0.0115, 0.1202, -0.1232, 677, 155363, 0.0000, 0.0000, -0.8210, 0.0000
7.5030, 0.2746, 0.1079, -9.7282, -0.1841, -0.2107, 0.0105, 0.0947, 0.0598, -0.5310, 0.0116, 0.1193, -0.1233, 678, 155363, 0.0000, 0.0000, -0.8277, 0.0000
7.5230, 0.2746, 0.1079, -9.7282, -0.1841, -0.2107, 0.0105, 0.0934, 0.0612, -0.5354, 0.0114, 0.1189, -0.1228, 679, 155363, 0.0000, 0.0000, -0.8343, 0.0000
7.5430, 0.2746, 0.1079, -9.7282, -0.1841, -0.2107, 0.0105, 0.0920, 0.0626, -0.5398, 0.0114, 0.1181, -0.1226, 680, 155363, 0.0000, 0.0000, -0.8410, 0.0000
7.5630, 0.2746, 0.1079, -9.7282, -0.1841, -0.2107, 0.0105, 0.0911, 0.0639, -0.5443, 0.0116, 0.1165, -0.1229, 681, 155363, 0.0000, 0.0000, -0.8477, 0.0000
7.5830, 0.2746, 0.1079, -9.7282, -0.1841, -0.2107, 0.0105, 0.0899, 0.0653, -0.5486, 0.0109, 0.1154, -0.1231, 682, 155363, 0.0000, 0.0000, -0.8543, 0.0000
7.6030, 0.2746, 0.1079, -9.7282, -0.1841, -0.2107, 0.0105, 0.0889, 0.0666, -0.5532, 0.0110, 0.1140, -0.1223, 683, 155363, 0.0000, 0.0000, -0.8610, 0.0000
7.6230, 0.2746, 0.1079, -9.7282, -0.1841, -0.2107, 0.0105, 0.0879, 0.0677, -0.5577, 0.0108, 0.1132, -0.1231, 684, 155363, 0.0000, 0.0000, -0.8677, 0.0000
7.6430, 0.2746, 0.1079, -9.7282, -0.1841, -0.2107, 0.0105, 0.0869, 0.0690, -0.5622, 0.0108, 0.1126, -0.1228, 685, 155363, 0.0000, 0.0000, -0.8743, 0.0000
7.6630, 0.2746, 0.1079, -9.7282, -0.1841, -0.2107, 0.0105, 0.0861, 0.0702, -0.5669, 0.0112, 0.1120, -0.1230, 686, 155363, 0.0000, 0.0000, -0.8810, 0.0000
7.6830, 0.2746, 0.1079, -9.7282, -0.1841, -0.2107, 0.0105, 0.0851, 0.0714, -0.5715, 0.0110, 0.1113, -0.1234, 687, 155363, 0.0000, 0.0000, -0.8877, 0.0000
7.7030, 0.2746, 0.1079, -9.7282, -0.1841, -0.2107, 0.0105, 0.0845, 0.0725, -0.5763, 0.0108, 0.1099, -0.1239, 688, 155363, 0.0000, 0.0000, -0.8943, 0.0000
7.7230, 0.2746, 0.1079, -9.7282, -0.1841, -0.2107, 0.0105, 0.0837, 0.0735, -0.5809, 0.0109, 0.1094, -0.1237, 689, 155363, 0.0000, 0.0000, -0.9010, 0.0000
