time (s), accel_x (m/s^2), accel_y (m/s^2), accel_z (m/s^2), gyro_x (rad/s), gyro_y (rad/s), gyro_z (rad/s), x (m), y (m), z (m), yaw (rad), pitch (rad), roll (rad), mocap_counter, counter, desired x, desired y, desired z, desired yaw
0.0000, 0.6276, -0.6570, -9.5419, 0.0062, 0.0051, 0.0132, -0.0287, 0.0111, -0.0956, 0.3182, 0.0385, -0.0214, 150, 258797, 0.5000, 0.5000, -1.0000, 0.0000
0.0200, 0.6276, -0.6570, -9.5419, 0.0062, 0.0051, 0.0132, -0.0287, 0.0111, -0.0956, 0.3183, 0.0387, -0.0214, 151, 258797, 0.5000, 0.5000, -1.0000, 0.0000
0.0400, 0.6276, -0.6570, -9.5419, 0.0062, 0.0051, 0.0132, -0.0287, 0.0111, -0.0956, 0.3182, 0.0385, -0.0214, 152, 258797, 0.5000, 0.5000, -1.0000, 0.0000
0.0600, 0.6276, -0.6570, -9.5419, 0.0062, 0.0051, 0.0132, -0.0288, 0.0110, -0.0956, 0.3181, 0.0387, -0.0214, 153, 258797, 0.5000, 0.5000, -1.0000, 0.0000
0.0800, 0.6276, -0.6570, -9.5419, 0.0062, 0.0051, 0.0132, -0.0287, 0.0111, -0.0957, 0.3182, 0.0385, -0.0214, 154, 258797, 0.5000, 0.5000, -1.0000, 0.0000
0.1000, 0.6276, -0.6570, -9.5419, 0.0062, 0.0051, 0.0132, -0.0287, 0.0111, -0.0956, 0.3181, 0.0386, -0.0215, 155, 258797, 0.5000, 0.5000, -1.0000, 0.0000
0.1200, 0.6276, -0.6570, -9.5419, 0.0062, 0.0051, 0.0132, -0.0287, 0.0111, -0.0957, 0.3182, 0.0385, -0.0214, 156, 258797, 0.5000, 0.5000, -1.0000, 0.0000
0.1400, 0.6276, -0.6570, -9.5419, 0.0062, 0.0051, 0.0132, -0.0286, 0.0111, -0.0957, 0.3182, 0.0386, -0.0214, 157, 258797, 0.5000, 0.5000, -1.0000, 0.0000
0.1600, 0.6276, -0.6570, -9.5419, 0.0062, 0.0051, 0.0132, -0.0287, 0.0111, -0.0956, 0.3182, 0.0386, -0.0215, 158, 258797, 0.5000, 0.5000, -1.0000, 0.0000
0.1800, 0.6276, -0.6570, -9.5419, 0.0062, 0.0051, 0.0132, -0.0287, 0.0111, -0.0957, 0.3182, 0.0385, -0.0213, 159, 258797, 0.5000, 0.5000, -1.0000, 0.0000
0.2000, 0.6276, -0.6570, -9.5419, 0.0062, 0.0051, 0.0132, -0.0288, 0.0111, -0.0956, 0.3181, 0.0386, -0.0215, 160, 258797, 0.5000, 0.5000, -1.0000, 0.0000
0.2200, 0.6276, -0.6570, -9.5419, 0.0062, 0.0051, 0.0132, -0.0287, 0.0111, -0.0957, 0.3182, 0.0385, -0.0214, 161, 258797, 0.5000, 0.5000, -1.0000, 0.0000
0.2400, 0.6276, -0.6570, -9.5419, 0.0062, 0.0051, 0.0132, -0.0287, 0.0111, -0.0956, 0.3182, 0.0387, -0.0216, 162, 258797, 0.5000, 0.5000, -1.0000, 0.0000
0.2600, 0.6276, -0.6570, -9.5419, 0.0062, 0.0051, 0.0132, -0.0287, 0.0111, -0.0956, 0.3182, 0.0385, -0.0215, 163, 258797, 0.5000, 0.5000, -1.0000, 0.0000
0.2800, 0.6276, -0.6570, -9.5419, 0.0062, 0.0051, 0.0132, -0.0287, 0.0111, -0.0957, 0.3182, 0.0385, -0.0215, 164, 258797, 0.5000, 0.5000, -1.0000, 0.0000
0.3000, 0.6276, -0.6570, -9.5419, 0.0062, 0.0051, 0.0132, -0.0287, 0.0111, -0.0956, 0.3181, 0.0387, -0.0215, 165, 258797, 0.5000, 0.5000, -1.0000, 0.0000
0.3200, 0.6276, -0.6570, -9.5419, 0.0062, 0.0051, 0.0132, -0.0287, 0.0111, -0.0957, 0.3183, 0.0385, -0.0212, 166, 258797, 0.5000, 0.5000, -1.0000, 0.0000
0.3400, 0.6276, -0.6570, -9.5419, 0.0062, 0.0051, 0.0132, -0.0287, 0.0110, -0.0957, 0.3182, 0.0387, -0.0214, 167, 258797, 0.5000, 0.5000, -1.0000, 0.0000
0.3600, 0.6276, -0.6570, -9.5419, 0.0062, 0.0051, 0.0132, -0.0287, 0.0111, -0.0956, 0.3182, 0.0385, -0.0214, 168, 258797, 0.5000, 0.5000, -1.0000, 0.0000
0.3800, 0.6276, -0.6570, -9.5419, 0.0062, 0.0051, 0.0132, -0.0287, 0.0111, -0.0957, 0.3183, 0.0386, -0.0213, 169, 258797, 0.5000, 0.5000, -1.0000, 0.0000
0.4000, 0.6276, -0.6570, -9.5419, 0.0062, 0.0051, 0.0132, -0.0287, 0.0111, -0.0956, 0.3182, 0.0387, -0.0214, 170, 258797, 0.5000, 0.5000, -1.0000, 0.0000
0.4200, 0.6276, -0.6570, -9.5419, 0.0062, 0.0051, 0.0132, -0.0287, 0.0111, -0.0957, 0.3182, 0.0385, -0.0213, 171, 258797, 0.5000, 0.5000, -1.0000, 0.0000
0.4400, 0.6276, -0.6570, -9.5419, 0.0062, 0.0051, 0.0132, -0.0287, 0.0111, -0.0956, 0.3183, 0.0388, -0.0215, 172, 258797, 0.5000, 0.5000, -1.0000, 0.0000
0.4600, 0.6276, -0.6570, -9.5419, 0.0062, 0.0051, 0.0132, -0.0287, 0.0111, -0.0956, 0.3181, 0.0384, -0.0214, 173, 258797, 0.5000, 0.5000, -1.0000, 0.0000
0.4800, 0.6276, -0.6570, -9.5419, 0.0062, 0.0051, 0.0132, -0.0288, 0.0111, -0.0956, 0.3182, 0.0385, -0.0214, 174, 258797, 0.5000, 0.5000, -1.0000, 0.0000
0.5000, 0.6276, -0.6570, -9.5419, 0.0062, 0.0051, 0.0132, -0.0287, 0.0111, -0.0957, 0.3182, 0.0387, -0.0215, 175, 258797, 0.5000, 0.5000, -1.0000, 0.0000
0.5200, 0.6276, -0.6570, -9.5419, 0.0062, 0.0051, 0.0132, -0.0287, 0.0111, -0.0956, 0.3183, 0.0385, -0.0215, 176, 258797, 0.5000, 0.5000, -1.0000, 0.0000
0.5400, 0.6276, -0.6570, -9.5419, 0.0062, 0.0051, 0.0132, -0.0288, 0.0111, -0.0956, 0.3181, 0.0387, -0.0216, 177, 258797, 0.5000, 0.5000, -1.0000, 0.0000
0.5600, 0.6276, -0.6570, -9.5419, 0.0062, 0.0051, 0.0132, -0.0286, 0.0111, -0.0956, 0.3181, 0.0384, -0.0216, 178, 258797, 0.5000, 0.5000, -1.0000, 0.0000
0.5800, 0.6276, -0.6570, -9.5419, 0.0062, 0.0051, 0.0132, -0.0287, 0.0111, -0.0956, 0.3182, 0.0387, -0.0216, 179, 258797, 0.5000, 0.5000, -1.0000, 0.0000
0.6000, 0.6276, -0.6570, -9.5419, 0.0062, 0.0051, 0.0132, -0.0287, 0.0111, -0.0957, 0.3182, 0.0386, -0.0216, 180, 258797, 0.5000, 0.5000, -1.0000, 0.0000
0.6200, 0.6276, -0.6570, -9.5419, 0.0062, 0.0051, 0.0132, -0.0287, 0.0111, -0.0956, 0.3182, 0.0385, -0.0216, 181, 258797, 0.5000, 0.5000, -1.0000, 0.0000
0.6400, 0.6276, -0.6570, -9.5419, 0.0062, 0.0051, 0.0132, -0.0287, 0.0111, -0.0956, 0.3182, 0.0386, -0.0215, 182, 258797, 0.5000, 0.5000, -1.0000, 0.0000
0.6600, 0.6276, -0.6570, -9.5419, 0.0062, 0.0051, 0.0132, -0.0287, 0.0111, -0.0957, 0.3183, 0.0386, -0.0215, 183, 258797, 0.5000, 0.5000, -1.0000, 0.0000
0.6800, 0.6276, -0.6570, -9.5419, 0.0062, 0.0051, 0.0132, -0.0288, 0.0111, -0.0956, 0.3182, 0.0387, -0.0214, 184, 258797, 0.5000, 0.5000, -1.0000, 0.0000
0.7000, 0.6276, -0.6570, -9.5419, 0.0062, 0.0051, 0.0132, -0.0287, 0.0111, -0.0957, 0.3182, 0.0386, -0.0214, 185, 258797, 0.5000, 0.5000, -1.0000, 0.0000
0.7200, 0.6276, -0.6570, -9.5419, 0.0062, 0.0051, 0.0132, -0.0287, 0.0111, -0.0956, 0.3182, 0.0387, -0.0216, 186, 258797, 0.5000, 0.5000, -1.0000, 0.0000
0.7400, 0.6276, -0.6570, -9.5419, 0.0062, 0.0051, 0.0132, -0.0288, 0.0111, -0.0956, 0.3182, 0.0386, -0.0215, 187, 258797, 0.5000, 0.5000, -1.0000, 0.0000
0.7600, 0.6276, -0.6570, -9.5419, 0.0062, 0.0051, 0.0132, -0.0287, 0.0111, -0.0957, 0.3182, 0.0386, -0.0215, 188, 258797, 0.5000, 0.5000, -1.0000, 0.0000
0.7800, 0.6276, -0.6570, -9.5419, 0.0062, 0.0051, 0.0132, -0.0287, 0.0111, -0.0956, 0.3182, 0.0386, -0.0215, 189, 258797, 0.5000, 0.5000, -1.0000, 0.0000
0.8000, 0.6276, -0.6570, -9.5419, 0.0062, 0.0051, 0.0132, -0.0287, 0.0111, -0.0957, 0.3183, 0.0385, -0.0214, 190, 258797, 0.5000, 0.5000, -1.0000, 0.0000
0.8200, 0.6276, -0.6570, -9.5419, 0.0062, 0.0051, 0.0132, -0.0287, 0.0111, -0.0956, 0.3181, 0.0387, -0.0215, 191, 258797, 0.5000, 0.5000, -1.0000, 0.0000
0.8400, 0.6276, -0.6570, -9.5419, 0.0062, 0.0051, 0.0132, -0.0287, 0.0111, -0.0957, 0.3182, 0.0385, -0.0215, 192, 258797, 0.5000, 0.5000, -1.0000, 0.0000
0.8600, 0.6276, -0.6570, -9.5419, 0.0062, 0.0051, 0.0132, -0.0287, 0.0111, -0.0957, 0.3182, 0.0387, -0.0214, 193, 258797, 0.5000, 0.5000, -1.0000, 0.0000
0.8800, 0.6276, -0.6570, -9.5419, 0.0062, 0.0051, 0.0132, -0.0287, 0.0111, -0.0956, 0.3182, 0.0385, -0.0215, 194, 258797, 0.5000, 0.5000, -1.0000, 0.0000
0.9000, 0.6276, -0.6570, -9.5419, 0.0062, 0.0051, 0.0132, -0.0287, 0.0111, -0.0957, 0.3182, 0.0385, -0.0215, 195, 258797, 0.5000, 0.5000, -1.0000, 0.0000
0.9200, 0.6276, -0.6570, -9.5419, 0.0062, 0.0051, 0.0132, -0.0287, 0.0111, -0.0956, 0.3182, 0.0387, -0.0216, 196, 258797, 0.5000, 0.5000, -1.0000, 0.0000
0.9400, 0.6276, -0.6570, -9.5419, 0.0062, 0.0051, 0.0132, -0.0287, 0.0111, -0.0956, 0.3182, 0.0384, -0.0214, 197, 258797, 0.5000, 0.5000, -1.0000, 0.0000
0.9600, 0.6276, -0.6570, -9.5419, 0.0062, 0.0051, 0.0132, -0.0288, 0.0111, -0.0956, 0.3181, 0.0386, -0.0215, 198, 258797, 0.5000, 0.5000, -1.0000, 0.0000
0.9800, 0.6276, -0.6570, -9.5419, 0.0062, 0.0051, 0.0132, -0.0287, 0.0111, -0.0956, 0.3182, 0.0385, -0.0215, 199, 258797, 0.5000, 0.5000, -1.0000, 0.0000
1.0000, 0.6276, -0.6570, -9.5419, 0.0062, 0.0051, 0.0132, -0.0287, 0.0111, -0.0957, 0.3182, 0.0385, -0.0215, 200, 258797, 0.5000, 0.5000, -1.0000, 0.0000
1.0200, 0.6276, -0.6570, -9.5419, 0.0062, 0.0051, 0.0132, -0.0287, 0.0111, -0.0956, 0.3182, 0.0387, -0.0216, 201, 258797, 0.5000, 0.5000, -1.0000, 0.0000
1.0400, 0.6276, -0.6570, -9.5419, 0.0062, 0.0051, 0.0132, -0.0287, 0.0111, -0.0956, 0.3182, 0.0384, -0.0215, 202, 258797, 0.5000, 0.5000, -1.0000, 0.0000
1.0600, 0.6276, -0.6570, -9.5419, 0.0062, 0.0051, 0.0132, -0.0287, 0.0111, -0.0956, 0.3181, 0.0388, -0.0214, 203, 258797, 0.5000, 0.5000, -1.0000, 0.0000
1.0800, 0.6276, -0.6570, -9.5419, 0.0062, 0.0051, 0.0132, -0.0287, 0.0111, -0.0957, 0.3182, 0.0385, -0.0214, 204, 258797, 0.5000, 0.5000, -1.0000, 0.0000
1.1000, 0.6276, -0.6570, -9.5419, 0.0062, 0.0051, 0.0132, -0.0287, 0.0111, -0.0956, 0.3183, 0.0386, -0.0213, 205, 258797, 0.5000, 0.5000, -1.0000, 0.0000
1.1200, 0.6276, -0.6570, -9.5419, 0.0062, 0.0051, 0.0132, -0.0287, 0.0111, -0.0956, 0.3182, 0.0387, -0.0213, 206, 258797, 0.5000, 0.5000, -1.0000, 0.0000
1.1400, 0.6276, -0.6570, -9.5419, 0.0062, 0.0051, 0.0132, -0.0286, 0.0111, -0.0957, 0.3182, 0.0385, -0.0214, 207, 258797, 0.5000, 0.5000, -1.0000, 0.0000
1.1600, 0.6276, -0.6570, -9.5419, 0.0062, 0.0051, 0.0132, -0.0288, 0.0111, -0.0956, 0.3182, 0.0388, -0.0214, 208, 258797, 0.5000, 0.5000, -1.0000, 0.0000
1.1800, 0.6276, -0.6570, -9.5419, 0.0062, 0.0051, 0.0132, -0.0286, 0.0111, -0.0957, 0.3180, 0.0385, -0.0215, 209, 258797, 0.5000, 0.5000, -1.0000, 0.0000
1.2000, 0.6276, -0.6570, -9.5419, 0.0062, 0.0051, 0.0132, -0.0287, 0.0112, -0.0956, 0.3181, 0.0388, -0.0216, 210, 258797, 0.5000, 0.5000, -1.0000, 0.0000
1.2200, 0.6276, -0.6570, -9.5419, 0.0062, 0.0051, 0.0132, -0.0286, 0.0112, -0.0956, 0.3181, 0.0387, -0.0214, 211, 258797, 0.5000, 0.5000, -1.0000, 0.0000
1.2400, 0.6276, -0.6570, -9.5419, 0.0062, 0.0051, 0.0132, -0.0286, 0.0111, -0.0956, 0.3181, 0.0387, -0.0215, 212, 258797, 0.5000, 0.5000, -1.0000, 0.0000
1.2600, 0.6276, -0.6570, -9.5419, 0.0062, 0.0051, 0.0132, -0.0286, 0.0111, -0.0956, 0.3181, 0.0389, -0.0215, 213, 258797, 0.5000, 0.5000, -1.0000, 0.0000
1.2800, 0.6276, -0.6570, -9.5419, 0.0062, 0.0051, 0.0132, -0.0286, 0.0112, -0.0957, 0.3180, 0.0385, -0.0216, 214, 258797, 0.5000, 0.5000, -1.0000, 0.0000
1.3000, 0.6276, -0.6570, -9.5419, 0.0062, 0.0051, 0.0132, -0.0286, 0.0111, -0.0955, 0.3180, 0.0388, -0.0215, 215, 258797, 0.5000, 0.5000, -1.0000, 0.0000
1.3200, 0.6276, -0.6570, -9.5419, 0.0062, 0.0051, 0.0132, -0.0286, 0.0111, -0.0957, 0.3181, 0.0388, -0.0214, 216, 258797, 0.5000, 0.5000, -1.0000, 0.0000
1.3400, 0.6276, -0.6570, -9.5419, 0.0062, 0.0051, 0.0132, -0.0286, 0.0112, -0.0956, 0.3180, 0.0387, -0.0215, 217, 258797, 0.5000, 0.5000, -1.0000, 0.0000
1.3600, 0.6276, -0.6570, -9.5419, 0.0062, 0.0051, 0.0132, -0.0286, 0.0112, -0.0956, 0.3181, 0.0388, -0.0214, 218, 258797, 0.5000, 0.5000, -1.0000, 0.0000
1.3800, 0.6276, -0.6570, -9.5419, 0.0062, 0.0051, 0.0132, -0.0286, 0.0112, -0.0956, 0.3181, 0.0388, -0.0214, 219, 258797, 0.5000, 0.5000, -1.0000, 0.0000
1.4000, 0.6276, -0.6570, -9.5419, 0.0062, 0.0051, 0.0132, -0.0286, 0.0112, -0.0955, 0.3180, 0.0388, -0.0215, 220, 258797, 0.5000, 0.5000, -1.0000, 0.0000
1.4200, 0.6276, -0.6570, -9.5419, 0.0062, 0.0051, 0.0132, -0.0286, 0.0111, -0.0957, 0.3181, 0.0385, -0.0214, 221, 258797, 0.5000, 0.5000, -1.0000, 0.0000
1.4400, 0.6276, -0.6570, -9.5419, 0.0062, 0.0051, 0.0132, -0.0286, 0.0112, -0.0956, 0.3181, 0.0392, -0.0214, 222, 258797, 0.5000, 0.5000, -1.0000, 0.0000
1.4600, 0.6276, -0.6570, -9.5419, 0.0062, 0.0051, 0.0132, -0.0286, 0.0112, -0.0956, 0.3181, 0.0387, -0.0214, 223, 258797, 0.5000, 0.5000, -1.0000, 0.0000
1.4790, 0.6276, -0.6570, -9.5419, 0.0062, 0.0051, 0.0132, -0.0286, 0.0112, -0.0956, 0.3181, 0.0388, -0.0212, 224, 258797, 0.5000, 0.5000, -1.0000, 0.0000
1.5000, 0.6276, -0.6570, -9.5419, 0.0062, 0.0051, 0.0132, -0.0286, 0.0112, -0.0955, 0.3181, 0.0388, -0.0213, 225, 258797, 0.5000, 0.5000, -1.0000, 0.0000
1.5200, 0.6276, -0.6570, -9.5419, 0.0062, 0.0051, 0.0132, -0.0286, 0.0112, -0.0956, 0.3180, 0.0387, -0.0213, 226, 258797, 0.5000, 0.5000, -1.0000, 0.0000
1.5400, 0.6276, -0.6570, -9.5419, 0.0062, 0.0051, 0.0132, -0.0285, 0.0112, -0.0956, 0.3182, 0.0388, -0.0210, 227, 258797, 0.5000, 0.5000, -1.0000, 0.0000
1.5600, 0.6276, -0.6570, -9.5419, 0.0062, 0.0051, 0.0132, -0.0285, 0.0112, -0.0956, 0.3183, 0.0384, -0.0211, 228, 258797, 0.5000, 0.5000, -1.0000, 0.0000
1.5790, 0.6276, -0.6570, -9.5419, 0.0062, 0.0051, 0.0132, -0.0285, 0.0112, -0.0957, 0.3176, 0.0388, -0.0215, 229, 258797, 0.5000, 0.5000, -1.0000, 0.0000
1.6000, 0.6276, -0.6570, -9.5419, 0.0062, 0.0051, 0.0132, -0.0285, 0.0112, -0.0955, 0.3179, 0.0384, -0.0211, 230, 258797, 0.5000, 0.5000, -1.0000, 0.0000
1.6200, 0.6276, -0.6570, -9.5419, 0.0062, 0.0051, 0.0132, -0.0286, 0.0113, -0.0956, 0.3180, 0.0382, -0.0215, 231, 258797, 0.5000, 0.5000, -1.0000, 0.0000
1.6390, 0.6276, -0.6570, -9.5419, 0.0062, 0.0051, 0.0132, -0.0286, 0.0112, -0.0957, 0.3183, 0.0390, -0.0213, 232, 258797, 0.5000, 0.5000, -1.0000, 0.0000
1.6590, 0.6276, -0.6570, -9.5419, 0.0062, 0.0051, 0.0132, -0.0285, 0.0112, -0.0956, 0.3178, 0.0381, -0.0216, 233, 258797, 0.5000, 0.5000, -1.0000, 0.0000
1.6790, 0.6276, -0.6570, -9.5419, 0.0062, 0.0051, 0.0132, -0.0287, 0.0112, -0.0957, 0.3176, 0.0386, -0.0214, 234, 258797, 0.5000, 0.5000, -1.0000, 0.0000
1.7000, 0.6276, -0.6570, -9.5419, 0.0062, 0.0051, 0.0132, -0.0285, 0.0113, -0.0956, 0.3177, 0.0384, -0.0211, 235, 258797, 0.5000, 0.5000, -1.0000, 0.0000
1.7190, 0.6276, -0.6570, -9.5419, 0.0062, 0.0051, 0.0132, -0.0285, 0.0112, -0.0956, 0.3181, 0.0384, -0.0211, 236, 258797, 0.5000, 0.5000, -1.0000, 0.0000
1.7390, 0.6276, -0.6570, -9.5419, 0.0062, 0.0051, 0.0132, -0.0285, 0.0112, -0.0956, 0.3182, 0.0385, -0.0217, 237, 258797, 0.5000, 0.5000, -1.0000, 0.0000
1.7590, 0.6276, -0.6570, -9.5419, 0.0062, 0.0051, 0.0132, -0.0285, 0.0112, -0.0956, 0.3180, 0.0385, -0.0216, 238, 258797, 0.5000, 0.5000, -1.0000, 0.0000
1.7790, 0.6276, -0.6570, -9.5419, 0.0062, 0.0051, 0.0132, -0.0286, 0.0112, -0.0956, 0.3179, 0.0386, -0.0214, 239, 258797, 0.5000, 0.5000, -1.0000, 0.0000
1.8030, 0.6276, -0.6570, -9.5419, 0.0062, 0.0051, 0.0132, -0.0285, 0.0112, -0.0957, 0.3179, 0.0385, -0.0215, 240, 258797, 0.5000, 0.5000, -1.0000, 0.0000
1.8230, 0.6276, -0.6570, -9.5419, 0.0062, 0.0051, 0.0132, -0.0286, 0.0111, -0.0956, 0.3180, 0.0384, -0.0216, 241, 258797, 0.5000, 0.5000, -1.0000, 0.0000
1.8430, 0.6276, -0.6570, -9.5419, 0.0062, 0.0051, 0.0132, -0.0285, 0.0112, -0.0957, 0.3180, 0.0386, -0.0218, 242, 258797, 0.5000, 0.5000, -1.0000, 0.0000
1.8630, 0.6276, -0.6570, -9.5419, 0.0062, 0.0051, 0.0132, -0.0285, 0.0111, -0.0956, 0.3181, 0.0384, -0.0216, 243, 258797, 0.5000, 0.5000, -1.0000, 0.0000
1.8830, 0.6276, -0.6570, -9.5419, 0.0062, 0.0051, 0.0132, -0.0286, 0.0112, -0.0956, 0.3179, 0.0388, -0.0219, 244, 258797, 0.5000, 0.5000, -1.0000, 0.0000
1.9030, 0.6276, -0.6570, -9.5419, 0.0062, 0.0051, 0.0132, -0.0285, 0.0111, -0.0957, 0.3181, 0.0385, -0.0215, 245, 258797, 0.5000, 0.5000, -1.0000, 0.0000
1.9230, 0.6276, -0.6570, -9.5419, 0.0062, 0.0051, 0.0132, -0.0286, 0.0112, -0.0956, 0.3180, 0.0389, -0.0219, 246, 258797, 0.5000, 0.5000, -1.0000, 0.0000
1.9430, 0.6276, -0.6570, -9.5419, 0.0062, 0.0051, 0.0132, -0.0285, 0.0112, -0.0957, 0.3183, 0.0385, -0.0212, 247, 258797, 0.5000, 0.5000, -1.0000, 0.0000
1.9630, 0.6276, -0.6570, -9.5419, 0.0062, 0.0051, 0.0132, -0.0285, 0.0112, -0.0956, 0.3180, 0.0387, -0.0219, 248, 258797, 0.5000, 0.5000, -1.0000, 0.0000
1.9830, 0.6276, -0.6570, -9.5419, 0.0062, 0.0051, 0.0132, -0.0286, 0.0112, -0.0956, 0.3181, 0.0385, -0.0216, 249, 258797, 0.5000, 0.5000, -1.0000, 0.0000
2.0030, 0.6276, -0.6570, -9.5419, 0.0062, 0.0051, 0.0132, -0.0285, 0.0112, -0.0957, 0.3178, 0.0387, -0.0219, 250, 258797, 0.5000, 0.5000, -1.0000, 0.0000
2.0230, 0.6276, -0.6570, -9.5419, 0.0062, 0.0051, 0.0132, -0.0286, 0.0112, -0.0956, 0.3180, 0.0387, -0.0217, 251, 258797, 0.5000, 0.5000, -1.0000, 0.0000
2.0430, 0.6276, -0.6570, -9.5419, 0.0062, 0.0051, 0.0132, -0.0285, 0.0112, -0.0958, 0.3180, 0.0386, -0.0213, 252, 258797, 0.5000, 0.5000, -1.0000, 0.0000
2.0630, 0.6276, -0.6570, -9.5419, 0.0062, 0.0051, 0.0132, -0.0286, 0.0112, -0.0957, 0.3180, 0.0387, -0.0215, 253, 258797, 0.5000, 0.5000, -1.0000, 0.0000
2.0830, 0.6276, -0.6570, -9.5419, 0.0062, 0.0051, 0.0132, -0.0285, 0.0113, -0.0957, 0.3179, 0.0384, -0.0214, 254, 258797, 0.5000, 0.5000, -1.0000, 0.0000
2.1030, 0.6276, -0.6570, -9.5419, 0.0062, 0.0051, 0.0132, -0.0285, 0.0112, -0.0957, 0.3179, 0.0385, -0.0214, 255, 258797, 0.5000, 0.5000, -1.0000, 0.0000
2.1230, 0.6276, -0.6570, -9.5419, 0.0062, 0.0051, 0.0132, -0.0286, 0.0112, -0.0956, 0.3177, 0.0387, -0.0214, 256, 258797, 0.5000, 0.5000, -1.0000, 0.0000
2.1430, 0.6276, -0.6570, -9.5419, 0.0062, 0.0051, 0.0132, -0.0286, 0.0112, -0.0957, 0.3181, 0.0385, -0.0215, 257, 258797, 0.5000, 0.5000, -1.0000, 0.0000
2.1630, 0.6276, -0.6570, -9.5419, 0.0062, 0.0051, 0.0132, -0.0285, 0.0112, -0.0957, 0.3182, 0.0391, -0.0214, 258, 258797, 0.5000, 0.5000, -1.0000, 0.0000
2.1830, 0.6276, -0.6570, -9.5419, 0.0062, 0.0051, 0.0132, -0.0285, 0.0113, -0.0956, 0.3180, 0.0383, -0.0219, 259, 258797, 0.5000, 0.5000, -1.0000, 0.0000
2.2030, 0.6276, -0.6570, -9.5419, 0.0062, 0.0051, 0.0132, -0.0286, 0.0111, -0.0957, 0.3181, 0.0385, -0.0215, 260, 258797, 0.5000, 0.5000, -1.0000, 0.0000
2.2230, 0.6276, -0.6570, -9.5419, 0.0062, 0.0051, 0.0132, -0.0285, 0.0113, -0.0957, 0.3177, 0.0385, -0.0210, 261, 258797, 0.5000, 0.5000, -1.0000, 0.0000
2.2430, 0.6276, -0.6570, -9.5419, 0.0062, 0.0051, 0.0132, -0.0286, 0.0112, -0.0957, 0.3179, 0.0383, -0.0211, 262, 258797, 0.5000, 0.5000, -1.0000, 0.0000
2.2630, 0.6276, -0.6570, -9.5419, 0.0062, 0.0051, 0.0132, -0.0286, 0.0112, -0.0956, 0.3179, 0.0390, -0.0215, 263, 258797, 0.5000, 0.5000, -1.0000, 0.0000
2.2830, 0.6276, -0.6570, -9.5419, 0.0062, 0.0051, 0.0132, -0.0285, 0.0112, -0.0956, 0.3182, 0.0386, -0.0214, 264, 258797, 0.5000, 0.5000, -1.0000, 0.0000
2.3030, 0.6276, -0.6570, -9.5419, 0.0062, 0.0051, 0.0132, -0.0286, 0.0113, -0.0957, 0.3180, 0.0388, -0.0219, 265, 258797, 0.5000, 0.5000, -1.0000, 0.0000
2.3230, 0.6276, -0.6570, -9.5419, 0.0062, 0.0051, 0.0132, -0.0285, 0.0112, -0.0956, 0.3181, 0.0387, -0.0217, 266, 258797, 0.5000, 0.5000, -1.0000, 0.0000
2.3430, 0.6276, -0.6570, -9.5419, 0.0062, 0.0051, 0.0132, -0.0285, 0.0112, -0.0958, 0.3179, 0.0385, -0.0212, 267, 258797, 0.5000, 0.5000, -1.0000, 0.0000
2.3630, 0.6276, -0.6570, -9.5419, 0.0062, 0.0051, 0.0132, -0.0286, 0.0112, -0.0957, 0.3180, 0.0388, -0.0212, 268, 258797, 0.5000, 0.5000, -1.0000, 0.0000
2.3830, 0.6276, -0.6570, -9.5419, 0.0062, 0.0051, 0.0132, -0.0285, 0.0112, -0.0956, 0.3180, 0.0386, -0.0216, 269, 258797, 0.5000, 0.5000, -1.0000, 0.0000
2.4030, 0.6276, -0.6570, -9.5419, 0.0062, 0.0051, 0.0132, -0.0286, 0.0112, -0.0957, 0.3182, 0.0389, -0.0216, 270, 258797, 0.5000, 0.5000, -1.0000, 0.0000
2.4230, 0.6276, -0.6570, -9.5419, 0.0062, 0.0051, 0.0132, -0.0285, 0.0112, -0.0957, 0.3181, 0.0387, -0.0219, 271, 258797, 0.5000, 0.5000, -1.0000, 0.0000
2.4430, 0.6276, -0.6570, -9.5419, 0.0062, 0.0051, 0.0132, -0.0286, 0.0112, -0.0957, 0.3181, 0.0386, -0.0218, 272, 258797, 0.5000, 0.5000, -1.0000, 0.0000
2.4630, 0.6276, -0.6570, -9.5419, 0.0062, 0.0051, 0.0132, -0.0286, 0.0112, -0.0957, 0.3179, 0.0386, -0.0215, 273, 258797, 0.5000, 0.5000, -1.0000, 0.0000
2.4830, 0.6276, -0.6570, -9.5419, 0.0062, 0.0051, 0.0132, -0.0285, 0.0113, -0.0958, 0.3180, 0.0386, -0.0216, 274, 258797, 0.5000, 0.5000, -1.0000, 0.0000
2.5030, 0.6276, -0.6570, -9.5419, 0.0062, 0.0051, 0.0132, -0.0286, 0.0112, -0.0956, 0.3180, 0.0387, -0.0217, 275, 258797, 0.5000, 0.5000, -1.0000, 0.0000
2.5230, 0.6276, -0.6570, -9.5419, 0.0062, 0.0051, 0.0132, -0.0285, 0.0112, -0.0957, 0.3181, 0.0389, -0.0220, 276, 258797, 0.5000, 0.5000, -1.0000, 0.0000
2.5430, 0.6276, -0.6570, -9.5419, 0.0062, 0.0051, 0.0132, -0.0285, 0.0112, -0.0956, 0.3180, 0.0389, -0.0221, 277, 258797, 0.5000, 0.5000, -1.0000, 0.0000
2.5630, 0.6276, -0.6570, -9.5419, 0.0062, 0.0051, 0.0132, -0.0285, 0.0112, -0.0957, 0.3180, 0.0388, -0.0214, 278, 258797, 0.5000, 0.5000, -1.0000, 0.0000
2.5830, 0.6276, -0.6570, -9.5419, 0.0062, 0.0051, 0.0132, -0.0285, 0.0112, -0.0957, 0.3179, 0.0385, -0.0215, 279, 258797, 0.5000, 0.5000, -1.0000, 0.0000
2.6030, 0.6276, -0.6570, -9.5419, 0.0062, 0.0051, 0.0132, -0.0286, 0.0112, -0.0957, 0.3179, 0.0385, -0.0216, 280, 258797, 0.5000, 0.5000, -1.0000, 0.0000
2.6230, 0.6276, -0.6570, -9.5419, 0.0062, 0.0051, 0.0132, -0.0285, 0.0112, -0.0957, 0.3180, 0.0386, -0.0215, 281, 258797, 0.5000, 0.5000, -1.0000, 0.0000
2.6430, 0.6276, -0.6570, -9.5419, 0.0062, 0.0051, 0.0132, -0.0285, 0.0112, -0.0956, 0.3178, 0.0387, -0.0222, 282, 258797, 0.5000, 0.5000, -1.0000, 0.0000
2.6630, 0.6276, -0.6570, -9.5419, 0.0062, 0.0051, 0.0132, -0.0285, 0.0112, -0.0960, 0.3181, 0.0385, -0.0224, 283, 258797, 0.5000, 0.5000, -1.0000, 0.0000
2.6830, 0.6276, -0.6570, -9.5419, 0.0062, 0.0051, 0.0132, -0.0285, 0.0112, -0.0960, 0.3180, 0.0384, -0.0233, 284, 258797, 0.5000, 0.5000, -1.0000, 0.0000
2.7030, 0.6276, -0.6570, -9.5419, 0.0062, 0.0051, 0.0132, -0.0284, 0.0112, -0.0967, 0.3183, 0.0367, -0.0248, 285, 258797, 0.5000, 0.5000, -1.0000, 0.0000
2.7230, 0.6276, -0.6570, -9.5419, 0.0062, 0.0051, 0.0132, -0.0283, 0.0112, -0.0979, 0.3180, 0.0342, -0.0282, 286, 258797, 0.5000, 0.5000, -1.0000, 0.0000
2.7430, 0.6276, -0.6570, -9.5419, 0.0062, 0.0051, 0.0132, -0.0281, 0.0113, -0.0984, 0.3161, 0.0307, -0.0282, 287, 258797, 0.5000, 0.5000, -1.0000, 0.0000
2.7630, 0.6276, -0.6570, -9.5419, 0.0062, 0.0051, 0.0132, -0.0278, 0.0122, -0.0995, 0.3115, 0.0212, -0.0263, 288, 258797, 0.5000, 0.5000, -1.0000, 0.0000
2.7830, 0.6276, -0.6570, -9.5419, 0.0062, 0.0051, 0.0132, -0.0279, 0.0137, -0.1017, 0.3027, 0.0078, -0.0205, 289, 258797, 0.5000, 0.5000, -1.0000, 0.0000
2.8030, 0.6276, -0.6570, -9.5419, 0.0062, 0.0051, 0.0132, -0.0277, 0.0159, -0.1055, 0.2932, -0.0105, -0.0163, 290, 258797, 0.5000, 0.5000, -1.0000, 0.0000
2.8230, 0.6276, -0.6570, -9.5419, 0.0062, 0.0051, 0.0132, -0.0277, 0.0186, -0.1118, 0.2826, -0.0328, -0.0152, 291, 258797, 0.5000, 0.5000, -1.0000, 0.0000
2.8430, 0.6276, -0.6570, -9.5419, 0.0062, 0.0051, 0.0132, -0.0276, 0.0220, -0.1194, 0.2718, -0.0539, -0.0156, 292, 258797, 0.5000, 0.5000, -1.0000, 0.0000
2.8630, 0.6276, -0.6570, -9.5419, 0.0062, 0.0051, 0.0132, -0.0277, 0.0260, -0.1292, 0.2607, -0.0721, -0.0160, 293, 258797, 0.5000, 0.5000, -1.0000, 0.0000
2.8830, 0.6276, -0.6570, -9.5419, 0.0062, 0.0051, 0.0132, -0.0275, 0.0306, -0.1403, 0.2495, -0.0879, -0.0155, 294, 258797, 0.5000, 0.5000, -1.0000, 0.0000
2.9030, 0.6276, -0.6570, -9.5419, 0.0062, 0.0051, 0.0132, -0.0271, 0.0356, -0.1526, 0.2387, -0.1022, -0.0161, 295, 258797, 0.5000, 0.5000, -1.0000, 0.0000
2.9230, 0.6276, -0.6570, -9.5419, 0.0062, 0.0051, 0.0132, -0.0266, 0.0411, -0.1661, 0.2275, -0.1143, -0.0187, 296, 258797, 0.5000, 0.5000, -1.0000, 0.0000
2.9430, 0.6276, -0.6570, -9.5419, 0.0062, 0.0051, 0.0132, -0.0257, 0.0472, -0.1804, 0.2165, -0.1255, -0.0193, 297, 258797, 0.5000, 0.5000, -1.0000, 0.0000
2.9630, 0.6276, -0.6570, -9.5419, 0.0062, 0.0051, 0.0132, -0.0244, 0.0538, -0.1951, 0.2057, -0.1365, -0.0211, 298, 258797, 0.5000, 0.5000, -1.0000, 0.0000
2.9830, 0.6276, -0.6570, -9.5419, 0.0062, 0.0051, 0.0132, -0.0229, 0.0609, -0.2106, 0.1951, -0.1453, -0.0231, 299, 258797, 0.5000, 0.5000, -1.0000, 0.0000
3.0030, 0.6276, -0.6570, -9.5419, 0.0062, 0.0051, 0.0132, -0.0207, 0.0686, -0.2264, 0.1847, -0.1537, -0.0251, 300, 258797, 0.5000, 0.5000, -1.0000, 0.0000
3.0230, 0.6276, -0.6570, -9.5419, 0.0062, 0.0051, 0.0132, -0.0183, 0.0765, -0.2425, 0.1750, -0.1593, -0.0279, 301, 258797, 0.5000, 0.5000, -1.0000, 0.0000
3.0430, 0.6276, -0.6570, -9.5419, 0.0062, 0.0051, 0.0132, -0.0154, 0.0851, -0.2592, 0.1655, -0.1632, -0.0309, 302, 258797, 0.5000, 0.5000, -1.0000, 0.0000
3.0630, 0.6276, -0.6570, -9.5419, 0.0062, 0.0051, 0.0132, -0.0119, 0.0940, -0.2758, 0.1560, -0.1659, -0.0349, 303, 258797, 0.5000, 0.5000, -1.0000, 0.0000
3.0830, 0.6276, -0.6570, -9.5419, 0.0062, 0.0051, 0.0132, -0.0081, 0.1033, -0.2927, 0.1470, -0.1679, -0.0383, 304, 258797, 0.5000, 0.5000, -1.0000, 0.0000
3.1030, 0.6276, -0.6570, -9.5419, 0.0062, 0.0051, 0.0132, -0.0036, 0.1127, -0.3100, 0.1385, -0.1687, -0.0430, 305, 258797, 0.5000, 0.5000, -1.0000, 0.0000
3.1230, 0.6276, -0.6570, -9.5419, 0.0062, 0.0051, 0.0132, 0.0012, 0.1226, -0.3275, 0.1302, -0.1684, -0.0487, 306, 258797, 0.5000, 0.5000, -1.0000, 0.0000
3.1430, 0.6276, -0.6570, -9.5419, 0.0062, 0.0051, 0.0132, 0.0066, 0.1326, -0.3453, 0.1223, -0.1676, -0.0537, 307, 258797, 0.5000, 0.5000, -1.0000, 0.0000
3.1630, 0.6276, -0.6570, -9.5419, 0.0062, 0.0051, 0.0132, 0.0122, 0.1431, -0.3628, 0.1149, -0.1649, -0.0594, 308, 258797, 0.5000, 0.5000, -1.0000, 0.0000
3.1830, 0.6276, -0.6570, -9.5419, 0.0062, 0.0051, 0.0132, 0.0183, 0.1535, -0.3801, 0.1078, -0.1626, -0.0643, 309, 258797, 0.5000, 0.5000, -1.0000, 0.0000
3.2030, 0.6276, -0.6570, -9.5419, 0.0062, 0.0051, 0.0132, 0.0250, 0.1643, -0.3973, 0.1011, -0.1594, -0.0706, 310, 258797, 0.5000, 0.5000, -1.0000, 0.0000
3.2230, 0.6276, -0.6570, -9.5419, 0.0062, 0.0051, 0.0132, 0.0322, 0.1751, -0.4138, 0.0946, -0.1556, -0.0759, 311, 258797, 0.5000, 0.5000, -1.0000, 0.0000
3.2430, 0.6276, -0.6570, -9.5419, 0.0062, 0.0051, 0.0132, 0.0396, 0.1860, -0.4297, 0.0891, -0.1504, -0.0820, 312, 258797, 0.5000, 0.5000, -1.0000, 0.0000
3.2630, 0.6276, -0.6570, -9.5419, 0.0062, 0.0051, 0.0132, 0.0474, 0.1971, -0.4447, 0.0829, -0.1444, -0.0903, 313, 258797, 0.5000, 0.5000, -1.0000, 0.0000
3.2830, 0.6276, -0.6570, -9.5419, 0.0062, 0.0051, 0.0132, 0.0556, 0.2080, -0.4592, 0.0774, -0.1390, -0.0980, 314, 258797, 0.5000, 0.5000, -1.0000, 0.0000
3.3030, 0.6276, -0.6570, -9.5419, 0.0062, 0.0051, 0.0132, 0.0643, 0.2192, -0.4730, 0.0726, -0.1330, -0.1035, 315, 258797, 0.5000, 0.5000, -1.0000, 0.0000
3.3230, 0.6276, -0.6570, -9.5419, 0.0062, 0.0051, 0.0132, 0.0730, 0.2303, -0.4865, 0.0681, -0.1269, -0.1084, 316, 258797, 0.5000, 0.5000, -1.0000, 0.0000
3.3430, 0.6276, -0.6570, -9.5419, 0.0062, 0.0051, 0.0132, 0.0824, 0.2414, -0.4995, 0.0632, -0.1214, -0.1131, 317, 258797, 0.5000, 0.5000, -1.0000, 0.0000
3.3630, 0.6276, -0.6570, -9.5419, 0.0062, 0.0051, 0.0132, 0.0919, 0.2524, -0.5120, 0.0598, -0.1148, -0.1184, 318, 258797, 0.5000, 0.5000, -1.0000, 0.0000
3.3830, 0.6276, -0.6570, -9.5419, 0.0062, 0.0051, 0.0132, 0.1018, 0.2634, -0.5243, 0.0562, -0.1077, -0.1228, 319, 258797, 0.5000, 0.5000, -1.0000, 0.0000
3.4030, 0.6276, -0.6570, -9.5419, 0.0062, 0.0051, 0.0132, 0.1119, 0.2744, -0.5362, 0.0528, -0.1001, -0.1274, 320, 258797, 0.5000, 0.5000, -1.0000, 0.0000
3.4230, 0.6276, -0.6570, -9.5419, 0.0062, 0.0051, 0.0132, 0.1221, 0.2853, -0.5478, 0.0500, -0.0923, -0.1322, 321, 258797, 0.5000, 0.5000, -1.0000, 0.0000
3.4430, 0.6276, -0.6570, -9.5419, 0.0062, 0.0051, 0.0132, 0.1327, 0.2960, -0.5594, 0.0476, -0.0847, -0.1364, 322, 258797, 0.5000, 0.5000, -1.0000, 0.0000
3.4630, 0.6276, -0.6570, -9.5419, 0.0062, 0.0051, 0.0132, 0.1435, 0.3065, -0.5709, 0.0449, -0.0777, -0.1409, 323, 258797, 0.5000, 0.5000, -1.0000, 0.0000
3.4830, 0.6276, -0.6570, -9.5419, 0.0062, 0.0051, 0.0132, 0.1542, 0.3168, -0.5823, 0.0427, -0.0702, -0.1452, 324, 258797, 0.5000, 0.5000, -1.0000, 0.0000
3.5030, 0.6276, -0.6570, -9.5419, 0.0062, 0.0051, 0.0132, 0.1651, 0.3269, -0.5940, 0.0404, -0.0628, -0.1489, 325, 258797, 0.5000, 0.5000, -1.0000, 0.0000
3.5230, 0.6276, -0.6570, -9.5419, 0.0062, 0.0051, 0.0132, 0.1760, 0.3369, -0.6053, 0.0390, -0.0552, -0.1525, 326, 258797, 0.5000, 0.5000, -1.0000, 0.0000
3.5430, 0.6276, -0.6570, -9.5419, 0.0062, 0.0051, 0.0132, 0.1870, 0.3467, -0.6167, 0.0368, -0.0472, -0.1556, 327, 258797, 0.5000, 0.5000, -1.0000, 0.0000
3.5630, 0.6276, -0.6570, -9.5419, 0.0062, 0.0051, 0.0132, 0.1981, 0.3562, -0.6279, 0.0355, -0.0396, -0.1579, 328, 258797, 0.5000, 0.5000, -1.0000, 0.0000
3.5830, 0.6276, -0.6570, -9.5419, 0.0062, 0.0051, 0.0132, 0.2092, 0.3655, -0.6388, 0.0341, -0.0321, -0.1605, 329, 258797, 0.5000, 0.5000, -1.0000, 0.0000
3.6030, 0.6276, -0.6570, -9.5419, 0.0062, 0.0051, 0.0132, 0.2202, 0.3746, -0.6495, 0.0330, -0.0247, -0.1630, 330, 258797, 0.5000, 0.5000, -1.0000, 0.0000
3.6230, 0.6276, -0.6570, -9.5419, 0.0062, 0.0051, 0.0132, 0.2311, 0.3835, -0.6601, 0.0317, -0.0175, -0.1654, 331, 258797, 0.5000, 0.5000, -1.0000, 0.0000
3.6430, 0.6276, -0.6570, -9.5419, 0.0062, 0.0051, 0.0132, 0.2422, 0.3921, -0.6702, 0.0306, -0.0117, -0.1676, 332, 258797, 0.5000, 0.5000, -1.0000, 0.0000
3.6630, 0.6276, -0.6570, -9.5419, 0.0062, 0.0051, 0.0132, 0.2531, 0.4004, -0.6802, 0.0297, -0.0056, -0.1695, 333, 258797, 0.5000, 0.5000, -1.0000, 0.0000
3.6830, 0.6276, -0.6570, -9.5419, 0.0062, 0.0051, 0.0132, 0.2639, 0.4084, -0.6898, 0.0287, 0.0010, -0.1713, 334, 258797, 0.5000, 0.5000, -1.0000, 0.0000
3.7030, 0.6276, -0.6570, -9.5419, 0.0062, 0.0051, 0.0132, 0.2746, 0.4163, -0.6992, 0.0274, 0.0065, -0.1721, 335, 258797, 0.5000, 0.5000, -1.0000, 0.0000
3.7230, 0.6276, -0.6570, -9.5419, 0.0062, 0.0051, 0.0132, 0.2851, 0.4238, -0.7085, 0.0270, 0.0120, -0.1729, 336, 258797, 0.5000, 0.5000, -1.0000, 0.0000
3.7430, 0.6276, -0.6570, -9.5419, 0.0062, 0.0051, 0.0132, 0.2955, 0.4310, -0.7174, 0.0263, 0.0175, -0.1743, 337, 258797, 0.5000, 0.5000, -1.0000, 0.0000
3.7630, 0.6276, -0.6570, -9.5419, 0.0062, 0.0051, 0.0132, 0.3056, 0.4380, -0.7263, 0.0253, 0.0226, -0.1747, 338, 258797, 0.5000, 0.5000, -1.0000, 0.0000
3.7840, 0.6276, -0.6570, -9.5419, 0.0062, 0.0051, 0.0132, 0.3154, 0.4447, -0.7352, 0.0245, 0.0269, -0.1747, 339, 258797, 0.5000, 0.5000, -1.0000, 0.0000
3.8040, 0.6276, -0.6570, -9.5419, 0.0062, 0.0051, 0.0132, 0.3250, 0.4511, -0.7440, 0.0233, 0.0310, -0.1744, 340, 258797, 0.5000, 0.5000, -1.0000, 0.0000
3.8240, 0.6276, -0.6570, -9.5419, 0.0062, 0.0051, 0.0132, 0.3343, 0.4573, -0.7528, 0.0229, 0.0346, -0.1743, 341, 258797, 0.5000, 0.5000, -1.0000, 0.0000
3.8440, 0.6276, -0.6570, -9.5419, 0.0062, 0.0051, 0.0132, 0.3434, 0.4632, -0.7613, 0.0221, 0.0384, -0.1743, 342, 258797, 0.5000, 0.5000, -1.0000, 0.0000
3.8640, 0.6276, -0.6570, -9.5419, 0.0062, 0.0051, 0.0132, 0.3521, 0.4687, -0.7699, 0.0214, 0.0423, -0.1740, 343, 258797, 0.5000, 0.5000, -1.0000, 0.0000
3.8840, 0.6276, -0.6570, -9.5419, 0.0062, 0.0051, 0.0132, 0.3605, 0.4740, -0.7784, 0.0204, 0.0450, -0.1737, 344, 258797, 0.5000, 0.5000, -1.0000, 0.0000
3.9040, 0.6276, -0.6570, -9.5419, 0.0062, 0.0051, 0.0132, 0.3688, 0.4791, -0.7865, 0.0198, 0.0480, -0.1730, 345, 258797, 0.5000, 0.5000, -1.0000, 0.0000
3.9240, 0.6276, -0.6570, -9.5419, 0.0062, 0.0051, 0.0132, 0.3765, 0.4839, -0.7945, 0.0195, 0.0505, -0.1726, 346, 258797, 0.5000, 0.5000, -1.0000, 0.0000
3.9440, 0.6276, -0.6570, -9.5419, 0.0062, 0.0051, 0.0132, 0.3841, 0.4885, -0.8024, 0.0181, 0.0526, -0.1713, 347, 258797, 0.5000, 0.5000, -1.0000, 0.0000
3.9640, 0.6276, -0.6570, -9.5419, 0.0062, 0.0051, 0.0132, 0.3914, 0.4927, -0.8098, 0.0176, 0.0539, -0.1707, 348, 258797, 0.5000, 0.5000, -1.0000, 0.0000
3.9840, 0.6276, -0.6570, -9.5419, 0.0062, 0.0051, 0.0132, 0.3984, 0.4968, -0.8171, 0.0169, 0.0550, -0.1692, 349, 258797, 0.5000, 0.5000, -1.0000, 0.0000
4.0040, 0.6276, -0.6570, -9.5419, 0.0062, 0.0051, 0.0132, 0.4051, 0.5006, -0.8241, 0.0161, 0.0563, -0.1677, 350, 258797, 0.5000, 0.5000, -1.0000, 0.0000
4.0240, 0.6276, -0.6570, -9.5419, 0.0062, 0.0051, 0.0132, 0.4114, 0.5042, -0.8308, 0.0154, 0.0571, -0.1665, 351, 258797, 0.5000, 0.5000, -1.0000, 0.0000
4.0440, 0.6276, -0.6570, -9.5419, 0.0062, 0.0051, 0.0132, 0.4175, 0.5076, -0.8374, 0.0147, 0.0570, -0.1648, 352, 258797, 0.5000, 0.5000, -1.0000, 0.0000
4.0640, 0.6276, -0.6570, -9.5419, 0.0062, 0.0051, 0.0132, 0.4233, 0.5107, -0.8438, 0.0140, 0.0573, -0.1633, 353, 258797, 0.5000, 0.5000, -1.0000, 0.0000
4.0840, 0.6276, -0.6570, -9.5419, 0.0062, 0.0051, 0.0132, 0.4287, 0.5136, -0.8500, 0.0133, 0.0573, -0.1619, 354, 258797, 0.5000, 0.5000, -1.0000, 0.0000
4.1040, 0.6276, -0.6570, -9.5419, 0.0062, 0.0051, 0.0132, 0.4337, 0.5163, -0.8561, 0.0126, 0.0569, -0.1610, 355, 258797, 0.5000, 0.5000, -1.0000, 0.0000
4.1240, 0.6276, -0.6570, -9.5419, 0.0062, 0.0051, 0.0132, 0.4384, 0.5189, -0.8620, 0.0119, 0.0557, -0.1601, 356, 258797, 0.5000, 0.5000, -1.0000, 0.0000
4.1440, 0.6276, -0.6570, -9.5419, 0.0062, 0.0051, 0.0132, 0.4429, 0.5211, -0.8680, 0.0109, 0.0548, -0.1588, 357, 258797, 0.5000, 0.5000, -1.0000, 0.0000
4.1640, 0.6276, -0.6570, -9.5419, 0.0062, 0.0051, 0.0132, 0.4470, 0.5232, -0.8736, 0.0104, 0.0543, -0.1578, 358, 258797, 0.5000, 0.5000, -1.0000, 0.0000
4.1840, 0.6276, -0.6570, -9.5419, 0.0062, 0.0051, 0.0132, 0.4508, 0.5253, -0.8791, 0.0100, 0.0538, -0.1564, 359, 258797, 0.5000, 0.5000, -1.0000, 0.0000
4.2040, 0.6276, -0.6570, -9.5419, 0.0062, 0.0051, 0.0132, 0.4542, 0.5270, -0.8845, 0.0093, 0.0531, -0.1554, 360, 258797, 0.5000, 0.5000, -1.0000, 0.0000
4.2240, 0.6276, -0.6570, -9.5419, 0.0062, 0.0051, 0.0132, 0.4574, 0.5287, -0.8896, 0.0087, 0.0516, -0.1543, 361, 258797, 0.5000, 0.5000, -1.0000, 0.0000
4.2440, 0.6276, -0.6570, -9.5419, 0.0062, 0.0051, 0.0132, 0.4604, 0.5300, -0.8948, 0.0082, 0.0496, -0.1525, 362, 258797, 0.5000, 0.5000, -1.0000, 0.0000
4.2640, 0.6276, -0.6570, -9.5419, 0.0062, 0.0051, 0.0132, 0.4631, 0.5313, -0.8995, 0.0074, 0.0468, -0.1513, 363, 258797, 0.5000, 0.5000, -1.0000, 0.0000
4.2840, 0.6276, -0.6570, -9.5419, 0.0062, 0.0051, 0.0132, 0.4657, 0.5325, -0.9040, 0.0068, 0.0439, -0.1504, 364, 258797, 0.5000, 0.5000, -1.0000, 0.0000
4.3040, 0.6276, -0.6570, -9.5419, 0.0062, 0.0051, 0.0132, 0.4679, 0.5334, -0.9084, 0.0063, 0.0417, -0.1497, 365, 258797, 0.5000, 0.5000, -1.0000, 0.0000
4.3240, 0.6276, -0.6570, -9.5419, 0.0062, 0.0051, 0.0132, 0.4700, 0.5343, -0.9125, 0.0058, 0.0401, -0.1484, 366, 258797, 0.5000, 0.5000, -1.0000, 0.0000
4.3440, 0.6276, -0.6570, -9.5419, 0.0062, 0.0051, 0.0132, 0.4718, 0.5351, -0.9165, 0.0054, 0.0385, -0.1471, 367, 258797, 0.5000, 0.5000, -1.0000, 0.0000
4.3640, 0.6276, -0.6570, -9.5419, 0.0062, 0.0051, 0.0132, 0.4734, 0.5356, -0.9200, 0.0052, 0.0365, -0.1454, 368, 258797, 0.5000, 0.5000, -1.0000, 0.0000
4.3840, 0.6276, -0.6570, -9.5419, 0.0062, 0.0051, 0.0132, 0.4749, 0.5361, -0.9235, 0.0048, 0.0344, -0.1443, 369, 258797, 0.5000, 0.5000, -1.0000, 0.0000
4.4040, 0.6276, -0.6570, -9.5419, 0.0062, 0.0051, 0.0132, 0.4762, 0.5365, -0.9268, 0.0045, 0.0326, -0.1426, 370, 258797, 0.5000, 0.5000, -1.0000, 0.0000
4.4240, 0.6276, -0.6570, -9.5419, 0.0062, 0.0051, 0.0132, 0.4772, 0.5367, -0.9298, 0.0039, 0.0307, -0.1417, 371, 258797, 0.5000, 0.5000, -1.0000, 0.0000
4.4440, 0.6276, -0.6570, -9.5419, 0.0062, 0.0051, 0.0132, 0.4783, 0.5368, -0.9328, 0.0038, 0.0280, -0.1412, 372, 258797, 0.5000, 0.5000, -1.0000, 0.0000
4.4640, 0.6276, -0.6570, -9.5419, 0.0062, 0.0051, 0.0132, 0.4791, 0.5368, -0.9355, 0.0035, 0.0251, -0.1398, 373, 258797, 0.5000, 0.5000, -1.0000, 0.0000
4.4840, 0.6276, -0.6570, -9.5419, 0.0062, 0.0051, 0.0132, 0.4799, 0.5367, -0.9382, 0.0031, 0.0220, -0.1393, 374, 258797, 0.5000, 0.5000, -1.0000, 0.0000
4.5040, 0.6276, -0.6570, -9.5419, 0.0062, 0.0051, 0.0132, 0.4804, 0.5366, -0.9406, 0.0031, 0.0194, -0.1382, 375, 258797, 0.5000, 0.5000, -1.0000, 0.0000
4.5240, 0.6276, -0.6570, -9.5419, 0.0062, 0.0051, 0.0132, 0.4809, 0.5363, -0.9431, 0.0026, 0.0170, -0.1374, 376, 258797, 0.5000, 0.5000, -1.0000, 0.0000
4.5440, 0.6276, -0.6570, -9.5419, 0.0062, 0.0051, 0.0132, 0.4813, 0.5360, -0.9454, 0.0025, 0.0143, -0.1360, 377, 258797, 0.5000, 0.5000, -1.0000, 0.0000
4.5640, 0.6276, -0.6570, -9.5419, 0.0062, 0.0051, 0.0132, 0.4815, 0.5356, -0.9475, 0.0023, 0.0113, -0.1349, 378, 258797, 0.5000, 0.5000, -1.0000, 0.0000
4.5840, 0.6276, -0.6570, -9.5419, 0.0062, 0.0051, 0.0132, 0.4817, 0.5350, -0.9496, 0.0020, 0.0092, -0.1336, 379, 258797, 0.5000, 0.5000, -1.0000, 0.0000
4.6040, 0.6276, -0.6570, -9.5419, 0.0062, 0.0051, 0.0132, 0.4817, 0.5345, -0.9515, 0.0021, 0.0066, -0.1326, 380, 258797, 0.5000, 0.5000, -1.0000, 0.0000
4.6240, 0.6276, -0.6570, -9.5419, 0.0062, 0.0051, 0.0132, 0.4818, 0.5339, -0.9534, 0.0020, 0.0040, -0.1316, 381, 258797, 0.5000, 0.5000, -1.0000, 0.0000
4.6440, 0.6276, -0.6570, -9.5419, 0.0062, 0.0051, 0.0132, 0.4817, 0.5331, -0.9553, 0.0019, 0.0013, -0.1304, 382, 258797, 0.5000, 0.5000, -1.0000, 0.0000
4.6640, 0.6276, -0.6570, -9.5419, 0.0062, 0.0051, 0.0132, 0.4817, 0.5325, -0.9570, 0.0018, -0.0017, -0.1300, 383, 258797, 0.5000, 0.5000, -1.0000, 0.0000
4.6840, 0.6276, -0.6570, -9.5419, 0.0062, 0.0051, 0.0132, 0.4815, 0.5316, -0.9587, 0.0018, -0.0046, -0.1292, 384, 258797, 0.5000, 0.5000, -1.0000, 0.0000
4.7040, 0.6276, -0.6570, -9.5419, 0.0062, 0.0051, 0.0132, 0.4814, 0.5308, -0.9603, 0.0015, -0.0065, -0.1275, 385, 258797, 0.5000, 0.5000, -1.0000, 0.0000
4.7240, 0.6276, -0.6570, -9.5419, 0.0062, 0.0051, 0.0132, 0.4812, 0.5298, -0.9619, 0.0018, -0.0087, -0.1271, 386, 258797, 0.5000, 0.5000, -1.0000, 0.0000
4.7440, 0.6276, -0.6570, -9.5419, 0.0062, 0.0051, 0.0132, 0.4810, 0.5289, -0.9633, 0.0020, -0.0113, -0.1261, 387, 258797, 0.5000, 0.5000, -1.0000, 0.0000
4.7640, 0.6276, -0.6570, -9.5419, 0.0062, 0.0051, 0.0132, 0.4809, 0.5280, -0.9649, 0.0019, -0.0131, -0.1249, 388, 258797, 0.5000, 0.5000, -1.0000, 0.0000
4.7840, 0.6276, -0.6570, -9.5419, 0.0062, 0.0051, 0.0132, 0.4807, 0.5270, -0.9664, 0.0022, -0.0153, -0.1246, 389, 258797, 0.5000, 0.5000, -1.0000, 0.0000
4.8040, 0.6276, -0.6570, -9.5419, 0.0062, 0.0051, 0.0132, 0.4805, 0.5258, -0.9679, 0.0021, -0.0171, -0.1238, 390, 258797, 0.5000, 0.5000, -1.0000, 0.0000
4.8240, 0.6276, -0.6570, -9.5419, 0.0062, 0.0051, 0.0132, 0.4804, 0.5248, -0.9695, 0.0023, -0.0188, -0.1232, 391, 258797, 0.5000, 0.5000, -1.0000, 0.0000
4.8440, 0.6276, -0.6570, -9.5419, 0.0062, 0.0051, 0.0132, 0.4801, 0.5237, -0.9709, 0.0027, -0.0208, -0.1225, 392, 258797, 0.5000, 0.5000, -1.0000, 0.0000
4.8640, 0.6276, -0.6570, -9.5419, 0.0062, 0.0051, 0.0132, 0.4800, 0.5226, -0.9726, 0.0030, -0.0219, -0.1213, 393, 258797, 0.5000, 0.5000, -1.0000, 0.0000
4.8840, 0.6276, -0.6570, -9.5419, 0.0062, 0.0051, 0.0132, 0.4798, 0.5215, -0.9741, 0.0032, -0.0231, -0.1199, 394, 258797, 0.5000, 0.5000, -1.0000, 0.0000
4.9040, 0.6276, -0.6570, -9.5419, 0.0062, 0.0051, 0.0132, 0.4797, 0.5204, -0.9758, 0.0033, -0.0250, -0.1191, 395, 258797, 0.5000, 0.5000, -1.0000, 0.0000
4.9240, 0.6276, -0.6570, -9.5419, 0.0062, 0.0051, 0.0132, 0.4796, 0.5192, -0.9775, 0.0034, -0.0261, -0.1178, 396, 258797, 0.5000, 0.5000, -1.0000, 0.0000
4.9440, 0.6276, -0.6570, -9.5419, 0.0062, 0.0051, 0.0132, 0.4795, 0.5181, -0.9791, 0.0033, -0.0273, -0.1168, 397, 258797, 0.5000, 0.5000, -1.0000, 0.0000
4.9660, 0.6276, -0.6570, -9.5419, 0.0062, 0.0051, 0.0132, 0.4795, 0.5170, -0.9808, 0.0037, -0.0288, -0.1161, 398, 258797, 0.5000, 0.5000, -1.0000, 0.0000
4.9860, 0.6276, -0.6570, -9.5419, 0.0062, 0.0051, 0.0132, 0.4796, 0.5158, -0.9823, 0.0040, -0.0303, -0.1156, 399, 258797, 0.5000, 0.5000, -1.0000, 0.0000
5.0060, 0.6276, -0.6570, -9.5419, 0.0062, 0.0051, 0.0132, 0.4798, 0.5148, -0.9837, 0.0040, -0.0315, -0.1145, 400, 258797, 0.5000, 0.5000, -1.0000, 0.0000
5.0260, 0.6276, -0.6570, -9.5419, 0.0062, 0.0051, 0.0132, 0.4799, 0.5137, -0.9853, 0.0042, -0.0319, -0.1133, 401, 258797, 0.5000, 0.5000, -1.0000, 0.0000
5.0460, 0.6276, -0.6570, -9.5419, 0.0062, 0.0051, 0.0132, 0.4803, 0.5126, -0.9866, 0.0045, -0.0331, -0.1130, 402, 258797, 0.5000, 0.5000, -1.0000, 0.0000
5.0660, 0.6276, -0.6570, -9.5419, 0.0062, 0.0051, 0.0132, 0.4807, 0.5115, -0.9880, 0.0047, -0.0341, -0.1121, 403, 258797, 0.5000, 0.5000, -1.0000, 0.0000
5.0860, 0.6276, -0.6570, -9.5419, 0.0062, 0.0051, 0.0132, 0.4810, 0.5104, -0.9892, 0.0052, -0.0347, -0.1119, 404, 258797, 0.5000, 0.5000, -1.0000, 0.0000
5.1060, 0.6276, -0.6570, -9.5419, 0.0062, 0.0051, 0.0132, 0.4817, 0.5094, -0.9904, 0.0053, -0.0348, -0.1114, 405, 258797, 0.5000, 0.5000, -1.0000, 0.0000
5.1260, 0.6276, -0.6570, -9.5419, 0.0062, 0.0051, 0.0132, 0.4822, 0.5084, -0.9915, 0.0057, -0.0341, -0.1104, 406, 258797, 0.5000, 0.5000, -1.0000, 0.0000
5.1460, 0.6276, -0.6570, -9.5419, 0.0062, 0.0051, 0.0132, 0.4828, 0.5073, -0.9925, 0.0064, -0.0328, -0.1097, 407, 258797, 0.5000, 0.5000, -1.0000, 0.0000
5.1660, 0.6276, -0.6570, -9.5419, 0.0062, 0.0051, 0.0132, 0.4836, 0.5064, -0.9934, 0.0068, -0.0324, -0.1090, 408, 258797, 0.5000, 0.5000, -1.0000, 0.0000
5.1860, 0.6276, -0.6570, -9.5419, 0.0062, 0.0051, 0.0132, 0.4843, 0.5055, -0.9942, 0.0070, -0.0320, -0.1082, 409, 258797, 0.5000, 0.5000, -1.0000, 0.0000
5.2060, 0.6276, -0.6570, -9.5419, 0.0062, 0.0051, 0.0132, 0.4853, 0.5046, -0.9951, 0.0076, -0.0312, -0.1083, 410, 258797, 0.5000, 0.5000, -1.0000, 0.0000
5.2260, 0.6276, -0.6570, -9.5419, 0.0062, 0.0051, 0.0132, 0.4863, 0.5037, -0.9959, 0.0077, -0.0309, -0.1071, 411, 258797, 0.5000, 0.5000, -1.0000, 0.0000
5.2460, 0.6276, -0.6570, -9.5419, 0.0062, 0.0051, 0.0132, 0.4873, 0.5029, -0.9967, 0.0082, -0.0308, -0.1068, 412, 258797, 0.5000, 0.5000, -1.0000, 0.0000
5.2660, 0.6276, -0.6570, -9.5419, 0.0062, 0.0051, 0.0132, 0.4884, 0.5022, -0.9974, 0.0083, -0.0313, -0.1064, 413, 258797, 0.5000, 0.5000, -1.0000, 0.0000
5.2860, 0.6276, -0.6570, -9.5419, 0.0062, 0.0051, 0.0132, 0.4897, 0.5013, -0.9981, 0.0083, -0.0318, -0.1056, 414, 258797, 0.5000, 0.5000, -1.0000, 0.0000
5.3060, 0.6276, -0.6570, -9.5419, 0.0062, 0.0051, 0.0132, 0.4910, 0.5006, -0.9987, 0.0086, -0.0325, -0.1053, 415, 258797, 0.5000, 0.5000, -1.0000, 0.0000
5.3260, 0.6276, -0.6570, -9.5419, 0.0062, 0.0051, 0.0132, 0.4924, 0.5000, -0.9993, 0.0089, -0.0323, -0.1042, 416, 258797, 0.5000, 0.5000, -1.0000, 0.0000
5.3460, 0.6276, -0.6570, -9.5419, 0.0062, 0.0051, 0.0132, 0.4938, 0.4993, -0.9998, 0.0094, -0.0313, -0.1042, 417, 258797, 0.5000, 0.5000, -1.0000, 0.0000
5.3660, 0.6276, -0.6570, -9.5419, 0.0062, 0.0051, 0.0132, 0.4951, 0.4988, -1.0003, 0.0098, -0.0308, -0.1036, 418, 258797, 0.5000, 0.5000, -1.0000, 0.0000
5.3860, 0.6276, -0.6570, -9.5419, 0.0062, 0.0051, 0.0132, 0.4967, 0.4983, -1.0008, 0.0097, -0.0302, -0.1032, 419, 258797, 0.5000, 0.5000, -1.0000, 0.0000
5.4060, 0.6276, -0.6570, -9.5419, 0.0062, 0.0051, 0.0132, 0.4983, 0.4978, -1.0012, 0.0099, -0.0301, -0.1030, 420, 258797, 0.5000, 0.5000, -1.0000, 0.0000
5.4260, 0.6276, -0.6570, -9.5419, 0.0062, 0.0051, 0.0132, 0.5000, 0.4973, -1.0017, 0.0104, -0.0302, -0.1033, 421, 258797, 0.5000, 0.5000, -1.0000, 0.0000
5.4460, 0.6276, -0.6570, -9.5419, 0.0062, 0.0051, 0.0132, 0.5017, 0.4970, -1.0022, 0.0103, -0.0303, -0.1032, 422, 258797, 0.5000, 0.5000, -1.0000, 0.0000
5.4660, 0.6276, -0.6570, -9.5419, 0.0062, 0.0051, 0.0132, 0.5035, 0.4967, -1.0026, 0.0100, -0.0306, -0.1027, 423, 258797, 0.5000, 0.5000, -1.0000, 0.0000
5.4860, 0.6276, -0.6570, -9.5419, 0.0062, 0.0051, 0.0132, 0.5052, 0.4965, -1.0032, 0.0105, -0.0306, -0.1022, 424, 258797, 0.5000, 0.5000, -1.0000, 0.0000
5.5060, 0.6276, -0.6570, -9.5419, 0.0062, 0.0051, 0.0132, 0.5071, 0.4963, -1.0036, 0.0107, -0.0304, -0.1016, 425, 258797, 0.5000, 0.5000, -1.0000, 0.0000
5.5260, 0.6276, -0.6570, -9.5419, 0.0062, 0.0051, 0.0132, 0.5090, 0.4961, -1.0041, 0.0108, -0.0302, -0.1017, 426, 258797, 0.5000, 0.5000, -1.0000, 0.0000
5.5460, 0.6276, -0.6570, -9.5419, 0.0062, 0.0051, 0.0132, 0.5110, 0.4960, -1.0047, 0.0113, -0.0304, -0.1016, 427, 258797, 0.5000, 0.5000, -1.0000, 0.0000
5.5660, 0.6276, -0.6570, -9.5419, 0.0062, 0.0051, 0.0132, 0.5129, 0.4959, -1.0051, 0.0108, -0.0309, -0.1017, 428, 258797, 0.5000, 0.5000, -1.0000, 0.0000
5.5860, 0.6276, -0.6570, -9.5419, 0.0062, 0.0051, 0.0132, 0.5150, 0.4960, -1.0057, 0.0110, -0.0315, -0.1019, 429, 258797, 0.5000, 0.5000, -1.0000, 0.0000
5.6060, 0.6276, -0.6570, -9.5419, 0.0062, 0.0051, 0.0132, 0.5172, 0.4960, -1.0061, 0.0113, -0.0324, -0.1025, 430, 258797, 0.5000, 0.5000, -1.0000, 0.0000
5.6260, 0.6276, -0.6570, -9.5419, 0.0062, 0.0051, 0.0132, 0.5193, 0.4962, -1.0064, 0.0112, -0.0314, -0.1009, 431, 258797, 0.5000, 0.5000, -1.0000, 0.0000
5.6460, 0.6276, -0.6570, -9.5419, 0.0062, 0.0051, 0.0132, 0.5213, 0.4964, -1.0067, 0.0117, -0.0277, -0.0986, 432, 258797, 0.5000, 0.5000, -1.0000, 0.0000
5.6660, 0.6276, -0.6570, -9.5419, 0.0062, 0.0051, 0.0132, 0.5234, 0.4967, -1.0069, 0.0122, -0.0243, -0.0970, 433, 258797, 0.5000, 0.5000, -1.0000, 0.0000
5.6860, 0.6276, -0.6570, -9.5419, 0.0062, 0.0051, 0.0132, 0.5256, 0.4971, -1.0072, 0.0125, -0.0217, -0.0973, 434, 258797, 0.5000, 0.5000, -1.0000, 0.0000
5.7060, 0.6276, -0.6570, -9.5419, 0.0062, 0.0051, 0.0132, 0.5278, 0.4973, -1.0074, 0.0128, -0.0195, -0.0974, 435, 258797, 0.5000, 0.5000, -1.0000, 0.0000
5.7260, 0.6276, -0.6570, -9.5419, 0.0062, 0.0051, 0.0132, 0.5300, 0.4977, -1.0076, 0.0129, -0.0177, -0.0983, 436, 258797, 0.5000, 0.5000, -1.0000, 0.0000
5.7460, 0.6276, -0.6570, -9.5419, 0.0062, 0.0051, 0.0132, 0.5322, 0.4983, -1.0079, 0.0127, -0.0163, -0.0986, 437, 258797, 0.5000, 0.5000, -1.0000, 0.0000
5.7660, 0.6276, -0.6570, -9.5419, 0.0062, 0.0051, 0.0132, 0.5345, 0.4987, -1.0079, 0.0132, -0.0141, -0.0988, 438, 258797, 0.5000, 0.5000, -1.0000, 0.0000
5.7870, 0.6276, -0.6570, -9.5419, 0.0062, 0.0051, 0.0132, 0.5367, 0.4994, -1.0081, 0.0131, -0.0123, -0.0994, 439, 258797, 0.5000, 0.5000, -1.0000, 0.0000
5.8070, 0.6276, -0.6570, -9.5419, 0.0062, 0.0051, 0.0132, 0.5389, 0.5001, -1.0082, 0.0132, -0.0108, -0.0985, 440, 258797, 0.5000, 0.5000, -1.0000, 0.0000
5.8270, 0.6276, -0.6570, -9.5419, 0.0062, 0.0051, 0.0132, 0.5412, 0.5008, -1.0083, 0.0131, -0.0091, -0.0989, 441, 258797, 0.5000, 0.5000, -1.0000, 0.0000
5.8470, 0.6276, -0.6570, -9.5419, 0.0062, 0.0051, 0.0132, 0.5433, 0.5016, -1.0084, 0.0132, -0.0076, -0.0988, 442, 258797, 0.5000, 0.5000, -1.0000, 0.0000
5.8670, 0.6276, -0.6570, -9.5419, 0.0062, 0.0051, 0.0132, 0.5456, 0.5024, -1.0085, 0.0129, -0.0056, -0.0996, 443, 258797, 0.5000, 0.5000, -1.0000, 0.0000
5.8870, 0.6276, -0.6570, -9.5419, 0.0062, 0.0051, 0.0132, 0.5476, 0.5033, -1.0085, 0.0128, -0.0042, -0.0997, 444, 258797, 0.5000, 0.5000, -1.0000, 0.0000
5.9070, 0.6276, -0.6570, -9.5419, 0.0062, 0.0051, 0.0132, 0.5498, 0.5043, -1.0086, 0.0128, -0.0031, -0.1002, 445, 258797, 0.5000, 0.5000, -1.0000, 0.0000
5.9270, 0.6276, -0.6570, -9.5419, 0.0062, 0.0051, 0.0132, 0.5518, 0.5051, -1.0086, 0.0125, -0.0014, -0.1007, 446, 258797, 0.5000, 0.5000, -1.0000, 0.0000
5.9470, 0.6276, -0.6570, -9.5419, 0.0062, 0.0051, 0.0132, 0.5537, 0.5062, -1.0085, 0.0122, -0.0001, -0.1014, 447, 258797, 0.5000, 0.5000, -1.0000, 0.0000
5.9670, 0.6276, -0.6570, -9.5419, 0.0062, 0.0051, 0.0132, 0.5557, 0.5073, -1.0086, 0.0121, 0.0015, -0.1015, 448, 258797, 0.5000, 0.5000, -1.0000, 0.0000
5.9870, 0.6276, -0.6570, -9.5419, 0.0062, 0.0051, 0.0132, 0.5576, 0.5085, -1.0085, 0.0119, 0.0019, -0.1019, 449, 258797, 0.5000, 0.5000, -1.0000, 0.0000
6.0070, 0.6276, -0.6570, -9.5419, 0.0062, 0.0051, 0.0132, 0.5593, 0.5095, -1.0085, 0.0117, 0.0026, -0.1033, 450, 258797, 0.5000, 0.5000, -1.0000, 0.0000
6.0270, 0.6276, -0.6570, -9.5419, 0.0062, 0.0051, 0.0132, 0.5611, 0.5107, -1.0085, 0.0115, 0.0036, -0.1044, 451, 258797, 0.5000, 0.5000, -1.0000, 0.0000
6.0470, 0.6276, -0.6570, -9.5419, 0.0062, 0.0051, 0.0132, 0.5628, 0.5119, -1.0084, 0.0113, 0.0043, -0.1047, 452, 258797, 0.5000, 0.5000, -1.0000, 0.0000
6.0670, 0.6276, -0.6570, -9.5419, 0.0062, 0.0051, 0.0132, 0.5644, 0.5131, -1.0084, 0.0112, 0.0052, -0.1056, 453, 258797, 0.5000, 0.5000, -1.0000, 0.0000
6.0870, 0.6276, -0.6570, -9.5419, 0.0062, 0.0051, 0.0132, 0.5659, 0.5144, -1.0083, 0.0111, 0.0066, -0.1064, 454, 258797, 0.5000, 0.5000, -1.0000, 0.0000
6.1070, 0.6276, -0.6570, -9.5419, 0.0062, 0.0051, 0.0132, 0.5673, 0.5156, -1.0083, 0.0111, 0.0080, -0.1074, 455, 258797, 0.5000, 0.5000, -1.0000, 0.0000
6.1270, 0.6276, -0.6570, -9.5419, 0.0062, 0.0051, 0.0132, 0.5687, 0.5169, -1.0082, 0.0110, 0.0087, -0.1083, 456, 258797, 0.5000, 0.5000, -1.0000, 0.0000
6.1470, 0.6276, -0.6570, -9.5419, 0.0062, 0.0051, 0.0132, 0.5700, 0.5182, -1.0081, 0.0108, 0.0095, -0.1095, 457, 258797, 0.5000, 0.5000, -1.0000, 0.0000
6.1670, 0.6276, -0.6570, -9.5419, 0.0062, 0.0051, 0.0132, 0.5713, 0.5195, -1.0082, 0.0106, 0.0098, -0.1098, 458, 258797, 0.5000, 0.5000, -1.0000, 0.0000
6.1870, 0.6276, -0.6570, -9.5419, 0.0062, 0.0051, 0.0132, 0.5724, 0.5209, -1.0080, 0.0107, 0.0100, -0.1105, 459, 258797, 0.5000, 0.5000, -1.0000, 0.0000
6.2070, 0.6276, -0.6570, -9.5419, 0.0062, 0.0051, 0.0132, 0.5735, 0.5222, -1.0081, 0.0102, 0.0104, -0.1113, 460, 258797, 0.5000, 0.5000, -1.0000, 0.0000
6.2270, 0.6276, -0.6570, -9.5419, 0.0062, 0.0051, 0.0132, 0.5744, 0.5235, -1.0080, 0.0100, 0.0102, -0.1121, 461, 258797, 0.5000, 0.5000, -1.0000, 0.0000
6.2470, 0.6276, -0.6570, -9.5419, 0.0062, 0.0051, 0.0132, 0.5753, 0.5249, -1.0079, 0.0099, 0.0108, -0.1136, 462, 258797, 0.5000, 0.5000, -1.0000, 0.0000
6.2670, 0.6276, -0.6570, -9.5419, 0.0062, 0.0051, 0.0132, 0.5761, 0.5261, -1.0080, 0.0097, 0.0114, -0.1145, 463, 258797, 0.5000, 0.5000, -1.0000, 0.0000
6.2870, 0.6276, -0.6570, -9.5419, 0.0062, 0.0051, 0.0132, 0.5768, 0.5274, -1.0078, 0.0095, 0.0116, -0.1160, 464, 258797, 0.5000, 0.5000, -1.0000, 0.0000
6.3070, 0.6276, -0.6570, -9.5419, 0.0062, 0.0051, 0.0132, 0.5774, 0.5287, -1.0080, 0.0094, 0.0119, -0.1168, 465, 258797, 0.5000, 0.5000, -1.0000, 0.0000
6.3270, 0.6276, -0.6570, -9.5419, 0.0062, 0.0051, 0.0132, 0.5779, 0.5300, -1.0078, 0.0089, 0.0116, -0.1178, 466, 258797, 0.5000, 0.5000, -1.0000, 0.0000
6.3470, 0.6276, -0.6570, -9.5419, 0.0062, 0.0051, 0.0132, 0.5784, 0.5312, -1.0078, 0.0089, 0.0118, -0.1189, 467, 258797, 0.5000, 0.5000, -1.0000, 0.0000
6.3670, 0.6276, -0.6570, -9.5419, 0.0062, 0.0051, 0.0132, 0.5787, 0.5324, -1.0078, 0.0088, 0.0120, -0.1203, 468, 258797, 0.5000, 0.5000, -1.0000, 0.0000
6.3870, 0.6276, -0.6570, -9.5419, 0.0062, 0.0051, 0.0132, 0.5789, 0.5335, -1.0078, 0.0086, 0.0121, -0.1211, 469, 258797, 0.5000, 0.5000, -1.0000, 0.0000
6.4070, 0.6276, -0.6570, -9.5419, 0.0062, 0.0051, 0.0132, 0.5792, 0.5348, -1.0078, 0.0084, 0.0120, -0.1221, 470, 258797, 0.5000, 0.5000, -1.0000, 0.0000
6.4270, 0.6276, -0.6570, -9.5419, 0.0062, 0.0051, 0.0132, 0.5793, 0.5359, -1.0077, 0.0082, 0.0112, -0.1235, 471, 258797, 0.5000, 0.5000, -1.0000, 0.0000
6.4470, 0.6276, -0.6570, -9.5419, 0.0062, 0.0051, 0.0132, 0.5793, 0.5369, -1.0078, 0.0078, 0.0105, -0.1247, 472, 258797, 0.5000, 0.5000, -1.0000, 0.0000
6.4670, 0.6276, -0.6570, -9.5419, 0.0062, 0.0051, 0.0132, 0.5793, 0.5378, -1.0077, 0.0078, 0.0097, -0.1253, 473, 258797, 0.5000, 0.5000, -1.0000, 0.0000
6.4870, 0.6276, -0.6570, -9.5419, 0.0062, 0.0051, 0.0132, 0.5792, 0.5388, -1.0078, 0.0075, 0.0088, -0.1264, 474, 258797, 0.5000, 0.5000, -1.0000, 0.0000
6.5070, 0.6276, -0.6570, -9.5419, 0.0062, 0.0051, 0.0132, 0.5790, 0.5397, -1.0078, 0.0075, 0.0082, -0.1273, 475, 258797, 0.5000, 0.5000, -1.0000, 0.0000
6.5270, 0.6276, -0.6570, -9.5419, 0.0062, 0.0051, 0.0132, 0.5787, 0.5406, -1.0078, 0.0074, 0.0075, -0.1274, 476, 258797, 0.5000, 0.5000, -1.0000, 0.0000
6.5470, 0.6276, -0.6570, -9.5419, 0.0062, 0.0051, 0.0132, 0.5785, 0.5414, -1.0079, 0.0070, 0.0067, -0.1279, 477, 258797, 0.5000, 0.5000, -1.0000, 0.0000
6.5670, 0.6276, -0.6570, -9.5419, 0.0062, 0.0051, 0.0132, 0.5781, 0.5421, -1.0079, 0.0070, 0.0056, -0.1283, 478, 258797, 0.5000, 0.5000, -1.0000, 0.0000
6.5870, 0.6276, -0.6570, -9.5419, 0.0062, 0.0051, 0.0132, 0.5777, 0.5428, -1.0081, 0.0069, 0.0047, -0.1288, 479, 258797, 0.5000, 0.5000, -1.0000, 0.0000
6.6070, 0.6276, -0.6570, -9.5419, 0.0062, 0.0051, 0.0132, 0.5772, 0.5434, -1.0081, 0.0068, 0.0036, -0.1295, 480, 258797, 0.5000, 0.5000, -1.0000, 0.0000
6.6270, 0.6276, -0.6570, -9.5419, 0.0062, 0.0051, 0.0132, 0.5766, 0.5440, -1.0082, 0.0066, 0.0032, -0.1299, 481, 258797, 0.5000, 0.5000, -1.0000, 0.0000
6.6470, 0.6276, -0.6570, -9.5419, 0.0062, 0.0051, 0.0132, 0.5760, 0.5445, -1.0082, 0.0065, 0.0032, -0.1301, 482, 258797, 0.5000, 0.5000, -1.0000, 0.0000
6.6670, 0.6276, -0.6570, -9.5419, 0.0062, 0.0051, 0.0132, 0.5754, 0.5449, -1.0083, 0.0067, 0.0025, -0.1305, 483, 258797, 0.5000, 0.5000, -1.0000, 0.0000
6.6870, 0.6276, -0.6570, -9.5419, 0.0062, 0.0051, 0.0132, 0.5748, 0.5452, -1.0084, 0.0064, 0.0013, -0.1310, 484, 258797, 0.5000, 0.5000, -1.0000, 0.0000
6.7070, 0.6276, -0.6570, -9.5419, 0.0062, 0.0051, 0.0132, 0.5741, 0.5456, -1.0084, 0.0064, 0.0003, -0.1310, 485, 258797, 0.5000, 0.5000, -1.0000, 0.0000
6.7270, 0.6276, -0.6570, -9.5419, 0.0062, 0.0051, 0.0132, 0.5735, 0.5458, -1.0085, 0.0062, -0.0011, -0.1305, 486, 258797, 0.5000, 0.5000, -1.0000, 0.0000
6.7470, 0.6276, -0.6570, -9.5419, 0.0062, 0.0051, 0.0132, 0.5728, 0.5459, -1.0086, 0.0060, -0.0020, -0.1304, 487, 258797, 0.5000, 0.5000, -1.0000, 0.0000
6.7670, 0.6276, -0.6570, -9.5419, 0.0062, 0.0051, 0.0132, 0.5720, 0.5461, -1.0086, 0.0060, -0.0030, -0.1307, 488, 258797, 0.5000, 0.5000, -1.0000, 0.0000
6.7870, 0.6276, -0.6570, -9.5419, 0.0062, 0.0051, 0.0132, 0.5712, 0.5462, -1.0087, 0.0059, -0.0037, -0.1307, 489, 258797, 0.5000, 0.5000, -1.0000, 0.0000
6.8070, 0.6276, -0.6570, -9.5419, 0.0062, 0.0051, 0.0132, 0.5705, 0.5463, -1.0088, 0.0059, -0.0045, -0.1305, 490, 258797, 0.5000, 0.5000, -1.0000, 0.0000
6.8270, 0.6276, -0.6570, -9.5419, 0.0062, 0.0051, 0.0132, 0.5696, 0.5461, -1.0089, 0.0056, -0.0060, -0.1308, 491, 258797, 0.5000, 0.5000, -1.0000, 0.0000
6.8470, 0.6276, -0.6570, -9.5419, 0.0062, 0.0051, 0.0132, 0.5688, 0.5459, -1.0089, 0.0055, -0.0077, -0.1308, 492, 258797, 0.5000, 0.5000, -1.0000, 0.0000
6.8670, 0.6276, -0.6570, -9.5419, 0.0062, 0.0051, 0.0132, 0.5681, 0.5458, -1.0090, 0.0051, -0.0085, -0.1310, 493, 258797, 0.5000, 0.5000, -1.0000, 0.0000
6.8870, 0.6276, -0.6570, -9.5419, 0.0062, 0.0051, 0.0132, 0.5673, 0.5455, -1.0090, 0.0053, -0.0093, -0.1311, 494, 258797, 0.5000, 0.5000, -1.0000, 0.0000
6.9070, 0.6276, -0.6570, -9.5419, 0.0062, 0.0051, 0.0132, 0.5665, 0.5452, -1.0089, 0.0052, -0.0098, -0.1310, 495, 258797, 0.5000, 0.5000, -1.0000, 0.0000
6.9270, 0.6276, -0.6570, -9.5419, 0.0062, 0.0051, 0.0132, 0.5657, 0.5448, -1.0089, 0.0048, -0.0098, -0.1309, 496, 258797, 0.5000, 0.5000, -1.0000, 0.0000
6.9470, 0.6276, -0.6570, -9.5419, 0.0062, 0.0051, 0.0132, 0.5649, 0.5444, -1.0088, 0.0050, -0.0107, -0.1309, 497, 258797, 0.5000, 0.5000, -1.0000, 0.0000
6.9670, 0.6276, -0.6570, -9.5419, 0.0062, 0.0051, 0.0132, 0.5643, 0.5438, -1.0086, 0.0047, -0.0119, -0.1301, 498, 258797, 0.5000, 0.5000, -1.0000, 0.0000
6.9870, 0.6276, -0.6570, -9.5419, 0.0062, 0.0051, 0.0132, 0.5636, 0.5433, -1.0085, 0.0045, -0.0138, -0.1297, 499, 258797, 0.5000, 0.5000, -1.0000, 0.0000
7.0070, 0.6276, -0.6570, -9.5419, 0.0062, 0.0051, 0.0132, 0.5629, 0.5426, -1.0083, 0.0043, -0.0153, -0.1295, 500, 258797, 0.5000, 0.5000, -1.0000, 0.0000
7.0270, 0.6276, -0.6570, -9.5419, 0.0062, 0.0051, 0.0132, 0.5623, 0.5420, -1.0082, 0.0042, -0.0169, -0.1290, 501, 258797, 0.5000, 0.5000, -1.0000, 0.0000
7.0470, 0.6276, -0.6570, -9.5419, 0.0062, 0.0051, 0.0132, 0.5617, 0.5412, -1.0079, 0.0039, -0.0188, -0.1289, 502, 258797, 0.5000, 0.5000, -1.0000, 0.0000
7.0670, 0.6276, -0.6570, -9.5419, 0.0062, 0.0051, 0.0132, 0.5611, 0.5405, -1.0077, 0.0039, -0.0193, -0.1283, 503, 258797, 0.5000, 0.5000, -1.0000, 0.0000
7.0870, 0.6276, -0.6570, -9.5419, 0.0062, 0.0051, 0.0132, 0.5605, 0.5396, -1.0074, 0.0039, -0.0191, -0.1274, 504, 258797, 0.5000, 0.5000, -1.0000, 0.0000
7.1070, 0.6276, -0.6570, -9.5419, 0.0062, 0.0051, 0.0132, 0.5601, 0.5388, -1.0072, 0.0039, -0.0188, -0.1266, 505, 258797, 0.5000, 0.5000, -1.0000, 0.0000
7.1270, 0.6276, -0.6570, -9.5419, 0.0062, 0.0051, 0.0132, 0.5595, 0.5378, -1.0068, 0.0039, -0.0193, -0.1257, 506, 258797, 0.5000, 0.5000, -1.0000, 0.0000
7.1470, 0.6276, -0.6570, -9.5419, 0.0062, 0.0051, 0.0132, 0.5591, 0.5369, -1.0066, 0.0039, -0.0203, -0.1247, 507, 258797, 0.5000, 0.5000, -1.0000, 0.0000
7.1670, 0.6276, -0.6570, -9.5419, 0.0062, 0.0051, 0.0132, 0.5588, 0.5359, -1.0063, 0.0037, -0.0214, -0.1241, 508, 258797, 0.5000, 0.5000, -1.0000, 0.0000
7.1870, 0.6276, -0.6570, -9.5419, 0.0062, 0.0051, 0.0132, 0.5585, 0.5349, -1.0059, 0.0035, -0.0228, -0.1231, 509, 258797, 0.5000, 0.5000, -1.0000, 0.0000
7.2070, 0.6276, -0.6570, -9.5419, 0.0062, 0.0051, 0.0132, 0.5583, 0.5339, -1.0057, 0.0040, -0.0227, -0.1222, 510, 258797, 0.5000, 0.5000, -1.0000, 0.0000
7.2270, 0.6276, -0.6570, -9.5419, 0.0062, 0.0051, 0.0132, 0.5581, 0.5328, -1.0054, 0.0038, -0.0232, -0.1211, 511, 258797, 0.5000, 0.5000, -1.0000, 0.0000
7.2470, 0.6276, -0.6570, -9.5419, 0.0062, 0.0051, 0.0132, 0.5580, 0.5317, -1.0050, 0.0037, -0.0236, -0.1196, 512, 258797, 0.5000, 0.5000, -1.0000, 0.0000
7.2670, 0.6276, -0.6570, -9.5419, 0.0062, 0.0051, 0.0132, 0.5579, 0.5306, -1.0047, 0.0038, -0.0232, -0.1184, 513, 258797, 0.5000, 0.5000, -1.0000, 0.0000
7.2870, 0.6276, -0.6570, -9.5419, 0.0062, 0.0051, 0.0132, 0.5578, 0.5295, -1.0043, 0.0037, -0.0237, -0.1169, 514, 258797, 0.5000, 0.5000, -1.0000, 0.0000
7.3070, 0.6276, -0.6570, -9.5419, 0.0062, 0.0051, 0.0132, 0.5579, 0.5284, -1.0041, 0.0036, -0.0236, -0.1158, 515, 258797, 0.5000, 0.5000, -1.0000, 0.0000
7.3270, 0.6276, -0.6570, -9.5419, 0.0062, 0.0051, 0.0132, 0.5579, 0.5273, -1.0038, 0.0037, -0.0235, -0.1145, 516, 258797, 0.5000, 0.5000, -1.0000, 0.0000
7.3470, 0.6276, -0.6570, -9.5419, 0.0062, 0.0051, 0.0132, 0.5581, 0.5262, -1.0035, 0.0035, -0.0238, -0.1132, 517, 258797, 0.5000, 0.5000, -1.0000, 0.0000
7.3670, 0.6276, -0.6570, -9.5419, 0.0062, 0.0051, 0.0132, 0.5584, 0.5251, -1.0033, 0.0035, -0.0242, -0.1117, 518, 258797, 0.5000, 0.5000, -1.0000, 0.0000
7.3870, 0.6276, -0.6570, -9.5419, 0.0062, 0.0051, 0.0132, 0.5586, 0.5240, -1.0029, 0.0036, -0.0242, -0.1109, 519, 258797, 0.5000, 0.5000, -1.0000, 0.0000
7.4070, 0.6276, -0.6570, -9.5419, 0.0062, 0.0051, 0.0132, 0.5590, 0.5230, -1.0028, 0.0035, -0.0236, -0.1097, 520, 258797, 0.5000, 0.5000, -1.0000, 0.0000
7.4270, 0.6276, -0.6570, -9.5419, 0.0062, 0.0051, 0.0132, 0.5594, 0.5220, -1.0024, 0.0035, -0.0236, -0.1082, 521, 258797, 0.5000, 0.5000, -1.0000, 0.0000
7.4470, 0.6276, -0.6570, -9.5419, 0.0062, 0.0051, 0.0132, 0.5598, 0.5210, -1.0023, 0.0037, -0.0232, -0.1075, 522, 258797, 0.5000, 0.5000, -1.0000, 0.0000
7.4670, 0.6276, -0.6570, -9.5419, 0.0062, 0.0051, 0.0132, 0.5602, 0.5200, -1.0020, 0.0036, -0.0230, -0.1064, 523, 258797, 0.5000, 0.5000, -1.0000, 0.0000
7.4870, 0.6276, -0.6570, -9.5419, 0.0062, 0.0051, 0.0132, 0.5607, 0.5191, -1.0017, 0.0034, -0.0226, -0.1060, 524, 258797, 0.5000, 0.5000, -1.0000, 0.0000
7.5070, 0.6276, -0.6570, -9.5419, 0.0062, 0.0051, 0.0132, 0.5613, 0.5183, -1.0016, 0.0035, -0.0227, -0.1053, 525, 258797, 0.5000, 0.5000, -1.0000, 0.0000
7.5270, 0.6276, -0.6570, -9.5419, 0.0062, 0.0051, 0.0132, 0.5620, 0.5173, -1.0014, 0.0035, -0.0220, -0.1047, 526, 258797, 0.5000, 0.5000, -1.0000, 0.0000
7.5470, 0.6276, -0.6570, -9.5419, 0.0062, 0.0051, 0.0132, 0.5626, 0.5166, -1.0013, 0.0034, -0.0212, -0.1042, 527, 258797, 0.5000, 0.5000, -1.0000, 0.0000
7.5670, 0.6276, -0.6570, -9.5419, 0.0062, 0.0051, 0.0132, 0.5634, 0.5159, -1.0011, 0.0033, -0.0210, -0.1033, 528, 258797, 0.5000, 0.5000, -1.0000, 0.0000
7.5870, 0.6276, -0.6570, -9.5419, 0.0062, 0.0051, 0.0132, 0.5642, 0.5151, -1.0010, 0.0033, -0.0206, -0.1022, 529, 258797, 0.5000, 0.5000, -1.0000, 0.0000
7.6070, 0.6276, -0.6570, -9.5419, 0.0062, 0.0051, 0.0132, 0.5650, 0.5146, -1.0008, 0.0033, -0.0205, -0.1020, 530, 258797, 0.5000, 0.5000, -1.0000, 0.0000
7.6270, 0.6276, -0.6570, -9.5419, 0.0062, 0.0051, 0.0132, 0.5659, 0.5140, -1.0007, 0.0033, -0.0205, -0.1007, 531, 258797, 0.5000, 0.5000, -1.0000, 0.0000
7.6470, 0.6276, -0.6570, -9.5419, 0.0062, 0.0051, 0.0132, 0.5667, 0.5134, -1.0006, 0.0033, -0.0202, -0.0996, 532, 258797, 0.5000, 0.5000, -1.0000, 0.0000
7.6670, 0.6276, -0.6570, -9.5419, 0.0062, 0.0051, 0.0132, 0.5677, 0.5130, -1.0006, 0.0033, -0.0197, -0.0994, 533, 258797, 0.5000, 0.5000, -1.0000, 0.0000
7.6870, 0.6276, -0.6570, -9.5419, 0.0062, 0.0051, 0.0132, 0.5687, 0.5125, -1.0004, 0.0035, -0.0189, -0.0998, 534, 258797, 0.5000, 0.5000, -1.0000, 0.0000
7.7070, 0.6276, -0.6570, -9.5419, 0.0062, 0.0051, 0.0132, 0.5696, 0.5121, -1.0004, 0.0037, -0.0178, -0.0996, 535, 258797, 0.5000, 0.5000, -1.0000, 0.0000
7.7270, 0.6276, -0.6570, -9.5419, 0.0062, 0.0051, 0.0132, 0.5707, 0.5118, -1.0004, 0.0035, -0.0163, -0.0991, 536, 258797, 0.5000, 0.5000, -1.0000, 0.0000
7.7470, 0.6276, -0.6570, -9.5419, 0.0062, 0.0051, 0.0132, 0.5717, 0.5116, -1.0002, 0.0035, -0.0154, -0.0987, 537, 258797, 0.5000, 0.5000, -1.0000, 0.0000
